Date,Time,GPS-nav-time,GPS-nav-Lat,GPS-nav-Lon,GPS-nav-SOG,GPS-nav-COG,GPS-lab-time,GPS-lab-Lat,GPS-lab-Lon,GPS-lab-SOG,GPS-lab-COG,Tsal-temp,Tsal-sal,ADU5-Heading,Wind-Dir,WIND-Spd,TRUE-WIND-Speed,TRUE-WIND-Direction,Seatex-MRU-Roll,Seatex-MRU-Pitch,Chirp-DBT-meters,FluorT-Chl-Invivo,Fluor-Chl-avg-1-min-Value,Fluor-Chl-avg-60-min-Value,Fluor-CDOM-Raw,Fluor-CDOM-avg-1-mins-Value,Fluor-CDOM-avg-60-mins-Value,LCI90-payout,LCI90-Spd,LCI90-tension,Xmiss-NewDigital-RAW,Xmiss-NewDigital-1-min-Value,Xmiss-NewDigital-avg-60-min-Value,
04/25/2019,02:45:55,025929,2412.8693S,15146.6393W,5.6,342.6,025930,2412.8533S,15146.6416W,5.6,326.6, 25.6758, 35.4870,359.685,119,021,25.28,110.68,-4.62,-0.38,, 2.933  ,3.12,2.98,,,,00000011,00000000,0144.415,00547,525.65,615.7,
04/25/2019,02:46:55,030029,2412.7801S,15146.6326W,5.3,352.5,030030,2412.7654S,15146.6289W,5.3,355.0, 25.6745, 35.4872,026.508,074,019,22.83,111.56,-9.83,5.68,, 2.870  ,2.88,2.95,,,,00000011,00000000,0170.375,00716,613.18,615.29,
04/25/2019,02:47:55,030129,2412.6894S,15146.6044W,5.6,358.8,030130,2412.6738S,15146.6024W,5.8,346.6, 25.6846, 35.4867,012.744,093,024,27.36,117.14,-3.79,0.73,, 2.826  ,2.86,2.93,,,,00000011,00000000,0149.929,00961,702.82,635.75,
04/25/2019,02:48:55,030229,2412.5864S,15146.5921W,6.1,351.2,030230,2412.5713S,15146.5909W,6.3,341.1, 25.6862, 35.4856,007.741,099,021,25.24,119.09,-8.72,1.63,, 2.854  ,2.99,2.95,,,,00000011,00000000,0184.618,00811,599.75,629.15,
04/25/2019,02:49:55,030329,2412.4878S,15146.5790W,5.9,353.9,030330,2412.4724S,15146.5768W,5.9,349.6, 25.6822, 35.4858,015.835,081,021,24.75,113.76,-3.55,-1.22,, 2.935  ,2.87,2.93,,,,00000011,00000000,0149.929,00520,632.92,629.27,
04/25/2019,02:50:55,030429,2412.3809S,15146.5735W,6.2,344.7,030430,2412.3674S,15146.5735W,5.9,334.4, 25.6819, 35.4846,008.748,088,019,22.71,109.43,-7.95,4.25,, 2.837  ,2.9,2.93,,,,00000011,00000000,0156.161,00853,605.2,625.99,
04/25/2019,02:51:55,030529,2412.2796S,15146.5623W,6.1,351.8,030530,2412.2648S,15146.5600W,6.0,344.7, 25.6860, 35.4847,015.115,090,027,30.48,114.89,-3.01,-1.80,, 2.876  ,2.87,2.92,,,,00000011,00000000,0156.517,00338,678.87,631.88,
04/25/2019,02:52:55,030629,2412.1777S,15146.5459W,6.1,352.9,030630,2412.1649S,15146.5428W,6.2,346.8, 25.6944, 35.4840,017.434,086,022,25.39,116.04,-8.88,3.16,, 2.840  ,2.87,2.92,,,,00000011,00000000,0161.721,00696,650.12,634.32,
04/25/2019,02:53:55,030729,2412.0719S,15146.5213W,6.5,357.6,030730,2412.0588S,15146.5171W,6.8,351.9, 25.6857, 35.4840,022.322,061,027,33.09,115.69,-2.95,2.22,, 2.898  ,2.86,2.91,,,,00000011,00000000,0170.145,00489,690.71,639.71,
04/25/2019,02:54:55,030829,2411.9654S,15146.4984W,6.6,353.7,030830,2411.9505S,15146.4966W,6.6,343.0, 25.6901, 35.4834,011.684,088,023,25.69,114.76,-6.61,0.78,, 2.899  ,2.88,2.91,,,,00000011,00000000,00165.55,00454,692.42,644.6,
04/25/2019,02:55:55,030929,2411.8560S,15146.4849W,6.5,352.7,030930,2411.8419S,15146.4824W,6.5,347.8, 25.6885, 35.4826,017.082,091,022,25.89,120.6,-12.77,1.41,, 2.886  ,2.89,2.91,,,,00000011,00000000,0167.158,00825,695.58,648.75,
04/25/2019,02:56:55,031029,2411.7389S,15146.4721W,7.0,349.6,031030,2411.7241S,15146.4716W,7.2,339.8, 25.6830, 35.4827,006.601,095,018,22.64,117.28,-7.66,1.21,, 2.839  ,2.87,2.9,,,,00000011,00000000,0137.983,00724,721.95,654.05,
04/25/2019,02:57:55,031129,2411.6222S,15146.4734W,7.0,345.9,031130,2411.6070S,15146.4700W,7.0,344.1, 25.6754, 35.4825,019.675,085,023,26.59,111.64,-8.56,0.22,, 2.886  ,2.88,2.9,,,,00000011,00000000,0147.402,00711,677.78,655.57,
04/25/2019,02:58:55,031229,2411.5106S,15146.4456W,6.8,355.0,031230,2411.4977S,15146.4433W,7.2,345.8, 25.6759, 35.4821,014.008,088,026,29.1,116.6,-7.00,3.95,, 2.917  ,2.87,2.9,,,,00000011,00000000,0163.318,00738,754.49,661.95,
04/25/2019,02:59:55,031329,2411.3922S,15146.4384W,7.2,348.5,031330,2411.3778S,15146.4352W,7.3,346.9, 25.6663, 35.4821,022.460,065,022,26.7,105.03,-12.28,0.58,, 2.847  ,2.85,2.9,,,,00000011,00000000,0173.591,00749,728.47,666.13,
04/25/2019,03:00:55,031429,2411.2889S,15146.4027W,6.5,0.5,031430,2411.2722S,15146.3985W,6.3,349.5, 25.6669, 35.4820,018.968,092,025,26.29,118.56,-4.93,2.47,, 2.856  ,2.85,2.89,,,,00000011,00000000,0144.645,00745,768.58,671.94,
04/25/2019,03:01:55,031529,2411.1792S,15146.3946W,6.5,347.9,031530,2411.1646S,15146.3934W,6.3,338.4, 25.6618, 35.4810,008.136,094,021,20.78,112.56,-9.06,-0.14,, 2.853  ,3.01,2.9,,,,00000011,00000000,0143.267,00946,610.95,668.59,
04/25/2019,03:02:55,031629,2411.0741S,15146.3805W,6.3,353.6,031630,2411.0592S,15146.3778W,6.2,348.6, 25.6618, 35.4817,016.860,061,018,20.97,96.06,-10.66,3.13,, 2.860  ,2.84,2.9,,,,00000011,00000000,0169.915,00495,687.25,669.32,
04/25/2019,03:03:55,031729,2410.9646S,15146.3760W,6.6,345.2,031730,2410.9501S,15146.3777W,6.8,329.1, 25.6617, 35.4809,356.406,094,025,29.12,101.92,-3.67,1.48,, 2.817  ,2.85,2.89,,,,00000011,00000000,0159.747,00819,674.32,669.56,
04/25/2019,03:04:55,031829,2410.8585S,15146.3959W,6.5,337.0,031830,2410.8434S,15146.3983W,6.5,330.4, 25.6479, 35.4818,001.244,091,020,24.07,105.51,-4.09,1.19,, 2.805  ,2.82,2.89,,,,00000011,00000000,0137.064,00551,653.6,668.69,
04/25/2019,03:05:55,031929,2410.7586S,15146.3827W,5.9,355.1,031931,2410.7423S,15146.3758W,5.9,1.3, 25.6438, 35.4828,032.170,071,020,19.91,108.7,-11.15,1.95,, 2.841  ,2.84,2.89,,,,00000011,00000000,0160.931,00638,723.53,671.11,
04/25/2019,03:06:55,032029,2410.6732S,15146.3473W,5.5,3.2,032030,2410.6576S,15146.3416W,5.5,354.5, 25.6458, 35.4838,024.332,063,019,20.04,103.24,-12.59,2.59,, 2.874  ,2.88,2.89,,,,00000011,00000000,0188.063,00663,706.78,672.66,
04/25/2019,03:07:55,032129,2410.5722S,15146.3251W,6.0,355.9,032130,2410.5586S,15146.3219W,6.6,344.0, 25.6488, 35.4851,015.407,083,023,26.42,111.56,-6.80,4.72,, 2.891  ,2.87,2.89,,,,00000011,00000000,0144.415,01021,727.72,674.95,
04/25/2019,03:08:55,032229,2410.4734S,15146.3000W,6.1,358.7,032231,2410.4578S,15146.2966W,6.2,350.6, 25.6498, 35.4851,019.957,078,020,22.64,113.11,-11.66,0.27,, 2.874  ,2.92,2.89,,,,00000011,00000000,0170.604,00914,651.98,674.05,
04/25/2019,03:09:55,032329,2410.3664S,15146.2781W,6.5,356.5,032331,2410.3500S,15146.2736W,6.7,352.4, 25.6494, 35.4852,023.033,062,020,21.38,111.91,-14.06,3.37,, 2.864  ,2.88,2.89,,,,00000011,00000000,0187.834,00736,662.85,673.46,
04/25/2019,03:10:55,032429,2410.2542S,15146.2528W,6.8,355.6,032431,2410.2365S,15146.2502W,6.9,346.1, 25.6477, 35.4836,013.867,097,022,24.34,121.69,-11.61,2.27,, 2.843  ,2.86,2.89,,,,00000011,00000000,0157.233,00545,683.6,673.8,
04/25/2019,03:11:55,032529,2410.1381S,15146.2449W,6.9,348.0,032531,2410.1215S,15146.2447W,7.3,337.0, 25.6435, 35.4812,007.319,084,030,32.29,99.26,2.12,-2.99,, 2.815  ,2.85,2.89,,,,00000011,00000000,0145.564,00358,630.82,672.25,
04/25/2019,03:12:55,032629,2410.0342S,15146.2268W,6.4,356.4,032631,2410.0189S,15146.2192W,6.1,1.4, 25.6320, 35.4765,036.926,061,026,27.37,110.72,-5.42,1.00,, 2.856  ,2.85,2.89,,,,00000011,00000000,0126.956,00414,623.65,670.57,
04/25/2019,03:13:55,032729,2409.9547S,15146.1794W,5.5,10.8,032731,2409.9395S,15146.1724W,5.3,0.4, 25.6198, 35.4703,027.869,074,026,22.52,105.48,-10.91,-0.86,, 2.959  ,2.95,2.89,,,,00000011,00000000,0160.404,00687,632.17,669.32,
04/25/2019,03:14:55,032829,2409.8571S,15146.1552W,6.1,357.0,032831,2409.8399S,15146.1521W,6.7,344.6, 25.6098, 35.4684,013.747,082,028,31.25,109.12,-4.79,1.76,, 2.922  ,3.06,2.89,,,,00000011,00000000,0146.253,00632,613.22,667.66,
04/25/2019,03:15:55,032929,2409.7453S,15146.1441W,6.6,349.2,032931,2409.7283S,15146.1465W,6.5,335.8, 25.6021, 35.4672,358.884,093,020,22.44,116.44,-5.34,4.30,, 3.272  ,2.96,2.9,,,,00000011,00000000,0159.749,00625,608.9,665.84,
04/25/2019,03:16:56,033029,2409.6384S,15146.1579W,6.5,338.8,033031,2409.6212S,15146.1609W,6.5,332.4, 25.5934, 35.4664,005.028,100,014,19.63,114.98,-8.37,4.45,, 2.797  ,2.88,2.89,,,,00000011,00000000,0157.923,00608,585.93,663.46,
04/25/2019,03:17:56,033129,2409.5356S,15146.1465W,6.3,352.5,033131,2409.5179S,15146.1405W,6.3,350.4, 25.5912, 35.4652,028.481,072,028,29.45,129.9,-10.26,4.35,, 2.796  ,2.82,2.89,,,,00000011,00000000,0136.605,00772,631.77,662.52,
04/25/2019,03:18:56,033229,2409.4472S,15146.1157W,5.7,1.3,033231,2409.4328S,15146.1083W,5.9,355.6, 25.5806, 35.4650,025.791,085,024,27.04,122.18,-13.02,-0.00,, 2.907  ,2.86,2.89,,,,00000011,00000000,0136.605,00687,654.8,662.27,
04/25/2019,03:19:56,033329,2409.3450S,15146.0961W,6.1,352.4,033331,2409.3276S,15146.0955W,6.3,337.8, 25.5771, 35.4643,007.816,100,021,25.44,118.91,-6.94,-1.81,, 2.844  ,2.85,2.89,,,,00000011,00000000,0141.889,00645,623.15,661.17,
04/25/2019,03:20:56,033429,2409.2414S,15146.0874W,6.1,350.5,033431,2409.2259S,15146.0860W,5.7,345.9, 25.5727, 35.4644,016.470,089,020,23.4,117.6,-7.56,3.79,, 2.846  ,2.82,2.89,,,,00000011,00000000,0161.542,00608,630.32,660.34,
04/25/2019,03:21:56,033529,2409.1414S,15146.0771W,6.2,351.2,033531,2409.1231S,15146.0758W,6.1,344.8, 25.5667, 35.4639,015.801,089,021,21.3,116.51,-13.10,-0.95,, 2.814  ,2.91,2.89,,,,00000011,00000000,0169.685,00640,609.02,659.07,
04/25/2019,03:22:56,033629,2409.0352S,15146.0555W,6.4,356.0,033631,2409.0183S,15146.0517W,6.2,350.8, 25.5579, 35.4639,024.019,068,023,24.96,106.12,-10.74,3.76,, 2.764  ,2.83,2.89,,,,00000011,00000000,0168.766,00554,662.08,659.14,
04/25/2019,03:23:56,033729,2408.9275S,15146.0365W,6.5,352.4,033731,2408.9090S,15146.0380W,6.9,336.5, 25.5493, 35.4640,004.291,097,022,26.56,113.28,-4.95,1.05,, 2.916  ,2.86,2.89,,,,00000011,00000000,0130.862,00672,681.86,659.7,
04/25/2019,03:24:56,033829,2408.8219S,15146.0304W,6.4,350.2,033831,2408.8031S,15146.0292W,6.9,342.3, 25.5398, 35.4634,009.195,082,021,24.16,106.84,-11.63,2.90,, 2.798  ,2.83,2.89,,,,00000011,00000000,00174.05,00676,650.78,659.48,
04/25/2019,03:25:56,033929,2408.7056S,15146.0332W,6.9,342.3,033931,2408.6876S,15146.0368W,6.7,330.2, 25.5251, 35.4638,001.082,083,026,26.02,103.91,-9.71,3.01,, 2.837  ,2.81,2.88,,,,00000011,00000000,0166.699,00870,658.75,659.34,
04/25/2019,03:26:56,034029,2408.5914S,15146.0246W,6.9,351.9,034031,2408.5718S,15146.0253W,6.6,346.4, 25.5216, 35.4642,011.421,065,017,19.93,95.18,-14.46,4.26,, 2.810  ,2.8,2.88,,,,00000011,00000000,0160.096,00780,749.3,661.41,
04/25/2019,03:27:56,034129,2408.4817S,15146.0227W,6.5,347.6,034131,2408.4635S,15146.0229W,6.2,341.9, 25.5175, 35.4641,013.344,055,024,23.87,87.74,-11.90,0.92,, 2.763  ,2.77,2.88,,,,00000011,00000000,0161.784,01129,768.77,663.76,
04/25/2019,03:28:56,034229,2408.3700S,15146.0269W,6.8,343.4,034231,2408.3519S,15146.0287W,7.1,338.0, 25.5175, 35.4639,014.920,065,026,28.38,94.48,-11.78,2.79,, 2.806  ,2.76,2.88,,,,00000011,00000000,0175.199,00843,776.47,666.4,
04/25/2019,03:29:56,034329,2408.2514S,15146.0147W,7.2,349.8,034331,2408.2317S,15146.0154W,7.5,338.5, 25.4940, 35.4647,006.566,086,024,23.25,112.04,-8.53,3.57,, 2.845  ,2.79,2.87,,,,00000011,00000000,0152.686,00978,796.98,669.19,
04/25/2019,03:30:56,034429,2408.1288S,15146.0266W,7.3,342.3,034431,2408.1102S,15146.0248W,7.1,344.2, 25.4808, 35.4628,023.227,066,027,29.86,104.65,-4.90,3.54,, 2.960  ,3.07,2.88,,,,00000011,00000000,0134.537,00618,757.77,670.98,
04/25/2019,03:31:56,034529,2408.0196S,15145.9969W,6.8,356.3,034531,2407.9995S,15145.9955W,6.9,347.1, 25.4797, 35.4598,015.494,083,022,31.53,104.27,-9.91,1.08,, 2.847  ,2.9,2.88,,,,00000011,00000000,0150.618,00793,812.02,673.9,
04/25/2019,03:32:56,034629,2407.9179S,15146.0387W,6.1,316.7,034631,2407.9042S,15146.0512W,6.5,283.3, 25.4709, 35.4591,312.654,147,019,24.49,100.85,-5.93,2.91,, 2.773  ,2.86,2.88,,,,00000011,00000000,0156.134,00601,631.53,673.06,
04/25/2019,03:33:56,034729,2407.8321S,15146.1023W,6.2,316.2,034731,2407.8174S,15146.1108W,6.0,311.0, 25.4637, 35.4607,334.892,123,015,19.72,116.18,-7.44,3.67,, 2.779  ,2.81,2.88,,,,00000011,00000000,0163.942,00506,653.36,672.66,
04/25/2019,03:34:56,034829,2407.7544S,15146.1658W,5.8,305.9,034831,2407.7413S,15146.1752W,5.4,300.2, 25.4664, 35.4606,330.695,135,016,21.37,108.75,0.18,3.51,, 2.792  ,2.81,2.88,,,,00000011,00000000,00153.09,00385,626.13,671.8,
04/25/2019,03:35:56,034929,2407.6759S,15146.2160W,5.5,314.8,034931,2407.6627S,15146.2249W,5.5,306.7, 25.4620, 35.4605,328.841,132,014,19.1,108.67,-2.18,0.51,, 2.844  ,2.81,2.87,,,,00000011,00000000,0145.564,00568,641.2,671.3,
04/25/2019,03:36:56,035029,2407.6041S,15146.2729W,5.3,308.7,035031,2407.5920S,15146.2794W,5.1,300.5, 25.4600, 35.4608,326.875,130,016,20.8,103.22,4.20,2.56,, 2.779  ,2.8,2.87,,,,00000011,00000000,0152.907,00375,635.5,670.66,
04/25/2019,03:37:56,035130,2407.5323S,15146.3186W,4.8,314.7,035131,2407.5200S,15146.3224W,4.7,314.5, 25.4607, 35.4614,343.970,120,012,14.96,108.81,-4.20,3.21,, 2.763  ,2.8,2.87,,,,00000011,00000000,0154.389,00661,667.93,670.62,
04/25/2019,03:38:56,035230,2407.4553S,15146.3410W,4.8,329.2,035231,2407.4432S,15146.3437W,4.5,333.0, 25.4611, 35.4611,009.824,096,016,16.72,107.05,-4.70,1.77,, 2.817  ,2.79,2.87,,,,00000011,00000000,0139.132,00585,671.78,670.63,
04/25/2019,03:39:56,035330,2407.3780S,15146.3311W,4.6,349.8,035331,2407.3654S,15146.3305W,4.2,351.3, 25.4643, 35.4603,023.849,068,017,18.24,104.93,-4.84,-0.61,, 2.825  ,2.81,2.87,,,,00000011,00000000,0140.969,00722,709.77,671.33,
04/25/2019,03:40:56,035430,2407.3012S,15146.3119W,4.7,357.1,035431,2407.2876S,15146.3107W,4.8,348.2, 25.4663, 35.4605,017.390,078,019,20.97,108.6,-6.47,2.08,, 2.865  ,2.86,2.87,,,,00000011,00000000,0157.801,00538,705.82,671.92,
04/25/2019,03:41:56,035530,2407.2104S,15146.3105W,5.4,344.1,035531,2407.1946S,15146.3157W,6.0,332.6, 25.4642, 35.4608,005.369,103,018,26.49,114.96,-6.89,3.17,, 2.839  ,2.83,2.87,,,,00000011,00000000,0144.875,00478,709.5,672.61,
04/25/2019,03:42:56,035630,2407.1124S,15146.3076W,5.8,348.8,035631,2407.0960S,15146.3098W,5.9,349.0, 25.4596, 35.4619,024.085,076,021,25.42,120.04,-7.57,3.14,, 2.849  ,2.82,2.87,,,,00000011,00000000,0160.041,00776,739.18,673.79,
04/25/2019,03:43:56,035730,2407.0129S,15146.2829W,6.0,355.3,035731,2406.9978S,15146.2863W,6.1,344.1, 25.4604, 35.4620,009.846,082,019,25.65,106.14,-7.72,0.64,, 2.913  ,2.85,2.87,,,,00000011,00000000,0169.915,00596,714.38,674.73,
04/25/2019,03:44:56,035830,2406.9062S,15146.2871W,6.3,344.3,035831,2406.8918S,15146.2916W,6.3,335.9, 25.4578, 35.4609,011.297,080,025,28.28,102.91,-7.64,2.30,, 2.873  ,2.9,2.87,,,,00000011,00000000,0159.617,00547,755.58,675.9,
04/25/2019,03:45:56,035930,2406.7997S,15146.2765W,6.3,350.6,035931,2406.7830S,15146.2797W,6.2,347.0, 25.4542, 35.4595,020.304,075,028,30.52,106.42,-10.21,1.62,, 2.836  ,2.84,2.86,,,,00000011,00000000,0152.915,00582,815.87,680.74,
04/25/2019,03:46:56,040030,2406.6848S,15146.2658W,6.9,348.2,040031,2406.6697S,15146.2719W,7.1,337.6, 25.4474, 35.4593,008.360,085,026,27.33,102.41,-9.64,1.20,, 2.791  ,2.85,2.86,,,,00000011,00000000,0170.375,00819,830.58,684.34,
04/25/2019,03:47:56,040130,2406.5606S,15146.2713W,7.4,342.8,040131,2406.5456S,15146.2758W,7.9,335.5, 25.4518, 35.4586,005.570,080,019,25.22,96.94,-8.21,1.75,, 2.787  ,2.79,2.86,,,,00000011,00000000,0165.257,00999,773.9,685.44,
04/25/2019,03:48:56,040230,2406.4428S,15146.2563W,7.0,353.4,040231,2406.4272S,15146.2576W,6.5,354.6, 25.4493, 35.4588,023.267,081,018,18.67,110.58,-13.45,0.69,, 2.749  ,2.83,2.86,,,,00000011,00000000,0159.319,01277,839.9,689.48,
04/25/2019,03:49:56,040330,2406.3263S,15146.2497W,7.1,346.6,040331,2406.3108S,15146.2534W,7.5,332.2, 25.4456, 35.4591,001.823,095,023,27.95,109.58,-2.70,-0.19,, 2.767  ,2.79,2.86,,,,00000011,00000000,00149.01,00569,816.58,692.76,
04/25/2019,03:50:56,040430,2406.2167S,15146.2405W,6.6,352.6,040431,2406.2036S,15146.2385W,6.2,356.5, 25.4433, 35.4588,028.198,072,026,28.12,112.57,-4.90,-1.30,, 2.812  ,2.83,2.86,,,,00000011,00000000,0134.078,01051,814.7,696.19,
04/25/2019,03:51:56,040530,2406.1084S,15146.2236W,6.8,348.4,040531,2406.0947S,15146.2258W,7.6,332.1, 25.4338, 35.4587,002.155,092,025,29.74,106.66,-3.25,-2.21,, 2.857  ,2.94,2.86,,,,00000011,00000000,0150.388,00693,727.7,697.06,
04/25/2019,03:52:56,040630,2405.9997S,15146.2167W,6.5,351.1,040631,2405.9855S,15146.2183W,6.4,352.2, 25.4242, 35.4588,026.541,075,025,27.92,115.39,-5.53,1.09,, 2.904  ,2.88,2.86,,,,00000011,00000000,0160.181,00455,804.62,699.52,
04/25/2019,03:53:56,040730,2405.8975S,15146.2009W,6.3,348.7,040731,2405.8821S,15146.2037W,6.5,333.3, 25.4220, 35.4553,004.942,107,023,28.28,121.48,-4.05,1.39,, 3.592  ,3.11,2.86,,,,00000011,00000000,0159.618,00451,713.77,699.91,
04/25/2019,03:54:56,040830,2405.7860S,15146.1872W,6.8,352.7,040831,2405.7684S,15146.1908W,7.0,347.7, 25.4052, 35.4581,018.412,095,022,26.33,122.37,-9.20,0.75,, 2.834  ,2.95,2.86,,,,00000011,00000000,00160.25,00664,789.93,701.55,
04/25/2019,03:55:56,040930,2405.6650S,15146.1782W,7.2,348.6,040931,2405.6502S,15146.1820W,7.6,342.8, 25.3906, 35.4561,014.459,096,025,30.25,121.93,-7.36,4.73,, 2.986  ,2.88,2.86,,,,00000011,00000000,0170.834,00722,769.97,702.76,
04/25/2019,03:56:56,041030,2405.5582S,15146.2020W,6.4,326.6,041031,2405.5442S,15146.2133W,6.4,295.3, 25.3649, 35.4557,321.390,142,018,24.3,106.51,-5.26,-0.66,, 3.084  ,2.97,2.86,,,,00000011,00000000,0153.555,00896,726.48,702.83,
04/25/2019,03:57:56,041130,2405.4569S,15146.2488W,6.6,328.1,041131,2405.4410S,15146.2523W,7.0,326.9, 25.3477, 35.4553,347.699,111,018,23.26,111.66,-5.39,0.57,, 3.016  ,3.08,2.87,,,,00000011,00000000,00140.28,00812,805.57,704.96,
04/25/2019,03:58:56,041230,2405.3551S,15146.3074W,6.8,315.8,041231,2405.3405S,15146.3119W,7.1,306.1, 25.3372, 35.4550,336.201,129,021,29.27,101.58,-1.58,1.82,, 2.897  ,2.9,2.87,,,,00000011,00000000,0149.699,00667,736.5,704.62,
04/25/2019,03:59:56,041330,2405.2341S,15146.3545W,7.7,325.5,041331,2405.2205S,15146.3586W,8.2,318.4, 25.3375, 35.4549,340.642,118,023,27.67,100.49,-9.49,1.37,, 2.801  ,2.84,2.87,,,,00000011,00000000,0160.435,00941,845.02,706.51,
04/25/2019,04:00:56,041430,2405.1368S,15146.4398W,7.4,306.7,041431,2405.1236S,15146.4456W,7.2,308.6, 25.3311, 35.4529,347.314,099,023,28.74,96.02,-5.16,0.11,, 2.781  ,2.84,2.87,,,,00000011,00000000,0151.307,01010,643.63,704.48,
04/25/2019,04:01:56,041530,2405.0131S,15146.4670W,7.7,330.2,041531,2404.9995S,15146.4713W,8.2,320.9, 25.3284, 35.4515,337.938,124,022,28.84,112.24,-9.63,-3.56,, 2.849  ,2.82,2.86,,,,00000011,00000000,0156.117,00556,762.22,706.93,
04/25/2019,04:02:56,041630,2404.8964S,15146.5470W,8.0,314.3,041631,2404.8809S,15146.5520W,8.2,311.5, 25.3178, 35.4527,343.001,119,025,31.69,113.92,-9.01,2.78,, 2.814  ,2.83,2.86,,,,00000011,00000000,0161.034,00841,660.82,706.57,
04/25/2019,04:03:56,041730,2404.7878S,15146.6166W,7.4,309.0,041731,2404.7769S,15146.6284W,7.0,284.4, 25.3236, 35.4531,304.187,150,022,28.98,100.7,0.64,0.53,, 2.810  ,2.84,2.86,,,,00000011,00000000,0154.774,00595,651.57,706.13,
04/25/2019,04:04:56,041830,2404.7003S,15146.6787W,6.4,317.3,041831,2404.6853S,15146.6842W,6.3,316.5, 25.3188, 35.4549,336.536,126,020,26.66,98.94,-2.11,-1.53,, 2.834  ,2.82,2.86,,,,00000011,00000000,0156.187,00524,628.85,705.81,
04/25/2019,04:05:56,041930,2404.6130S,15146.7404W,6.2,310.4,041932,2404.5973S,15146.7482W,6.1,301.4, 25.3301, 35.4553,328.436,130,018,23.81,104.82,-2.99,-0.47,, 2.803  ,2.81,2.86,,,,00000011,00000000,0154.074,00574,591.12,703.66,
04/25/2019,04:06:56,042030,2404.5207S,15146.7566W,5.6,340.7,042031,2404.5063S,15146.7519W,5.5,355.4, 25.3386, 35.4561,032.346,064,018,19.8,112.18,-10.26,6.03,, 2.821  ,2.8,2.86,,,,00000011,00000000,0178.874,00538,710.6,703.72,
04/25/2019,04:07:56,042130,2404.4314S,15146.7233W,5.6,358.7,042131,2404.4176S,15146.7227W,5.8,347.4, 25.3373, 35.4539,010.727,089,023,25.77,111.74,-2.25,0.99,, 3.261  ,2.9,2.86,,,,00000011,00000000,0145.564,00486,650.93,702.45,
04/25/2019,04:08:56,042230,2404.3367S,15146.7184W,5.7,347.9,042231,2404.3206S,15146.7152W,5.7,346.4, 25.3423, 35.4564,017.382,073,018,20.15,106.31,-4.16,0.54,, 2.808  ,2.95,2.86,,,,00000011,00000000,0158.634,00550,580.92,701.23,
04/25/2019,04:09:56,042330,2404.2474S,15146.6934W,5.5,357.4,042332,2404.2291S,15146.6912W,5.6,348.0, 25.3367, 35.4557,013.045,086,016,18.87,116.49,-1.54,0.82,, 3.041  ,2.86,2.86,,,,00000011,00000000,0150.388,00434,687.32,701.65,
04/25/2019,04:10:56,042430,2404.1560S,15146.6837W,5.5,349.8,042432,2404.1400S,15146.6825W,5.5,343.0, 25.3412, 35.4535,012.997,086,023,24.86,109.59,-5.65,-1.09,, 3.212  ,3.23,2.87,,,,00000011,00000000,0140.969,00550,556.82,699.65,
04/25/2019,04:11:56,042530,2404.0530S,15146.6641W,6.2,356.1,042532,2404.0363S,15146.6619W,6.4,350.1, 25.3381, 35.4550,018.552,086,028,31.2,115.31,-8.96,1.41,, 2.816  ,2.83,2.87,,,,00000011,00000000,0156.821,00571,741.45,701.75,
04/25/2019,04:12:56,042630,2403.9267S,15146.6492W,7.4,351.2,042632,2403.9114S,15146.6472W,7.4,349.5, 25.3492, 35.4540,019.453,068,026,28,102.63,-9.34,0.57,, 2.785  ,2.82,2.87,,,,00000011,00000000,0142.807,00907,720.22,703.19,
04/25/2019,04:13:56,042730,2403.8004S,15146.6260W,7.8,352.2,042732,2403.7826S,15146.6247W,7.9,343.7, 25.3532, 35.4556,014.470,086,025,29.42,114.34,-8.20,2.45,, 2.805  ,2.82,2.87,,,,00000011,00000000,0162.288,00831,802.53,706.01,
04/25/2019,04:14:56,042830,2403.6660S,15146.6007W,8.0,353.8,042832,2403.6473S,15146.6033W,8.1,346.0, 25.3647, 35.4563,013.503,087,023,27.89,112.29,-10.02,4.24,, 2.755  ,2.88,2.86,,,,00000011,00000000,00161.53,00786,676.93,707.06,
04/25/2019,04:15:56,042930,2403.5344S,15146.5857W,7.8,351.8,042932,2403.5176S,15146.5868W,7.6,345.1, 25.3641, 35.4558,013.289,075,027,29.69,95.24,-8.61,-2.49,, 2.791  ,2.78,2.86,,,,00000011,00000000,0153.834,00706,748.98,709.36,
04/25/2019,04:16:56,043030,2403.4076S,15146.5649W,7.7,352.8,043032,2403.3911S,15146.5663W,7.7,344.6, 25.3748, 35.4582,013.340,090,022,26.57,118.06,-10.64,4.32,, 2.735  ,2.77,2.86,,,,00000011,00000000,0173.361,00637,728.23,711.77,
04/25/2019,04:17:56,043130,2403.2882S,15146.5493W,7.4,352.0,043132,2403.2695S,15146.5488W,7.4,346.4, 25.3714, 35.4594,015.060,091,024,28.4,119.15,-14.30,5.09,, 2.759  ,2.8,2.86,,,,00000011,00000000,0177.956,00762,755.28,713.81,
04/25/2019,04:18:56,043230,2403.1683S,15146.5283W,7.2,355.3,043232,2403.1507S,15146.5289W,7.3,352.0, 25.4188, 35.4727,015.370,062,016,25.58,110.56,-11.29,0.08,, 2.790  ,2.8,2.86,,,,00000011,00000000,0196.793,00703,771.08,715.78,
04/25/2019,04:19:56,043330,2403.0530S,15146.4969W,7.2,0.7,043332,2403.0339S,15146.4957W,6.9,354.4, 25.4697, 35.4792,018.157,100,021,22.1,119.45,-15.23,1.14,, 2.756  ,2.81,2.86,,,,00000011,00000000,0178.415,00776,765.61,718.24,
04/25/2019,04:20:56,043430,2402.9312S,15146.4742W,7.2,355.4,043432,2402.9167S,15146.4752W,7.2,343.9, 25.4945, 35.4809,006.356,092,033,34.19,105.74,-4.81,-3.54,, 2.736  ,2.81,2.86,,,,00000011,00000000,0149.469,00545,725.92,719.78,
04/25/2019,04:21:56,043530,2402.8142S,15146.4620W,7.2,352.4,043532,2402.7976S,15146.4601W,7.4,349.1, 25.5112, 35.4818,016.508,086,024,27.9,117.58,-10.83,3.50,, 2.973  ,2.8,2.85,,,,00000011,00000000,0171.983,00550,741.13,722.03,
04/25/2019,04:22:56,043630,2402.6910S,15146.4459W,7.3,349.8,043632,2402.6771S,15146.4467W,7.3,344.7, 25.5268, 35.4824,017.280,086,020,24.19,118.58,-18.95,3.67,, 2.816  ,3.06,2.86,,,,00000011,00000000,0163.335,01060,699.4,722.64,
04/25/2019,04:23:56,043730,2402.5701S,15146.4160W,7.4,357.6,043732,2402.5549S,15146.4164W,7.7,349.0, 25.5335, 35.4831,011.389,084,024,27,110.91,-8.83,2.97,, 2.797  ,2.77,2.86,,,,00000011,00000000,0152.915,00844,809.4,724.69,
04/25/2019,04:24:56,043830,2402.4503S,15146.4070W,7.0,349.8,043832,2402.4368S,15146.4046W,7.0,340.7, 25.5403, 35.4821,012.611,079,030,33.23,102.9,-4.02,-2.09,, 3.044  ,2.82,2.86,,,,00000011,00000000,0142.118,00491,711.31,725.66,
04/25/2019,04:25:56,043930,2402.3495S,15146.3852W,6.4,355.0,043932,2402.3335S,15146.3840W,6.5,346.9, 25.5390, 35.4792,009.522,093,023,26.47,115.32,-5.27,3.56,, 3.736  ,2.93,2.86,,,,00000011,00000000,0166.379,00373,698.38,726.46,
04/25/2019,04:26:56,044030,2402.2364S,15146.3758W,6.7,349.1,044032,2402.2222S,15146.3723W,6.8,343.3, 25.5388, 35.4791,018.335,089,019,24.01,118.07,-16.19,6.00,, 2.780  ,3.03,2.86,,,,00000011,00000000,0167.388,00731,613.83,724.32,
04/25/2019,04:27:56,044130,2402.1273S,15146.3446W,6.9,359.2,044132,2402.1116S,15146.3431W,7.1,348.8, 25.5343, 35.4772,011.074,087,026,29.13,111.38,-7.63,-1.68,, 2.803  ,2.79,2.86,,,,00000011,00000000,0146.713,00379,772.15,724.33,
04/25/2019,04:28:56,044230,2402.0100S,15146.3313W,7.0,355.4,044232,2401.9940S,15146.3237W,6.9,358.2, 25.5320, 35.4777,029.038,080,022,25.4,123.91,-13.22,-0.56,, 2.773  ,2.87,2.86,,,,00000011,00000000,0143.497,01030,717.62,723.54,
04/25/2019,04:29:57,044330,2401.9128S,15146.3008W,6.2,358.1,044332,2401.8962S,15146.2925W,6.4,345.8, 25.5265, 35.4772,008.861,083,023,25.49,106.33,-6.53,5.11,, 2.945  ,2.91,2.87,,,,00000011,00000000,0156.628,00417,704.31,722.01,
04/25/2019,04:30:57,044430,2401.8104S,15146.2830W,6.2,353.9,044432,2401.7941S,15146.2777W,6.5,345.7, 25.5058, 35.4740,013.964,086,024,28.81,116.61,-3.99,2.14,, 2.878  ,3.26,2.87,,,,00000011,00000000,00140.51,00578,610.57,719.67,
04/25/2019,04:31:57,044530,2401.7024S,15146.2529W,6.6,357.8,044532,2401.6857S,15146.2501W,6.7,350.7, 25.5018, 35.4719,014.007,094,020,25.39,109.36,-9.18,1.44,, 2.909  ,2.95,2.87,,,,00000011,00000000,0156.284,00828,703.88,717.89,
04/25/2019,04:32:57,044630,2401.5891S,15146.2378W,6.8,352.7,044632,2401.5730S,15146.2361W,6.9,342.0, 25.5027, 35.4654,009.354,105,018,19.44,112.51,-9.19,-0.64,, 2.893  ,2.87,2.87,,,,00000011,00000000,0132.929,00726,696.9,718.95,
04/25/2019,04:33:57,044730,2401.4854S,15146.2225W,6.3,356.0,044732,2401.4698S,15146.2165W,6.3,355.7, 25.5046, 35.4712,028.139,080,020,23.22,123.36,-12.36,3.69,, 2.819  ,2.85,2.87,,,,00000011,00000000,0158.834,00858,729.03,720.17,
04/25/2019,04:34:57,044830,2401.3822S,15146.1991W,6.4,354.6,044832,2401.3666S,15146.1957W,6.4,344.3, 25.5023, 35.4696,009.621,098,019,25.42,122.05,-4.67,0.43,, 2.885  ,2.94,2.87,,,,00000011,00000000,0152.563,00400,717.24,721.78,
04/25/2019,04:35:57,044930,2401.2744S,15146.1813W,6.5,353.2,044932,2401.2592S,15146.1748W,6.4,348.9, 25.4954, 35.4683,020.528,085,028,27.66,120.72,-7.57,0.78,, 2.800  ,2.85,2.87,,,,00000011,00000000,0141.199,00964,770.4,723.9,
04/25/2019,04:36:57,045030,2401.1687S,15146.1653W,6.5,352.3,045032,2401.1513S,15146.1582W,6.6,349.1, 25.4931, 35.4658,019.713,088,021,24.91,121.74,-10.55,2.85,, 3.102  ,2.93,2.88,,,,00000011,00000000,0170.604,00814,728.42,725.43,
04/25/2019,04:37:57,045130,2401.0491S,15146.1493W,7.2,350.7,045132,2401.0332S,15146.1473W,8.0,338.7, 25.4933, 35.4639,006.688,084,024,28.06,107.17,-9.64,4.72,, 3.032  ,2.95,2.88,,,,00000011,00000000,0150.159,00881,724.02,726.19,
04/25/2019,04:38:57,045230,2400.9303S,15146.1306W,7.1,354.0,045232,2400.9152S,15146.1236W,7.1,351.0, 25.4881, 35.4648,022.782,070,022,24.46,109.29,-14.58,2.58,, 2.766  ,2.8,2.88,,,,00000011,00000000,0160.053,00823,788.6,728.14,
04/25/2019,04:39:57,045330,2400.8087S,15146.1288W,7.3,343.9,045332,2400.7929S,15146.1281W,7.5,334.7, 25.4863, 35.4638,010.838,093,026,31.29,114.68,-5.86,2.75,, 2.786  ,2.85,2.88,,,,00000011,00000000,0123.051,00730,738.12,728.67,
04/25/2019,04:40:57,045430,2400.7008S,15146.0943W,6.6,1.4,045432,2400.6856S,15146.0870W,6.2,0.4, 25.4881, 35.4634,028.279,067,026,27.39,110.28,-5.89,4.48,, 2.827  ,2.83,2.88,,,,00000011,00000000,00149.01,00737,803.42,730.27,
04/25/2019,04:41:57,045530,2400.6044S,15146.0746W,5.9,353.2,045532,2400.5902S,15146.0753W,5.8,334.9, 25.4850, 35.4584,003.352,060,025,25.45,76.88,-8.83,4.17,, 4.247  ,3.21,2.88,,,,00000011,00000000,0156.757,00393,626.3,728.8,
04/25/2019,04:42:57,045630,2400.5091S,15146.0908W,5.6,338.0,045632,2400.4956S,15146.0947W,5.5,326.1, 25.4760, 35.4628,353.479,054,016,15.89,64.15,-7.05,3.79,, 2.841  ,2.98,2.89,,,,00000011,00000000,0141.199,00596,681.55,727.85,
04/25/2019,04:43:57,045730,2400.4359S,15146.1095W,4.6,334.1,045732,2400.4216S,15146.1069W,3.8,335.4, 25.4703, 35.4623,014.834,050,018,18.36,76.78,-5.24,4.30,, 2.809  ,2.81,2.89,,,,00000011,00000000,0159.118,00628,696.33,727.51,
04/25/2019,04:44:57,045830,2400.3817S,15146.1027W,3.4,344.9,045832,2400.3681S,15146.0999W,3.1,341.0, 25.4571, 35.4619,014.772,065,016,16.76,90.31,-3.75,2.55,, 2.805  ,2.84,2.89,,,,00000011,00000000,0144.415,00725,647.76,725.71,
04/25/2019,04:45:57,045930,2400.3283S,15146.1025W,3.4,345.1,045932,2400.3143S,15146.1026W,3.9,331.8, 25.4402, 35.4595,357.527,081,018,19.39,90.19,-4.88,1.30,, 2.750  ,2.8,2.88,,,,00000011,00000000,0143.726,00619,645.35,722.78,
04/25/2019,04:46:57,050031,2400.2628S,15146.1184W,3.9,331.1,050032,2400.2489S,15146.1212W,4.1,327.8, 25.4348, 35.4577,359.981,077,014,16.75,87.89,-3.83,0.20,, 2.820  ,2.83,2.88,,,,00000011,00000000,0139.132,00412,657.35,719.89,
04/25/2019,04:47:57,050131,2400.1977S,15146.1184W,3.8,345.8,050132,2400.1853S,15146.1117W,3.5,353.5, 25.4382, 35.4580,026.568,054,018,23.56,96.96,-7.39,-0.10,, 2.759  ,2.86,2.89,,,,00000011,00000000,0161.875,00504,725.3,719.16,
04/25/2019,04:48:57,050231,2400.1386S,15146.1055W,3.9,353.6,050232,2400.1238S,15146.1010W,4.3,342.2, 25.4404, 35.4568,011.594,078,022,22.48,98.85,-6.45,4.88,, 2.846  ,2.87,2.89,,,,00000011,00000000,0144.875,00787,682.08,716.5,
04/25/2019,04:49:57,050331,2400.0478S,15146.1030W,5.3,347.9,050332,2400.0336S,15146.1005W,5.8,340.3, 25.4438, 35.4565,008.128,079,023,25.3,99.81,-3.62,-1.19,, 2.831  ,2.89,2.89,,,,00000011,00000000,0136.145,00488,715.73,714.82,
04/25/2019,04:50:57,050431,2359.9487S,15146.1002W,6.0,345.0,050432,2359.9329S,15146.0990W,6.3,339.4, 25.4424, 35.4526,013.112,058,022,24.15,116.5,-9.20,3.60,, 2.851  ,2.88,2.89,,,,00000011,00000000,0191.739,00629,700.02,712.9,
04/25/2019,04:51:57,050531,2359.8553S,15146.0801W,5.6,357.2,050532,2359.8418S,15146.0751W,5.4,353.6, 25.4455, 35.4536,019.819,080,020,20.78,99.37,-10.94,1.63,, 3.445  ,3.11,2.89,,,,00000011,00000000,00153.91,00530,676.58,712.16,
04/25/2019,04:52:57,050631,2359.7591S,15146.0650W,5.9,351.4,050632,2359.7445S,15146.0655W,6.0,334.9, 25.4476, 35.4573,355.920,100,025,28.47,105.9,-5.37,2.27,, 3.282  ,3.13,2.9,,,,00000011,00000000,0144.415,00530,658.8,709.73,
04/25/2019,04:53:57,050731,2359.6544S,15146.0685W,6.2,347.7,050732,2359.6400S,15146.0670W,6.2,351.0, 25.4586, 35.4546,020.006,064,021,22.34,101.54,-9.18,-0.45,, 3.055  ,3.01,2.89,,,,00000011,00000000,0170.145,00728,697.18,709.44,
04/25/2019,04:54:57,050831,2359.5525S,15146.0435W,6.4,355.8,050832,2359.5378S,15146.0421W,6.6,343.3, 25.4701, 35.4645,010.266,076,027,29.2,98.99,-3.14,0.01,, 2.896  ,2.84,2.89,,,,00000011,00000000,0157.656,00715,786.53,709.4,
04/25/2019,04:55:57,050931,2359.4426S,15146.0581W,6.4,335.9,050932,2359.4300S,15146.0596W,6.2,328.2, 25.4712, 35.4656,007.639,093,022,26.58,110.55,-9.90,1.97,, 2.878  ,2.96,2.89,,,,00000011,00000000,0141.659,00859,697.37,708.16,
04/25/2019,04:56:57,051031,2359.3508S,15146.0326W,5.7,358.5,051032,2359.3360S,15146.0280W,5.5,354.5, 25.4815, 35.4685,019.948,063,027,27.41,94.52,-1.18,0.21,, 2.865  ,2.84,2.89,,,,00000011,00000000,0136.145,00707,792.28,709.23,
04/25/2019,04:57:57,051131,2359.2485S,15146.0281W,6.0,345.5,051132,2359.2348S,15146.0287W,6.1,337.3, 25.4906, 35.4705,005.818,093,021,24.89,111.34,-4.07,2.62,, 2.868  ,2.99,2.89,,,,00000011,00000000,0138.213,00388,726.63,707.95,
04/25/2019,04:58:57,051231,2359.1560S,15146.0157W,5.5,354.1,051232,2359.1400S,15146.0126W,5.2,349.1, 25.4958, 35.4705,013.637,084,019,21.55,115.77,-9.33,3.90,, 3.055  ,3,2.89,,,,00000011,00000000,0162.104,00635,695.22,707.34,
04/25/2019,04:59:57,051331,2359.0584S,15146.0172W,5.8,344.3,051332,2359.0424S,15146.0153W,5.9,339.5, 25.5033, 35.4724,010.746,075,023,21.5,102.4,-0.89,-3.15,, 3.358  ,3.17,2.9,,,,00000011,00000000,0127.875,00632,654.92,704.3,
04/25/2019,05:00:57,051431,2358.9633S,15146.0015W,5.7,352.5,051432,2358.9485S,15145.9998W,5.7,343.0, 25.5090, 35.4744,010.018,089,024,26.99,109.96,-0.47,0.45,, 2.868  ,3.17,2.9,,,,00000011,00000000,0124.429,00417,648.7,704.29,
04/25/2019,05:01:57,051531,2358.8636S,15145.9984W,5.8,345.8,051532,2358.8509S,15145.9999W,5.8,334.3, 25.5134, 35.4715,008.634,082,025,28.06,101.31,-2.48,1.96,, 4.041  ,3.16,2.91,,,,00000011,00000000,00155.05,00344,682.62,703.11,
04/25/2019,05:02:57,051631,2358.7724S,15145.9845W,5.6,353.8,051632,2358.7579S,15145.9846W,6.0,350.1, 25.5260, 35.4734,015.472,090,021,21.26,100.25,-3.72,-4.50,, 3.294  ,3.38,2.92,,,,00000011,00000000,00132.01,00872,619.6,702.47,
04/25/2019,05:03:57,051731,2358.6805S,15145.9869W,5.5,342.8,051732,2358.6676S,15145.9879W,5.8,327.8, 25.5425, 35.4792,352.854,100,016,18.69,104.54,-4.52,2.02,, 2.991  ,3.18,2.92,,,,00000011,00000000,0144.415,00669,637.6,702.31,
04/25/2019,05:04:57,051831,2358.5891S,15145.9894W,5.7,346.4,051832,2358.5725S,15145.9869W,5.8,348.2, 25.5455, 35.4823,020.259,082,021,21.61,100.79,-7.92,-1.20,, 2.872  ,2.93,2.93,,,,00000011,00000000,0141.429,00703,742.58,704.08,
04/25/2019,05:05:57,051931,2358.4951S,15145.9697W,5.6,354.5,051932,2358.4810S,15145.9665W,5.9,342.8, 25.5559, 35.4816,007.634,089,021,24,109.63,-14.11,-0.79,, 2.952  ,2.94,2.93,,,,00000011,00000000,0159.978,00801,777.42,707.27,
04/25/2019,05:06:57,052031,2358.3806S,15145.9793W,6.7,340.6,052032,2358.3641S,15145.9770W,6.6,334.3, 25.5564, 35.4841,007.173,086,020,24.7,104.96,-5.65,-0.84,, 2.882  ,2.93,2.93,,,,00000011,00000000,0164.402,00599,757.63,707.99,
04/25/2019,05:07:57,052131,2358.2747S,15145.9571W,6.2,355.8,052132,2358.2592S,15145.9559W,6.0,344.6, 25.5644, 35.4842,004.511,083,021,26.98,100.03,-7.07,1.93,, 2.974  ,2.89,2.93,,,,00000011,00000000,0170.145,01059,828.25,710.98,
04/25/2019,05:08:57,052231,2358.1613S,15145.9568W,6.7,347.6,052232,2358.1450S,15145.9530W,6.6,346.8, 25.5608, 35.4831,016.953,052,027,27.06,84.32,-8.79,-0.78,, 2.877  ,3.1,2.93,,,,00000011,00000000,0175.888,00890,804.53,714.84,
04/25/2019,05:09:57,052331,2358.0410S,15145.9518W,7.1,343.2,052332,2358.0260S,15145.9525W,7.5,327.9, 25.5524, 35.4793,357.055,094,022,26.76,104.49,-11.71,4.12,, 2.839  ,2.86,2.93,,,,00000011,00000000,0173.131,00829,852.67,717.64,
04/25/2019,05:10:57,052431,2357.9229S,15145.9508W,7.0,348.4,052432,2357.9072S,15145.9502W,6.8,348.1, 25.5463, 35.4747,018.919,067,021,22.94,103,-16.98,8.90,, 2.924  ,2.85,2.93,,,,00000011,00000000,0196.563,00845,937.52,724.04,
04/25/2019,05:11:57,052531,2357.8024S,15145.9463W,7.2,345.6,052532,2357.7881S,15145.9468W,7.3,338.8, 25.5305, 35.4694,010.080,080,025,28.47,103.9,-9.68,2.21,, 2.860  ,2.92,2.93,,,,00000011,00000000,0159.003,00748,855.95,725.84,
04/25/2019,05:12:57,052631,2357.6877S,15145.9366W,7.0,348.6,052632,2357.6713S,15145.9368W,6.7,340.0, 25.5223, 35.4636,008.345,087,022,25.59,109.03,-6.72,0.82,, 3.221  ,3.01,2.93,,,,00000011,00000000,0154.948,00856,818,727.4,
04/25/2019,05:13:57,052731,2357.5637S,15145.9330W,7.1,348.3,052732,2357.5507S,15145.9315W,7.0,343.8, 25.5067, 35.4601,009.450,078,024,26.54,102.3,-6.90,1.65,, 2.893  ,2.88,2.93,,,,00000011,00000000,0166.699,00694,919.82,729.38,
04/25/2019,05:14:57,052831,2357.4439S,15145.9261W,7.4,348.3,052832,2357.4281S,15145.9232W,7.6,340.9, 25.4998, 35.4565,011.446,089,031,26.69,117.46,-7.36,1.57,, 2.989  ,2.95,2.93,,,,00000011,00000000,0159.624,00812,904.55,733.25,
04/25/2019,05:15:57,052931,2357.3165S,15145.9151W,7.3,348.1,052932,2357.3032S,15145.9135W,7.1,340.6, 25.4867, 35.4547,009.479,082,022,26.16,103.65,-8.10,-1.75,, 2.885  ,2.9,2.94,,,,00000011,00000000,0149.929,00910,935.08,736.37,
04/25/2019,05:16:57,053031,2357.1984S,15145.9130W,7.3,346.1,053032,2357.1822S,15145.9098W,7.1,344.6, 25.4793, 35.4514,018.287,078,024,27.43,110.2,-11.21,1.72,, 2.929  ,3.36,2.95,,,,00000011,00000000,0171.064,00955,742.62,736.58,
04/25/2019,05:17:57,053131,2357.0886S,15145.8959W,6.4,350.2,053133,2357.0722S,15145.8945W,6.2,337.3, 25.4684, 35.4509,003.562,072,022,23.7,90.57,-5.78,-2.46,, 3.198  ,2.96,2.95,,,,00000011,00000000,0126.956,00360,862.13,738.31,
04/25/2019,05:18:57,053231,2356.9781S,15145.8914W,6.7,349.4,053233,2356.9619S,15145.8905W,6.6,348.6, 25.4554, 35.4513,022.677,062,027,26.2,96.25,-11.23,1.14,, 2.892  ,3.37,2.96,,,,00000011,00000000,0145.105,01023,785.5,738.66,
04/25/2019,05:19:57,053331,2356.8629S,15145.8793W,7.0,347.1,053333,2356.8461S,15145.8815W,7.3,332.2, 25.4481, 35.4514,357.456,101,024,27.13,112.65,-10.95,1.29,, 2.936  ,3.03,2.96,,,,00000011,00000000,00140.28,01201,888.35,740.63,
04/25/2019,05:20:57,053431,2356.7420S,15145.8832W,7.1,348.8,053433,2356.7259S,15145.8801W,7.0,351.5, 25.4404, 35.4513,020.141,063,025,26.56,101.42,-10.88,-2.44,, 2.977  ,2.97,2.96,,,,00000011,00000000,0158.499,00888,912.8,743.81,
04/25/2019,05:21:57,053531,2356.6103S,15145.8730W,7.9,346.7,053533,2356.5939S,15145.8719W,8.1,338.0, 25.4355, 35.4519,012.300,080,027,31.22,105.98,-6.89,3.82,, 2.919  ,2.92,2.97,,,,00000011,00000000,0142.807,00842,959.6,747.47,
04/25/2019,05:22:57,053631,2356.4909S,15145.8527W,7.4,352.4,053633,2356.4724S,15145.8510W,7.3,339.0, 25.4367, 35.4525,003.625,103,021,26.87,107.92,-11.32,0.45,, 2.932  ,3.17,2.97,,,,00000011,00000000,0159.143,01142,834.08,749.5,
04/25/2019,05:23:57,053731,2356.3643S,15145.8614W,7.3,344.0,053733,2356.3486S,15145.8561W,7.0,345.9, 25.4298, 35.4536,027.653,085,024,28.74,123.91,-9.88,2.99,, 2.845  ,2.9,2.97,,,,00000011,00000000,00166.24,00828,911.92,751.29,
04/25/2019,05:24:57,053831,2356.2598S,15145.8306W,6.7,355.0,053833,2356.2418S,15145.8307W,6.6,335.8, 25.4295, 35.4546,359.403,095,028,31.69,104.94,-4.46,2.51,, 2.879  ,2.9,2.97,,,,00000011,00000000,0154.032,00823,923.03,754.82,
04/25/2019,05:25:57,053931,2356.1424S,15145.8346W,6.8,346.5,053933,2356.1274S,15145.8312W,6.6,344.4, 25.4286, 35.4541,020.810,080,031,34.45,110.69,-3.98,-0.33,, 3.063  ,3.16,2.98,,,,00000011,00000000,00140.28,00631,812.64,756.77,
04/25/2019,05:26:57,054031,2356.0353S,15145.8090W,6.8,353.5,054033,2356.0175S,15145.8080W,7.1,337.1, 25.4262, 35.4557,006.605,093,023,25.88,109.17,-9.99,4.53,, 2.933  ,3.03,2.98,,,,00000011,00000000,0147.402,00939,864.83,760.84,
04/25/2019,05:27:57,054131,2355.9103S,15145.8033W,7.2,350.7,054133,2355.8952S,15145.8015W,7.1,346.2, 25.4229, 35.4578,016.099,084,019,22.79,117.02,-10.94,4.40,, 2.831  ,2.93,2.98,,,,00000011,00000000,0171.753,00909,889.23,762.81,
04/25/2019,05:28:57,054231,2355.7950S,15145.7958W,7.1,349.9,054233,2355.7779S,15145.7918W,7.2,348.0, 25.4236, 35.4585,021.438,079,026,29.51,113.47,-8.81,3.03,, 2.962  ,2.93,2.98,,,,00000011,00000000,0181.631,01052,914.4,765.9,
04/25/2019,05:29:57,054331,2355.6762S,15145.7793W,7.1,348.8,054333,2355.6607S,15145.7762W,7.3,334.7, 25.4174, 35.4590,003.399,087,027,30.81,102.55,-5.32,3.33,, 3.000  ,2.91,2.98,,,,00000011,00000000,0160.132,00693,911.52,769.36,
04/25/2019,05:30:57,054431,2355.5567S,15145.7779W,7.2,347.3,054433,2355.5394S,15145.7747W,7.2,344.3, 25.4162, 35.4612,015.886,081,027,27.12,108.24,-8.75,0.05,, 2.887  ,2.99,2.97,,,,00000011,00000000,0161.614,01070,909.07,774.32,
04/25/2019,05:31:57,054531,2355.4381S,15145.7756W,7.1,345.8,054533,2355.4215S,15145.7706W,7.2,339.5, 25.4126, 35.4607,012.766,085,017,21.96,111.16,-10.72,1.19,, 2.907  ,2.88,2.97,,,,00000011,00000000,0159.213,00928,895.25,777.35,
04/25/2019,05:32:57,054631,2355.3245S,15145.7535W,6.9,354.1,054633,2355.3075S,15145.7490W,6.9,346.9, 25.4020, 35.4622,014.890,076,026,28.47,104.49,-9.94,-0.81,, 2.900  ,2.87,2.97,,,,00000011,00000000,0158.076,00883,921.18,781.16,
04/25/2019,05:33:57,054731,2355.2061S,15145.7523W,6.9,342.9,054733,2355.1905S,15145.7511W,7.0,331.2, 25.3872, 35.4611,005.914,083,020,23.91,102.82,-10.45,1.37,, 2.913  ,2.87,2.97,,,,00000011,00000000,0145.564,00981,871.62,783.53,
04/25/2019,05:34:57,054831,2355.1040S,15145.7355W,6.2,355.1,054833,2355.0881S,15145.7313W,6.0,350.3, 25.3723, 35.4597,015.546,068,025,24.8,105.03,-4.88,0.98,, 2.986  ,2.95,2.97,,,,00000011,00000000,0147.402,00714,863.88,786,
04/25/2019,05:35:57,054931,2355.0016S,15145.7375W,6.2,344.1,054933,2354.9853S,15145.7317W,6.2,341.2, 25.3575, 35.4564,017.086,081,023,25.47,110.8,-5.13,1.32,, 3.055  ,3.21,2.98,,,,00000011,00000000,0141.429,00579,716.56,785.07,
04/25/2019,05:36:57,055031,2354.9035S,15145.7091W,6.0,357.4,055033,2354.8864S,15145.7064W,6.2,346.1, 25.3388, 35.4546,007.744,086,020,28.36,114.07,-7.65,4.09,, 2.886  ,2.92,2.98,,,,00000011,00000000,0185.307,01197,870.13,787.51,
04/25/2019,05:37:57,055131,2354.8035S,15145.7128W,5.9,348.7,055133,2354.7889S,15145.7063W,5.8,350.2, 25.3175, 35.4522,023.841,075,023,26.17,108.23,-9.29,1.23,, 2.988  ,3.02,2.98,,,,00000011,00000000,0167.618,00655,824.73,789.26,
04/25/2019,05:38:57,055231,2354.7064S,15145.6944W,6.0,349.8,055233,2354.6884S,15145.6929W,6.5,327.9, 25.3124, 35.4529,356.374,094,024,23.45,96.95,-6.45,-0.51,, 3.067  ,2.98,2.98,,,,00000011,00000000,0118.227,00658,886.78,790.98,
04/25/2019,05:39:57,055331,2354.6079S,15145.6840W,5.6,355.3,055333,2354.5909S,15145.6771W,5.2,357.2, 25.3046, 35.4540,033.061,070,021,22.69,111.81,-10.75,-3.83,, 2.927  ,3.2,2.99,,,,00000011,00000000,0155.902,01037,803.2,792.02,
04/25/2019,05:40:57,055431,2354.5183S,15145.6660W,5.6,350.9,055433,2354.5001S,15145.6657W,5.9,326.9, 25.3027, 35.4524,351.340,105,029,33.04,106.02,-2.36,1.04,, 3.779  ,3.77,3.01,,,,00000011,00000000,0160.496,00219,567.03,788.15,
04/25/2019,05:41:57,055531,2354.4228S,15145.6788W,5.6,341.9,055533,2354.4060S,15145.6754W,5.3,342.1, 25.2976, 35.4538,021.811,081,025,27.96,111.51,-9.69,-0.19,, 3.022  ,3.41,3.01,,,,00000011,00000000,0149.929,01016,720.08,789.92,
04/25/2019,05:42:58,055631,2354.3293S,15145.6584W,5.7,353.9,055633,2354.3122S,15145.6568W,5.9,339.1, 25.2950, 35.4549,359.379,096,020,21.07,109.38,-1.99,-1.57,, 2.902  ,3.06,3.01,,,,00000011,00000000,00140.74,00763,837.63,792.33,
04/25/2019,05:43:58,055731,2354.2270S,15145.6582W,5.9,349.5,055733,2354.2122S,15145.6513W,5.7,352.4, 25.2968, 35.4544,023.354,075,021,23.22,112,-11.15,-1.67,, 2.915  ,3.15,3.02,,,,00000011,00000000,00132.47,01022,816.63,794.31,
04/25/2019,05:44:58,055831,2354.1291S,15145.6506W,6.1,343.1,055833,2354.1118S,15145.6533W,6.9,322.2, 25.2877, 35.4445,348.169,116,019,24.66,112.15,-2.01,2.26,, 2.952  ,3.12,3.02,,,,00000011,00000000,0132.929,00188,780.95,796.46,
04/25/2019,05:45:58,055931,2354.0263S,15145.6580W,6.0,347.4,055933,2354.0115S,15145.6555W,5.8,349.8, 25.2853, 35.4543,016.617,071,023,24.4,101.85,-4.66,0.22,, 2.960  ,3.17,3.03,,,,00000011,00000000,0159.871,00796,861.47,800.08,
04/25/2019,05:46:58,060031,2353.9321S,15145.6549W,5.9,344.2,060033,2353.9147S,15145.6523W,6.0,338.3, 25.2832, 35.4517,013.228,086,022,24.7,101.35,-9.78,2.80,, 3.328  ,3.26,3.03,,,,00000011,00000000,0156.609,00953,803.2,802.55,
04/25/2019,05:47:58,060131,2353.8275S,15145.6399W,6.1,351.8,060133,2353.8126S,15145.6378W,6.1,336.8, 25.2764, 35.4537,004.782,087,022,22.41,111.35,-10.41,2.27,, 2.961  ,3.01,3.04,,,,00000011,00000000,00166.01,00843,860.12,804.67,
04/25/2019,05:48:58,060231,2353.7180S,15145.6510W,6.6,339.9,060233,2353.6997S,15145.6537W,6.6,327.4, 25.2746, 35.4526,002.902,093,020,24.66,107.99,-10.55,0.85,, 2.925  ,2.96,3.04,,,,00000011,00000000,0145.334,00969,882.03,807.91,
04/25/2019,05:49:58,060331,2353.5998S,15145.6456W,6.9,348.0,060333,2353.5841S,15145.6438W,7.1,340.9, 25.2732, 35.4520,007.195,092,025,29.05,111.62,-7.69,2.47,, 2.934  ,2.97,3.04,,,,00000011,00000000,0156.392,00745,930.83,811.48,
04/25/2019,05:50:58,060431,2353.4874S,15145.6426W,6.8,347.0,060433,2353.4693S,15145.6370W,6.9,340.3, 25.2706, 35.4524,008.937,058,021,25.58,108.19,-7.32,3.10,, 2.954  ,2.96,3.04,,,,00000011,00000000,00182.78,00991,912.95,814.97,
04/25/2019,05:51:58,060531,2353.3802S,15145.6284W,6.3,353.0,060533,2353.3648S,15145.6231W,6.2,347.3, 25.2627, 35.4524,016.015,056,020,21.35,107.72,-11.01,3.96,, 2.973  ,2.94,3.04,,,,00000011,00000000,0172.212,00839,982.32,820.11,
04/25/2019,05:52:58,060631,2353.2727S,15145.6280W,6.7,343.5,060633,2353.2536S,15145.6258W,7.0,334.8, 25.2645, 35.4522,008.137,068,022,22.22,100.56,-16.75,3.09,, 3.437  ,2.97,3.04,,,,00000011,00000000,0170.834,01171,912.13,824.27,
04/25/2019,05:53:58,060731,2353.1592S,15145.6041W,6.6,356.8,060733,2353.1454S,15145.5994W,6.3,354.9, 25.2648, 35.4537,024.447,057,018,22.31,114.58,-14.79,2.61,, 2.926  ,3.03,3.04,,,,00000011,00000000,00174.51,00957,982.38,828.91,
04/25/2019,05:54:58,060831,2353.0510S,15145.5906W,6.5,350.2,060833,2353.0350S,15145.5868W,6.7,341.2, 25.2722, 35.4556,019.269,063,024,24.87,113.02,-15.23,4.85,, 3.192  ,3.31,3.04,,,,00000011,00000000,0169.226,00902,818.65,829.44,
04/25/2019,05:55:58,060931,2352.9438S,15145.5771W,6.4,349.9,060933,2352.9294S,15145.5734W,6.9,337.1, 25.2787, 35.4569,006.933,090,030,33.96,107.08,-1.85,-3.18,, 2.952  ,2.99,3.04,,,,00000011,00000000,0118.456,00587,908.54,832.98,
04/25/2019,05:56:58,061031,2352.8371S,15145.5691W,6.4,350.0,061033,2352.8213S,15145.5656W,6.3,344.8, 25.2849, 35.4573,016.715,087,025,28.55,114.55,-9.70,-1.65,, 2.900  ,3.11,3.05,,,,00000011,00000000,0156.014,00769,880.5,834.61,
04/25/2019,05:57:58,061132,2352.7229S,15145.5620W,6.6,347.2,061133,2352.7105S,15145.5605W,6.7,339.4, 25.2976, 35.4593,008.528,077,029,31.39,97.44,-7.62,-0.63,, 2.998  ,3.27,3.05,,,,00000011,00000000,0129.943,00796,864.93,836.97,
04/25/2019,05:58:58,061232,2352.6075S,15145.5564W,6.9,346.5,061233,2352.5940S,15145.5562W,7.0,343.9, 25.2991, 35.4556,013.348,057,026,26.6,86.41,-4.07,1.11,, 2.882  ,3.02,3.05,,,,00000011,00000000,0158.162,00614,905.98,840.32,
04/25/2019,05:59:58,061332,2352.4904S,15145.5470W,6.9,348.7,061333,2352.4787S,15145.5448W,6.7,341.8, 25.3062, 35.4650,014.875,089,026,30.1,114.75,-9.23,-0.08,, 2.943  ,2.93,3.05,,,,00000011,00000000,0156.417,00763,987.28,845.87,
04/25/2019,06:00:58,061432,2352.3732S,15145.5392W,7.0,347.6,061433,2352.3611S,15145.5370W,7.0,341.5, 25.3115, 35.4670,010.718,067,025,26.68,92.84,-6.88,1.04,, 2.908  ,2.95,3.05,,,,00000011,00000000,0157.554,01005,1013.41,851.99,
04/25/2019,06:01:58,061532,2352.2607S,15145.5250W,6.8,350.7,061533,2352.2479S,15145.5242W,7.1,341.0, 25.3211, 35.4675,012.178,087,028,32.07,111.4,-8.10,4.57,, 2.997  ,2.97,3.04,,,,00000011,00000000,00158.68,01108,1006.47,857.37,
04/25/2019,06:02:58,061632,2352.1429S,15145.5187W,7.2,347.1,061633,2352.1293S,15145.5169W,7.2,343.6, 25.3274, 35.4674,017.496,073,025,28.15,96,-8.67,-0.44,, 3.034  ,2.95,3.04,,,,00000011,00000000,0131.091,00789,1018.3,863.75,
04/25/2019,06:03:58,061732,2352.0382S,15145.4896W,6.4,357.6,061733,2352.0247S,15145.4882W,5.9,341.6, 25.3321, 35.4670,005.879,084,028,26.96,98.16,-3.06,-4.59,, 2.898  ,2.97,3.03,,,,00000011,00000000,0122.591,00931,1004.85,869.88,
04/25/2019,06:04:58,061832,2351.9285S,15145.4799W,6.5,352.3,061833,2351.9153S,15145.4782W,6.6,346.9, 25.3372, 35.4669,018.266,083,027,29.62,97.28,-8.80,1.17,, 2.926  ,3.4,3.04,,,,00000011,00000000,0135.456,01260,894.42,872.23,
04/25/2019,06:05:58,061932,2351.8183S,15145.4656W,6.5,349.2,061933,2351.8041S,15145.4646W,6.2,339.1, 25.3398, 35.4672,010.958,062,024,25.19,87.17,-7.48,-1.69,, 2.896  ,2.97,3.04,,,,00000011,00000000,0168.766,01219,1119.34,878.03,
04/25/2019,06:06:58,062032,2351.7082S,15145.4575W,6.5,349.4,062033,2351.6951S,15145.4558W,6.6,344.9, 25.3430, 35.4655,011.261,072,022,20.04,93.48,-10.84,0.29,, 2.973  ,3.4,3.05,,,,00000011,00000000,0126.497,01354,869.43,879.87,
04/25/2019,06:07:58,062132,2351.5929S,15145.4446W,6.9,351.4,062133,2351.5801S,15145.4437W,7.0,353.2, 25.3446, 35.4654,025.536,055,025,26.04,99.43,-12.76,-1.24,, 2.877  ,2.93,3.05,,,,00000011,00000000,00174.05,01250,1105.57,884.24,
04/25/2019,06:08:58,062232,2351.4868S,15145.4158W,6.5,357.2,062233,2351.4726S,15145.4144W,6.3,341.2, 25.3497, 35.4651,010.894,085,025,23.27,91.53,-8.66,1.10,, 2.964  ,2.91,3.05,,,,00000011,00000000,0131.091,01116,1156.63,890.27,
04/25/2019,06:09:58,062332,2351.3756S,15145.4131W,6.6,348.4,062333,2351.3616S,15145.4122W,6.8,344.2, 25.3551, 35.4646,012.250,086,026,34.04,112.52,-5.91,0.13,, 3.141  ,3.22,3.05,,,,00000011,00000000,0154.523,01021,912.75,891.12,
04/25/2019,06:10:58,062432,2351.2634S,15145.4029W,6.6,349.5,062433,2351.2496S,15145.4005W,6.5,342.8, 25.3534, 35.4669,017.295,067,023,25.3,109.92,-10.77,3.01,, 2.883  ,3.07,3.05,,,,00000011,00000000,0163.712,01544,1084.72,893.65,
04/25/2019,06:11:58,062532,2351.1553S,15145.3847W,6.6,353.3,062533,2351.1422S,15145.3827W,6.6,346.4, 25.3589, 35.4688,014.748,054,021,21.16,86.76,-8.26,-0.77,, 2.958  ,2.97,3.06,,,,00000011,00000000,0174.739,00955,1088.07,897.38,
04/25/2019,06:12:58,062632,2351.0478S,15145.3695W,6.7,350.6,062633,2351.0317S,15145.3701W,7.3,338.2, 25.3642, 35.4688,012.340,093,027,31.94,115.84,-6.45,0.61,, 3.029  ,3.09,3.06,,,,00000011,00000000,0141.199,01098,1045.38,901.16,
04/25/2019,06:13:58,062732,2350.9370S,15145.3598W,6.6,348.7,062733,2350.9216S,15145.3600W,6.4,336.0, 25.3678, 35.4676,006.221,066,022,23.43,86.69,-12.41,0.06,, 3.625  ,3.13,3.06,,,,00000011,00000000,0147.861,01507,1010.07,902.67,
04/25/2019,06:14:58,062832,2350.8298S,15145.3446W,6.3,353.4,062833,2350.8166S,15145.3421W,5.9,345.1, 25.3716, 35.4713,012.226,083,024,29.78,108.49,-11.12,3.13,, 2.902  ,3.04,3.06,,,,00000011,00000000,0159.716,01168,1095.07,905.57,
04/25/2019,06:15:58,062932,2350.7177S,15145.3389W,6.7,347.8,062933,2350.7034S,15145.3390W,7.0,337.2, 25.3737, 35.4720,008.321,073,033,35.37,92.39,-2.85,-3.02,, 2.951  ,2.99,3.06,,,,00000011,00000000,0151.996,01009,1032.3,907.2,
04/25/2019,06:16:58,063032,2350.6128S,15145.3225W,6.3,353.4,063033,2350.5974S,15145.3232W,6.0,342.1, 25.3807, 35.4724,007.804,063,024,24.61,84.91,-6.20,-2.68,, 2.945  ,3.01,3.06,,,,00000011,00000000,0171.983,00873,1043.18,912.25,
04/25/2019,06:17:58,063132,2350.5023S,15145.3167W,6.6,347.9,063133,2350.4870S,15145.3163W,6.7,338.5, 25.3790, 35.4704,007.110,070,026,27.8,90.89,-5.71,-1.87,, 3.950  ,3.08,3.06,,,,00000011,00000000,0138.443,00863,1003.58,914.67,
04/25/2019,06:18:58,063232,2350.3941S,15145.3059W,6.5,350.4,063233,2350.3811S,15145.3031W,6.4,344.5, 25.3799, 35.4728,023.646,063,026,22.91,108.95,-9.03,5.29,, 2.965  ,2.99,3.05,,,,00000011,00000000,0170.834,01265,1122.2,920.26,
04/25/2019,06:19:58,063332,2350.2832S,15145.2931W,6.8,348.9,063333,2350.2687S,15145.2933W,7.1,339.6, 25.3808, 35.4719,002.234,080,026,32.19,102.1,-1.13,-3.42,, 3.023  ,3.24,3.06,,,,00000011,00000000,00140.51,00674,921.07,920.75,
04/25/2019,06:20:58,063432,2350.1700S,15145.2874W,6.7,350.7,063434,2350.1547S,15145.2853W,6.7,350.8, 25.3792, 35.4719,020.137,059,023,23.66,101.8,-7.75,-1.89,, 3.040  ,3.2,3.06,,,,00000011,00000000,0155.077,01087,1063.71,923.11,
04/25/2019,06:21:58,063532,2350.0654S,15145.2722W,6.4,348.9,063534,2350.0494S,15145.2715W,6.4,336.1, 25.3754, 35.4714,012.580,092,023,27.44,115.1,-8.78,4.25,, 2.934  ,2.95,3.06,,,,00000011,00000000,0151.077,00949,1094.4,925.39,
04/25/2019,06:22:58,063632,2349.9599S,15145.2630W,6.3,349.8,063634,2349.9430S,15145.2626W,6.5,343.5, 25.3815, 35.4708,011.877,052,023,25.32,83.7,-17.72,-1.17,, 2.972  ,3.06,3.06,,,,00000011,00000000,0191.969,00801,1046.6,928.95,
04/25/2019,06:23:58,063732,2349.8578S,15145.2555W,6.1,347.7,063734,2349.8415S,15145.2556W,5.8,337.9, 25.3741, 35.4676,005.376,079,022,24.72,101.99,-10.07,0.92,, 3.751  ,3.17,3.06,,,,00000011,00000000,0163.658,00707,847.73,927.96,
04/25/2019,06:24:58,063832,2349.7515S,15145.2444W,6.3,352.7,063834,2349.7366S,15145.2420W,6.3,348.6, 25.3727, 35.4685,018.006,065,028,31.46,107.02,-6.61,1.41,, 3.423  ,3.23,3.07,,,,00000011,00000000,0158.615,00679,848.37,926.75,
04/25/2019,06:25:58,063932,2349.6461S,15145.2249W,6.5,351.9,063934,2349.6301S,15145.2249W,6.7,339.4, 25.3756, 35.4702,005.531,078,024,24.96,85.35,-6.24,0.10,, 3.471  ,3.25,3.07,,,,00000011,00000000,0138.443,00786,822.69,926.92,
04/25/2019,06:26:58,064032,2349.5276S,15145.2261W,7.1,346.3,064034,2349.5111S,15145.2274W,7.0,342.1, 25.3758, 35.4712,009.554,086,023,26.57,109.54,-12.83,1.11,, 2.966  ,3,3.07,,,,00000011,00000000,0142.578,01658,883.18,927.08,
04/25/2019,06:27:58,064132,2349.4138S,15145.2197W,6.6,347.2,064134,2349.3977S,15145.2209W,6.3,341.5, 25.3745, 35.4725,013.405,070,024,26.04,97.1,-5.67,-1.51,, 2.984  ,2.95,3.07,,,,00000011,00000000,0142.348,01046,904.5,927.13,
04/25/2019,06:28:58,064232,2349.3106S,15145.2034W,6.3,352.5,064234,2349.2956S,15145.2039W,6.2,345.5, 25.3755, 35.4726,009.820,070,019,20.43,97.44,-8.13,-0.91,, 2.997  ,3.09,3.07,,,,00000011,00000000,0151.537,01053,824.82,925.58,
04/25/2019,06:29:58,064332,2349.2035S,15145.1952W,6.3,350.6,064334,2349.1890S,15145.1944W,6.2,345.3, 25.3745, 35.4733,015.381,086,025,28.28,112.74,-10.08,-2.07,, 2.944  ,3.26,3.08,,,,00000011,00000000,0163.023,00725,797.52,923.57,
04/25/2019,06:30:58,064432,2349.0973S,15145.1743W,6.4,355.5,064434,2349.0826S,15145.1731W,6.2,346.8, 25.3828, 35.4734,011.817,091,026,28.44,105.85,-10.47,3.21,, 3.339  ,3.09,3.08,,,,00000011,00000000,0126.497,00918,882.44,923.13,
04/25/2019,06:31:58,064532,2348.9890S,15145.1629W,6.5,352.0,064534,2348.9745S,15145.1618W,6.6,347.5, 25.3795, 35.4714,017.187,082,029,34.58,103.65,-5.19,-1.49,, 3.942  ,3.45,3.09,,,,00000011,00000000,0151.077,00589,729.35,920.34,
04/25/2019,06:32:58,064632,2348.8787S,15145.1355W,6.8,357.7,064634,2348.8644S,15145.1339W,7.0,348.7, 25.3781, 35.4711,013.878,081,027,29.63,107.83,-10.05,2.02,, 3.033  ,3.14,3.1,,,,00000011,00000000,0159.306,00580,812.38,918.5,
04/25/2019,06:33:58,064733,2348.7587S,15145.1367W,7.1,345.3,064734,2348.7435S,15145.1365W,6.9,341.0, 25.3808, 35.4711,014.991,084,027,30.85,110.38,-9.50,-0.43,, 3.016  ,3.08,3.1,,,,00000011,00000000,0129.483,00946,822.97,917.77,
04/25/2019,06:34:58,064833,2348.6455S,15145.1080W,6.9,358.0,064834,2348.6316S,15145.1068W,6.7,349.4, 25.3728, 35.4729,011.229,075,025,26.42,90.89,-9.12,-4.21,, 2.971  ,3,3.1,,,,00000011,00000000,0161.478,01019,937.98,918.9,
04/25/2019,06:35:58,064933,2348.5289S,15145.1053W,7.1,347.0,064934,2348.5138S,15145.1058W,7.2,340.0, 25.3582, 35.4686,010.443,077,022,25.41,98.58,-12.11,0.63,, 2.901  ,3,3.1,,,,00000011,00000000,00161.65,01019,826.39,920.72,
04/25/2019,06:36:58,065033,2348.4123S,15145.0912W,7.0,350.0,065034,2348.4000S,15145.0929W,6.9,340.8, 25.4038, 35.4812,008.823,089,026,30.29,104.23,-9.34,0.11,, 3.279  ,3.17,3.1,,,,00000011,00000000,0145.794,00943,894.98,921.02,
04/25/2019,06:37:58,065133,2348.2939S,15145.0834W,7.0,350.7,065134,2348.2812S,15145.0828W,7.0,348.0, 25.4131, 35.4835,015.103,078,019,21.7,111.1,-13.82,0.74,, 2.896  ,2.91,3.1,,,,00000011,00000000,0172.442,01117,929.28,922.79,
04/25/2019,06:38:58,065233,2348.1748S,15145.0733W,7.2,350.2,065234,2348.1610S,15145.0707W,7.2,346.8, 25.4299, 35.4854,016.181,068,023,26.79,96.67,-7.68,1.25,, 2.897  ,3,3.1,,,,00000011,00000000,0156.769,00957,883.87,922.61,
04/25/2019,06:39:58,065333,2348.0563S,15145.0563W,7.1,350.5,065334,2348.0431S,15145.0567W,7.1,341.0, 25.4417, 35.4869,008.524,090,017,22.33,116.65,-9.98,2.57,, 2.914  ,2.92,3.09,,,,00000011,00000000,0179.334,00974,884.13,923.99,
04/25/2019,06:40:58,065433,2347.9405S,15145.0400W,7.0,352.6,065434,2347.9257S,15145.0387W,6.9,343.1, 25.4474, 35.4879,015.685,093,023,24.51,103.53,-14.85,-1.35,, 2.886  ,2.93,3.08,,,,00000011,00000000,00149.01,01008,875.29,929.11,
04/25/2019,06:41:58,065533,2347.8216S,15145.0368W,7.0,344.8,065534,2347.8073S,15145.0383W,7.0,333.8, 25.4634, 35.4892,005.717,088,020,24.3,119.01,-6.29,0.60,, 2.973  ,2.97,3.07,,,,00000011,00000000,0158.389,01102,844.62,930.99,
04/25/2019,06:42:58,065633,2347.7102S,15145.0237W,6.7,353.0,065634,2347.6972S,15145.0196W,6.6,351.1, 25.4697, 35.4898,014.473,073,030,31.42,99.52,-4.17,2.25,, 2.878  ,2.93,3.07,,,,00000011,00000000,0144.415,00662,894.22,932.03,
04/25/2019,06:43:58,065733,2347.5983S,15145.0179W,6.8,347.2,065734,2347.5837S,15145.0164W,6.9,339.5, 25.4766, 35.4892,010.677,085,027,30.74,107.12,-5.38,1.04,, 2.933  ,3.13,3.07,,,,00000011,00000000,0159.768,00651,746.93,930.88,
04/25/2019,06:44:58,065833,2347.4858S,15144.9997W,6.7,353.3,065834,2347.4721S,15144.9960W,6.5,345.7, 25.4746, 35.4890,012.486,075,025,27.2,101.91,-9.13,2.19,, 2.918  ,2.91,3.07,,,,00000011,00000000,0163.712,00832,887.25,932.75,
04/25/2019,06:45:58,065933,2347.3729S,15144.9947W,6.8,347.3,065934,2347.3594S,15144.9924W,6.7,343.5, 25.4695, 35.4887,012.638,086,020,23.72,114.27,-11.42,1.62,, 2.938  ,2.99,3.06,,,,00000011,00000000,0181.861,00697,818.92,932.05,
04/25/2019,06:46:58,070033,2347.2600S,15144.9741W,6.8,354.9,070034,2347.2471S,15144.9729W,6.6,343.7, 25.4670, 35.4879,010.836,093,024,25.08,108.33,-6.51,-1.98,, 2.895  ,2.93,3.06,,,,00000011,00000000,0134.997,00842,931.1,934.27,
04/25/2019,06:47:58,070133,2347.1522S,15144.9724W,6.4,348.4,070134,2347.1396S,15144.9673W,6.3,347.0, 25.4702, 35.4874,018.963,071,023,22.03,114.36,-9.62,2.97,, 2.926  ,3.12,3.06,,,,00000011,00000000,0173.821,01056,800.07,933.31,
04/25/2019,06:48:58,070233,2347.0576S,15144.9557W,5.9,351.6,070234,2347.0436S,15144.9523W,5.8,341.1, 25.4698, 35.4838,011.359,077,022,24.36,101.5,-6.66,-1.89,, 3.858  ,3.14,3.06,,,,00000011,00000000,00156.38,00501,772.43,931.46,
04/25/2019,06:49:58,070333,2346.9503S,15144.9584W,6.5,342.9,070334,2346.9360S,15144.9572W,7.0,332.9, 25.4702, 35.4861,359.406,085,028,31.33,96.29,-2.12,-0.54,, 2.954  ,3.46,3.07,,,,00000011,00000000,0117.767,00622,708.83,927.84,
04/25/2019,06:50:58,070433,2346.8328S,15144.9683W,7.0,341.6,070434,2346.8177S,15144.9651W,7.2,338.4, 25.4667, 35.4874,013.034,065,031,34.38,110.78,-8.92,3.72,, 2.962  ,3.11,3.07,,,,00000011,00000000,0184.388,00603,837.88,926.59,
04/25/2019,06:51:58,070533,2346.7187S,15144.9540W,6.9,350.1,070534,2346.7053S,15144.9526W,7.3,339.7, 25.4592, 35.4880,004.481,091,026,30.14,101.67,-3.95,-1.35,, 2.947  ,2.97,3.07,,,,00000011,00000000,0143.497,00596,921.82,925.58,
04/25/2019,06:52:58,070633,2346.6002S,15144.9496W,7.0,349.3,070634,2346.5873S,15144.9468W,6.7,345.2, 25.4582, 35.4872,015.420,083,027,29.99,97.71,-9.19,2.56,, 3.388  ,3.03,3.07,,,,00000011,00000000,0137.524,00479,832.97,924.22,
04/25/2019,06:53:58,070733,2346.4877S,15144.9494W,6.7,344.3,070734,2346.4753S,15144.9461W,6.5,335.7, 25.4565, 35.4886,009.604,067,024,26.02,90.8,-8.18,3.91,, 3.008  ,3.13,3.08,,,,00000011,00000000,0170.145,00632,814.43,921.44,
04/25/2019,06:54:59,070833,2346.3724S,15144.9457W,7.0,346.0,070834,2346.3619S,15144.9431W,7.2,338.8, 25.4577, 35.4884,009.322,071,027,30.57,96.16,-6.89,1.84,, 2.903  ,3.01,3.07,,,,00000011,00000000,0176.577,00975,905.23,922.99,
04/25/2019,06:55:59,070933,2346.2579S,15144.9435W,6.8,345.3,070934,2346.2474S,15144.9374W,6.7,341.5, 25.4544, 35.4878,013.994,079,030,28.18,106.31,-7.58,-0.57,, 2.950  ,2.97,3.07,,,,00000011,00000000,0129.024,00975,847.15,921.97,
04/25/2019,06:56:59,071033,2346.1459S,15144.9291W,6.6,351.1,071034,2346.1364S,15144.9244W,6.3,347.0, 25.4487, 35.4845,017.761,078,026,31.97,109.19,-8.64,1.01,, 2.961  ,2.97,3.07,,,,00000011,00000000,00156.99,00428,874.57,921.76,
04/25/2019,06:57:59,071133,2346.0317S,15144.9151W,7.0,350.4,071134,2346.0208S,15144.9142W,7.1,337.9, 25.4427, 35.4819,359.553,095,018,22.16,111.11,-12.80,2.26,, 3.586  ,3.15,3.07,,,,00000011,00000000,0168.996,00936,768.5,920.23,
04/25/2019,06:58:59,071233,2345.9113S,15144.9199W,7.1,347.6,071234,2345.9011S,15144.9143W,7.1,348.0, 25.4306, 35.4804,018.320,068,023,29.08,108.52,-4.40,0.43,, 2.899  ,3.14,3.07,,,,00000011,00000000,0160.655,00875,833.77,919.02,
04/25/2019,06:59:59,071333,2345.7937S,15144.9110W,7.3,346.9,071334,2345.7825S,15144.9068W,7.5,339.6, 25.4252, 35.4796,009.103,081,029,32.4,102.63,-2.20,0.62,, 2.878  ,2.99,3.07,,,,00000011,00000000,0140.051,00577,855.73,916.79,
04/25/2019,07:00:59,071433,2345.6708S,15144.9061W,7.3,346.3,071434,2345.6595S,15144.9000W,7.2,338.6, 25.4243, 35.4779,010.819,080,023,26.43,104.15,-7.51,2.69,, 2.905  ,2.91,3.07,,,,00000011,00000000,00182.78,00645,898.9,914.89,
04/25/2019,07:01:59,071533,2345.5510S,15144.8935W,7.2,350.4,071534,2345.5392S,15144.8881W,7.1,342.3, 25.4172, 35.4778,008.627,080,022,24.7,103.53,-10.99,-2.36,, 2.951  ,2.95,3.07,,,,00000011,00000000,00140.28,01113,924.63,913.61,
04/25/2019,07:02:59,071633,2345.4247S,15144.8948W,7.5,344.9,071634,2345.4121S,15144.8907W,7.6,342.6, 25.4118, 35.4764,015.473,085,028,28.39,105.63,-12.15,0.63,, 2.861  ,2.89,3.07,,,,00000011,00000000,0147.402,00943,927.33,912.07,
04/25/2019,07:03:59,071733,2345.3028S,15144.8839W,7.4,348.2,071734,2345.2903S,15144.8809W,7.5,338.1, 25.4105, 35.4763,006.565,082,026,29.77,105.21,-8.64,1.78,, 2.862  ,2.89,3.07,,,,00000011,00000000,0141.429,00887,942.88,911.05,
