Date,Time,GPS-nav-time,GPS-nav-Lat,GPS-nav-Lon,GPS-nav-SOG,GPS-nav-COG,GPS-lab-time,GPS-lab-Lat,GPS-lab-Lon,GPS-lab-SOG,GPS-lab-COG,Tsal-temp,Tsal-sal,ADU5-Heading,Wind-Dir,WIND-Spd,TRUE-WIND-Speed,TRUE-WIND-Direction,Seatex-MRU-Roll,Seatex-MRU-Pitch,Chirp-DBT-meters,FluorT-Chl-Invivo,Fluor-Chl-avg-1-min-Value,Fluor-Chl-avg-60-min-Value,Fluor-CDOM-Raw,Fluor-CDOM-avg-1-mins-Value,Fluor-CDOM-avg-60-mins-Value,LCI90-payout,LCI90-Spd,LCI90-tension,Xmiss-NewDigital-RAW,Xmiss-NewDigital-1-min-Value,Xmiss-NewDigital-avg-60-min-Value,
04/19/2019,09:32:31,,,,,,094550,3235.0864S,15813.7848W,0.6,2.1, 21.3798, 35.5435,282.041,181,009,9.13,106.74,6.17,2.15,, 3.328  ,3.34,3.36,,,,-0085.25,-027.847,0383.561,03067,3416.23,3427.34,
04/19/2019,09:33:31,,,,,,094650,3235.0749S,15813.7812W,0.8,351.5, 21.3689, 35.5441,295.790,211,019,15.75,151.82,1.48,2.81,, 3.378  ,3.35,3.36,,,,-0112.75,-27.9786,0376.207,02774,3383.55,3420.92,
04/19/2019,09:34:31,,,,,,094750,3235.0639S,15813.7832W,1.1,323.0, 21.3770, 35.5434,277.832,239,017,19.04,160.76,-3.95,-0.65,, 3.314  ,3.32,3.35,,,,-0140.75,-27.3096,0449.952,03505,3423.98,3420.32,
04/19/2019,09:35:31,,,,,,094850,3235.0548S,15813.7873W,0.8,305.9, 21.3711, 35.5442,255.037,249,014,10.77,141.78,-4.37,3.45,, 3.293  ,3.35,3.35,,,,-0167.75,-27.1932,0456.155,04043,3356.15,3402.78,
04/19/2019,09:36:31,,,,,,094950,3235.0480S,15813.7887W,0.6,319.0, 21.3647, 35.5437,243.145,285,014,14.6,142.02,0.30,-0.91,, 3.355  ,3.35,3.35,,,,-0000195,-27.3896,0411.128,03695,3435.35,3406.44,
04/19/2019,09:37:31,,,,,,095050,3235.0375S,15813.7844W,0.9,7.5, 21.3735, 35.5443,253.302,237,012,12.75,147.38,1.46,1.59,, 3.333  ,3.35,3.35,,,,-0222.25,-27.0834,00426.52,03780,3388.23,3404.79,
04/19/2019,09:38:31,,,,,,095150,3235.0299S,15813.7765W,0.4,11.2, 21.3767, 35.5436,284.591,232,010,10.33,157.85,1.08,2.05,, 3.399  ,3.36,3.35,,,,-0249.25,-27.0942,0319.467,03381,3421.12,3404.61,
04/19/2019,09:39:31,,,,,,095250,3235.0209S,15813.7720W,0.6,12.0, 21.3773, 35.5441,297.453,199,011,11.35,138.96,-1.82,1.33,, 3.365  ,3.35,3.35,,,,-0276.25,-26.6524,0362.656,03314,3510.57,3414.49,
04/19/2019,09:40:31,,,,,,095350,3235.0126S,15813.7683W,0.7,348.3, 21.3911, 35.5438,299.691,224,010,10.7,163.99,-2.29,0.55,, 3.319  ,3.34,3.35,,,,-0302.75,-26.4776,00350.94,03684,3740.03,3437.97,
04/19/2019,09:41:31,,,,,,095450,3235.0037S,15813.7678W,0.8,315.8, 21.3806, 35.5441,283.326,232,011,11.73,169.69,0.08,-2.82,, 3.341  ,3.36,3.35,,,,-0329.25,-26.1909,0380.206,03208,3278.88,3425.8,
04/19/2019,09:42:31,,,,,,095550,3234.9974S,15813.7674W,0.5,3.8, 21.3723, 35.5441,258.247,226,008,7.05,99.96,7.42,6.25,, 3.272  ,3.35,3.35,,,,-00348.5,-13.5152,0412.736,02554,3427.1,3426.54,
04/19/2019,09:43:31,,,,,,095650,3234.9898S,15813.7683W,0.4,326.2, 21.3754, 35.5442,247.782,237,008,8.37,125.83,0.88,0.82,, 3.374  ,3.35,3.35,,,,-0000332,033.9024,0418.939,02926,3449.85,3426,
04/19/2019,09:44:31,,,,,,095750,3234.9834S,15813.7653W,0.9,8.7, 21.3814, 35.5444,235.572,265,008,8.68,144.64,0.01,0.72,, 3.376  ,3.34,3.35,,,,-00297.5,034.2444,0423.534,03592,3506.34,3430.03,
04/19/2019,09:45:31,,,,,,095850,3234.9741S,15813.7618W,0.6,10.5, 21.3780, 35.5438,249.624,226,005,9.38,134.3,0.25,0.89,, 3.330  ,3.35,3.35,,,,-0262.75,035.6299,0444.439,03345,3402.63,3426.29,
04/19/2019,09:46:31,,,,,,095950,3234.9674S,15813.7565W,0.8,23.7, 21.3667, 35.5439,269.690,151,009,9.59,80.76,6.20,3.41,, 3.324  ,3.36,3.35,,,,-0227.25,035.1077,0448.034,03576,3513.42,3429.96,
04/19/2019,09:47:31,,,,,,100050,3234.9617S,15813.7450W,0.9,34.6, 21.3746, 35.5446,287.787,225,015,15.62,162.94,-4.09,2.84,, 3.392  ,3.37,3.35,,,,-0000192,0035.711,0538.397,04101,3484.62,3432.2,
04/19/2019,09:48:31,,,,,,100150,3234.9519S,15813.7367W,0.8,352.5, 21.3673, 35.5439,306.590,157,010,10.31,107.56,6.34,3.52,, 3.338  ,3.35,3.35,,,,-00156.5,035.1013,0496.255,03484,3566.93,3439.42,
04/19/2019,09:49:31,,,,,,100250,3234.9411S,15813.7314W,0.9,325.1, 21.3741, 35.5440,303.501,150,011,11.57,99.78,18.90,-2.63,, 3.407  ,3.35,3.35,,,,-00120.5,036.3683,0323.602,02182,3340.68,3435.08,
04/19/2019,09:50:31,,,,,,100350,3234.9312S,15813.7303W,0.6,335.7, 21.3730, 35.5441,280.201,235,010,11.68,143.42,3.64,4.04,, 3.398  ,3.36,3.35,,,,-00084.5,035.8718,0416.412,03241,3523.63,3439.09,
04/19/2019,09:51:31,,,,,,100450,3234.9227S,15813.7281W,0.8,9.7, 21.3645, 35.5446,261.059,236,010,13.74,168.6,2.48,-0.78,, 3.355  ,3.34,3.35,,,,-0054.25,018.4839,0402.653,04168,3601.85,3445.94,
04/19/2019,09:52:31,,,,,,100550,3234.9115S,15813.7231W,0.6,5.1, 21.3675, 35.5446,270.482,229,008,10.57,165.73,6.90,-0.71,, 3.370  ,3.36,3.35,,,,-0035.75,0018.391,0381.264,03665,3678.32,3455,
04/19/2019,09:53:31,,,,,,100650,3234.9010S,15813.7160W,1.0,3.1, 21.3683, 35.5444,285.282,257,011,11.92,161.22,0.06,1.46,, 3.361  ,3.34,3.35,,,,-0017.25,018.5669,00351.17,03615,3786.88,3467.86,
04/19/2019,09:54:31,,,,,,100750,3234.8905S,15813.7084W,0.7,28.1, 21.3660, 35.5443,294.960,217,010,10.41,155.18,-7.12,0.40,, 3.287  ,3.34,3.35,,,,-0000005,00000000,0408.372,04815,3842.5,3483.5,
04/19/2019,09:55:31,,,,,,100850,3234.8793S,15813.7020W,1.0,357.6, 21.3665, 35.5449,300.220,190,011,11.64,133.89,-2.89,2.16,, 3.308  ,3.35,3.35,,,,-0000005,00000000,0414.574,04844,4101.87,3505.43,
04/19/2019,09:56:31,,,,,,100950,3234.8686S,15813.7001W,0.8,326.2, 21.3618, 35.5454,293.123,219,015,15.79,152.23,-7.31,0.76,, 3.351  ,3.34,3.35,,,,-0000005,00000000,0421.696,04397,3994.33,3522.87,
04/19/2019,09:57:31,,,,,,101050,3234.8578S,15813.6992W,0.6,340.2, 21.3562, 35.5451,266.750,250,007,7.6,156.78,7.90,1.96,, 3.358  ,3.36,3.35,,,,-0001.75,015.3962,0447.655,04629,4333.73,3549.81,
04/19/2019,09:58:31,,,,,,101150,3234.8475S,15813.6978W,0.7,353.8, 21.3596, 35.5446,260.823,279,009,11.58,157.3,7.91,-0.67,, 3.375  ,3.35,3.35,,,,00000003,00000000,0921.811,03485,4336.85,3575.36,
04/19/2019,09:59:31,,,,,,101250,3234.8376S,15813.6907W,0.7,16.6, 21.3565, 35.5451,280.395,216,009,9.37,140.11,6.95,4.17,, 3.333  ,3.34,3.35,,,,00000003,00000000,0117.714,04042,4394.2,3602.34,
04/19/2019,10:00:31,,,,,,101350,3234.8256S,15813.6829W,1.2,354.6, 21.3526, 35.5449,296.139,208,015,16.05,146.3,-7.30,3.94,, 3.338  ,3.35,3.35,,,,00000003,00000000,0127.645,03740,4319.23,3624.59,
04/19/2019,10:01:31,,,,,,101450,3234.8125S,15813.6774W,1.2,349.0, 21.3626, 35.5447,295.280,239,017,18.1,172.54,-7.72,2.47,, 3.373  ,3.36,3.35,,,,00000003,00000000,0117.197,02727,3570.22,3622.99,
04/19/2019,10:02:31,,,,,,101550,3234.8040S,15813.6715W,0.5,17.5, 21.3580, 35.5449,285.993,201,009,12.5,164.3,0.91,-0.36,, 3.361  ,3.34,3.35,,,,00000003,00000000,0116.003,03108,2716.49,3596.41,
04/19/2019,10:03:31,,,,,,101650,3234.7970S,15813.6662W,0.5,2.9, 21.3454, 35.5451,279.214,225,009,9.45,142.58,5.53,-0.80,, 3.377  ,3.37,3.35,,,,00000003,00000000,0115.279,02692,2785.62,3573.3,
04/19/2019,10:04:31,,,,,,101750,3234.7885S,15813.6606W,0.6,8.9, 21.3627, 35.5443,270.825,247,013,13.52,159.14,2.05,4.45,, 3.346  ,3.34,3.35,,,,00000003,00000000,0126.727,02735,2789.25,3551.52,
04/19/2019,10:05:31,,,,,,101850,3234.7778S,15813.6553W,0.9,6.9, 21.3569, 35.5447,269.671,249,009,9.8,161.16,-0.48,-2.19,, 3.397  ,3.35,3.35,,,,00000003,00000000,0107.429,02756,2750.15,3530.48,
04/19/2019,10:06:31,,,,,,101950,3234.7696S,15813.6495W,0.7,16.0, 21.3643, 35.5439,269.838,208,008,9.59,164.61,2.16,-1.57,, 3.353  ,3.35,3.35,,,,00000003,00000000,0115.831,02792,2690.51,3508.55,
04/19/2019,10:07:31,,,,,,102050,3234.7615S,15813.6409W,0.9,26.5, 21.3613, 35.5442,277.342,208,010,11.48,142.35,8.58,1.80,, 3.330  ,3.35,3.35,,,,00000003,00000000,0112.902,03336,2760.42,3489.22,
04/19/2019,10:08:31,,,,,,102150,3234.7497S,15813.6302W,0.6,16.7, 21.3677, 35.5436,288.562,212,012,15.45,155.36,3.86,1.55,, 3.353  ,3.36,3.35,,,,00000003,00000000,0114.476,03186,2749.95,3470.42,
04/19/2019,10:09:31,,,,,,102250,3234.7389S,15813.6204W,1.0,19.9, 21.3626, 35.5437,284.737,250,009,9.72,176.41,4.60,1.13,, 3.365  ,3.36,3.35,,,,00000003,00000000,097.3214,02166,2710.05,3451.83,
04/19/2019,10:10:31,,,,,,102350,3234.7296S,15813.6130W,1.0,44.4, 21.3551, 35.5440,283.513,227,008,8.33,157.13,13.25,-0.38,, 3.359  ,3.37,3.35,,,,00000003,00000000,0113.557,01840,2738.73,3434.41,
04/19/2019,10:11:31,,,,,,102450,3234.7200S,15813.6041W,0.6,7.8, 21.3588, 35.5433,285.087,247,014,14.58,172.73,4.67,1.01,, 3.416  ,3.36,3.35,,,,00000003,00000000,0112.202,02887,2813.37,3419.78,
04/19/2019,10:12:31,,,,,,102550,3234.7092S,15813.6006W,0.8,13.4, 21.3557, 35.5437,276.184,262,013,13.86,179.39,-0.97,1.42,, 3.384  ,3.36,3.35,,,,00000003,00000000,0114.292,02516,2722.18,3404.2,
04/19/2019,10:13:31,,,,,,102650,3234.7005S,15813.5961W,0.5,7.1, 21.3482, 35.5435,258.455,266,009,9.47,166.79,1.51,0.89,, 3.367  ,3.35,3.35,,,,00000003,00000000,0110.766,02658,2735.53,3389.22,
04/19/2019,10:14:31,,,,,,102750,3234.6901S,15813.5912W,0.8,21.2, 21.3510, 35.5435,259.958,227,013,16.65,153.46,-5.42,1.33,, 3.345  ,3.35,3.35,,,,00000003,00000000,0112.684,03418,2772.77,3375.7,
04/19/2019,10:15:31,,,,,,102850,3234.6792S,15813.5833W,0.9,23.2, 21.3658, 35.5434,275.488,234,010,10.56,153.43,0.50,0.70,, 3.354  ,3.37,3.35,,,,00000003,00000000,0112.868,02789,2852.37,3364.46,
04/19/2019,10:16:31,,,,,,102950,3234.6693S,15813.5736W,0.8,16.9, 21.3680, 35.5434,289.045,202,006,6.37,137.63,2.96,0.23,, 3.337  ,3.35,3.35,,,,00000003,00000000,0115.096,03215,2888.05,3354.23,
04/19/2019,10:17:31,,,,,,103050,3234.6607S,15813.5634W,0.6,27.1, 21.3604, 35.5437,297.873,204,006,6.28,146.85,7.20,1.59,, 3.365  ,3.35,3.35,,,,00000003,00000000,0112.811,03060,2860.52,3344.36,
04/19/2019,10:18:31,,,,,,103150,3234.6508S,15813.5545W,0.6,16.0, 21.3653, 35.5436,305.741,216,011,9.53,169.38,0.98,1.37,, 3.383  ,3.36,3.35,,,,00000003,00000000,0108.584,02743,2863.27,3335.03,
04/19/2019,10:19:31,,,,,,103250,3234.6411S,15813.5471W,0.5,23.4, 21.3667, 35.5436,283.078,222,012,11.34,157.96,-4.08,1.22,, 3.366  ,3.36,3.35,,,,00000003,00000000,0118.227,03746,2891.53,3326.03,
04/19/2019,10:20:31,,,,,,103350,3234.6333S,15813.5420W,0.9,21.8, 21.3579, 35.5434,268.833,244,009,6.63,167.8,0.27,0.28,, 3.345  ,3.36,3.35,,,,00000003,00000000,0113.007,03218,2841,3317,
04/19/2019,10:21:31,,,,,,103450,3234.6266S,15813.5364W,0.6,17.7, 21.3593, 35.5435,255.033,247,008,8.35,145.43,-1.65,1.89,, 3.339  ,3.35,3.35,,,,00000003,00000000,098.9295,03091,2895.22,3309.21,
04/19/2019,10:22:31,,,,,,103550,3234.6243S,15813.5416W,0.6,26.0, 21.3663, 35.5432,235.932,300,010,7.27,145.22,3.84,6.14,, 3.365  ,3.36,3.35,,,,00000003,00000000,00123.74,02538,2912.2,3302.17,
04/19/2019,10:23:31,,,,,,103650,3234.6254S,15813.5488W,0.9,232.3, 21.3620, 35.5428,242.058,235,007,8.94,143.32,5.54,0.82,, 3.389  ,3.35,3.35,,,,00000003,00000000,0103.524,02598,2978,3296.33,
04/19/2019,10:24:31,,,,,,103750,3234.6308S,15813.5665W,1.3,219.9, 21.3695, 35.5413,235.695,272,008,8.89,131.66,6.39,0.69,, 3.403  ,3.35,3.35,,,,00002.75,00000000,0124.429,03089,2846.83,3288.17,
04/19/2019,10:25:31,,,,,,103850,3234.6420S,15813.5863W,1.3,205.9, 21.3567, 35.5423,228.978,291,010,9.11,153.74,1.99,-0.80,, 3.383  ,3.42,3.35,,,,00002.75,00000000,0112.455,03149,2784.41,3279.26,
04/19/2019,10:26:31,,,,,,103950,3234.6548S,15813.6110W,1.6,218.4, 21.3629, 35.5423,235.196,290,009,8.14,156.14,4.99,3.49,, 3.417  ,3.42,3.35,,,,00000007,00000000,0108.578,02545,2687.73,3268.99,
04/19/2019,10:27:31,,,,,,104050,3234.6648S,15813.6366W,1.6,235.6, 21.3541, 35.5435,252.353,248,014,14.24,133.93,-2.52,-0.42,, 3.465  ,3.46,3.36,,,,00007.25,00000000,0111.335,02887,2643.88,3258.41,
04/19/2019,10:28:31,,,,,,104150,3234.6735S,15813.6691W,1.6,223.8, 21.3537, 35.5442,238.259,321,007,5.58,192.42,6.50,3.83,, 3.431  ,3.45,3.36,,,,00007.25,00000000,0143.497,02979,2722.18,3248.38,
04/19/2019,10:29:32,,,,,,104250,3234.6844S,15813.6926W,1.3,205.2, 21.3583, 35.5445,230.280,308,006,4.88,171.35,6.02,0.47,, 3.466  ,3.46,3.36,,,,00007.25,00000000,0117.078,02077,2681.54,3234.19,
04/19/2019,10:30:32,,,,,,104350,3234.6958S,15813.7110W,1.0,226.2, 21.3520, 35.5454,245.621,287,009,8.4,108.59,7.52,7.45,, 3.437  ,3.43,3.36,,,,00007.25,00000000,00149.01,01864,2680.63,3224.14,
04/19/2019,10:31:32,,,,,,104450,3234.6973S,15813.7247W,0.8,261.0, 21.3547, 35.5457,246.862,263,010,10.32,145.71,-1.47,3.35,, 3.507  ,3.42,3.36,,,,00007.25,00000000,0108.348,03116,2662.62,3211.77,
04/19/2019,10:32:32,,,,,,104550,3234.7012S,15813.7436W,1.3,233.2, 21.3470, 35.5465,243.886,271,010,9.82,147.44,2.23,-0.73,, 3.389  ,3.42,3.36,,,,00007.25,00000000,0127.905,02701,2649.33,3198.71,
04/19/2019,10:33:32,,,,,,104650,3234.7088S,15813.7655W,1.0,219.7, 21.3568, 35.5464,233.971,301,011,10.31,171.06,0.66,3.88,, 3.516  ,3.44,3.36,,,,00007.25,00000000,0117.997,02355,2678.13,3186.62,
04/19/2019,10:34:32,,,,,,104750,3234.7144S,15813.7825W,1.0,230.2, 21.3532, 35.5458,252.565,297,014,12.4,174.94,-0.94,6.59,, 3.404  ,3.43,3.37,,,,00007.25,00000000,00148.78,02521,2720.66,3175.07,
04/19/2019,10:35:32,,,,,,104851,3234.7140S,15813.8054W,1.5,246.0, 21.3465, 35.5466,249.012,267,009,12.62,128.28,1.55,6.44,, 3.418  ,3.42,3.37,,,,00007.25,00000000,0143.497,02510,2638.18,3164.9,
04/19/2019,10:36:32,,,,,,104951,3234.7200S,15813.8277W,1.1,222.7, 21.3471, 35.5469,235.957,309,009,9.46,156.98,5.11,2.35,, 3.471  ,3.45,3.37,,,,00007.25,00000000,0127.779,02502,2626.43,3151.55,
04/19/2019,10:37:32,,,,,,105051,3234.7268S,15813.8509W,1.5,225.0, 21.3476, 35.5461,240.816,301,011,9.96,175.9,2.15,1.74,, 3.361  ,3.41,3.37,,,,00007.25,00000000,0144.875,03115,2623.2,3138.31,
04/19/2019,10:38:32,,,,,,105151,3234.7359S,15813.8764W,1.7,224.9, 21.3443, 35.5462,239.385,268,011,11.37,152.63,0.00,1.63,, 3.397  ,3.41,3.37,,,,00007.25,00000000,0137.753,02526,2656.71,3125.54,
04/19/2019,10:39:32,,,,,,105251,3234.7442S,15813.9010W,1.2,223.3, 21.3500, 35.5465,243.159,268,007,6.03,183.91,3.44,-0.00,, 3.417  ,3.4,3.37,,,,00007.25,00000000,0117.767,02424,2653.08,3111.54,
04/19/2019,10:40:32,,,,,,105351,3234.7505S,15813.9230W,1.3,232.2, 21.3460, 35.5464,251.922,257,009,8.94,140.62,2.58,0.79,, 3.379  ,3.41,3.37,,,,00007.25,00000000,00128.32,02390,2731.32,3095.5,
04/19/2019,10:41:32,,,,,,105451,3234.7551S,15813.9492W,1.5,227.9, 21.3413, 35.5467,237.926,296,012,11.2,167,1.09,5.18,, 3.362  ,3.38,3.37,,,,00007.25,00000000,00157.05,03190,2736.95,3086.35,
04/19/2019,10:42:32,,,,,,105551,3234.7612S,15813.9689W,1.1,212.6, 21.3370, 35.5473,236.489,275,008,7.53,144.14,5.85,0.76,, 3.427  ,3.4,3.37,,,,00007.25,00000000,0117.078,01812,2669.12,3074.1,
04/19/2019,10:43:32,,,,,,105651,3234.7666S,15813.9922W,1.5,231.5, 21.3429, 35.5476,242.112,275,007,6.75,144.76,9.57,-2.17,, 3.415  ,3.42,3.38,,,,00007.25,00000000,0109.956,02136,2641.73,3061.29,
04/19/2019,10:44:32,,,,,,105751,3234.7713S,15814.0173W,1.6,240.2, 21.3479, 35.5470,249.686,290,013,12.29,173.18,2.59,7.55,, 3.372  ,3.43,3.38,,,,00007.25,00000000,0147.172,02390,2636.85,3047.16,
04/19/2019,10:45:32,,,,,,105851,3234.7740S,15814.0384W,1.2,236.8, 21.3497, 35.5469,238.952,304,010,9.4,177.51,3.70,-1.50,, 3.409  ,3.39,3.38,,,,00007.25,00000000,0127.689,03056,2767.05,3037.21,
04/19/2019,10:46:32,,,,,,105951,3234.7814S,15814.0571W,1.2,223.3, 21.3510, 35.5466,235.414,312,012,12.13,171.99,-2.55,1.70,, 3.408  ,3.38,3.38,,,,00007.25,00000000,0134.767,02844,2745.77,3024.98,
04/19/2019,10:47:32,,,,,,110051,3234.7857S,15814.0738W,1.3,235.6, 21.3514, 35.5471,247.637,335,004,5.78,216.45,7.95,2.21,, 3.390  ,3.38,3.38,,,,00007.25,00000000,0127.712,02365,2780.12,3013.88,
04/19/2019,10:48:32,,,,,,110151,3234.7909S,15814.0988W,1.2,231.5, 21.3516, 35.5473,239.317,283,011,10.63,156.27,0.87,2.13,, 3.358  ,3.38,3.38,,,,00007.25,00000000,0138.443,03077,2679.1,2998.62,
04/19/2019,10:49:32,,,,,,110251,3234.7969S,15814.1181W,1.1,220.9, 21.3525, 35.5465,234.444,303,009,8.24,172.17,0.93,0.07,, 3.329  ,3.37,3.38,,,,00007.25,00000000,0126.564,02284,2675.3,2987.33,
04/19/2019,10:50:32,,,,,,110351,3234.8000S,15814.1389W,1.2,244.3, 21.3513, 35.5467,251.223,275,012,12.91,156.93,4.87,4.79,, 3.362  ,3.39,3.38,,,,00007.25,00000000,0126.748,02720,2746.22,2974.27,
04/19/2019,10:51:32,,,,,,110451,3234.7975S,15814.1557W,1.0,255.5, 21.3525, 35.5471,238.633,299,016,13.24,149.22,1.09,2.58,, 3.376  ,3.38,3.38,,,,00007.25,00000000,0145.334,02576,2671.5,2959.11,
04/19/2019,10:52:32,,,,,,110551,3234.7980S,15814.1696W,0.8,244.6, 21.3407, 35.5472,241.904,279,012,10.76,167.58,3.72,0.86,, 3.378  ,3.42,3.38,,,,00007.25,00000000,0128.918,02651,2744.95,2943.67,
04/19/2019,10:53:32,,,,,,110651,3234.8006S,15814.1918W,1.0,236.7, 21.3451, 35.5469,243.739,274,011,10.86,152.21,2.29,4.18,, 3.376  ,3.41,3.38,,,,00007.25,00000000,0134.078,02361,2701.5,2925.63,
04/19/2019,10:54:32,,,,,,110751,3234.8027S,15814.2129W,1.2,241.5, 21.3372, 35.5479,240.562,297,011,9.5,174.91,2.80,-0.06,, 3.394  ,3.4,3.38,,,,00007.25,00000000,0130.056,02802,2731.83,2906.55,
04/19/2019,10:55:32,,,,,,110851,3234.8085S,15814.2378W,1.5,227.7, 21.3414, 35.5471,243.107,305,006,7.17,125.48,5.62,3.63,, 3.404  ,3.4,3.38,,,,00007.25,00000000,0142.578,02059,2696.28,2883.04,
04/19/2019,10:56:32,,,,,,110951,3234.8154S,15814.2659W,1.6,230.2, 21.3467, 35.5474,240.914,243,010,10.59,115.36,0.56,6.32,, 3.393  ,3.39,3.38,,,,00007.25,00000000,0143.037,02995,2796.37,2863.07,
04/19/2019,10:57:32,,,,,,111051,3234.8234S,15814.2921W,1.5,227.2, 21.3509, 35.5473,239.349,309,007,5.94,178.57,9.22,4.84,, 3.381  ,3.39,3.39,,,,00007.25,00000000,0135.226,02489,2708.2,2836.43,
04/19/2019,10:58:32,,,,,,111151,3234.8264S,15814.3116W,1.1,234.2, 21.3505, 35.5472,242.401,306,008,7.28,182.18,1.39,2.43,, 3.364  ,3.38,3.39,,,,00007.25,00000000,0143.037,02801,2723.32,2810.22,
04/19/2019,10:59:32,,,,,,111251,3234.8282S,15814.3321W,1.1,235.4, 21.3439, 35.5469,225.793,328,009,8.19,190.02,4.93,0.57,, 3.387  ,3.37,3.39,,,,00007.25,00000000,0135.686,02561,2757.95,2782.7,
04/19/2019,11:00:32,,,,,,111351,3234.8338S,15814.3378W,0.6,212.9, 21.3421, 35.5468,194.278,342,010,9.52,174.24,-3.28,-1.36,, 3.335  ,3.4,3.39,,,,00007.25,00000000,0130.355,03316,2817.8,2757.62,
04/19/2019,11:01:32,,,,,,111451,3234.8472S,15814.2971W,4.2,56.1, 21.3538, 35.5469,065.692,108,008,10.28,195.81,4.00,4.43,, 3.349  ,3.36,3.39,,,,00007.25,00000000,0131.102,02629,2953.27,2747.32,
04/19/2019,11:02:32,,,,,,111551,3234.7908S,15814.1865W,7.4,43.1, 21.3450, 35.5473,066.428,167,003,12.28,216.02,-7.86,1.28,, 3.480  ,3.4,3.39,,,,00007.25,00000000,0129.196,03166,2774.37,2747.99,
04/19/2019,11:03:32,,,,,,111651,3234.7266S,15814.0522W,8.0,34.8, 21.3465, 35.5470,056.143,106,007,11.29,201.06,1.27,-1.25,, 3.446  ,3.48,3.39,,,,00007.25,00000000,0136.605,02992,2852.97,2749.04,
04/19/2019,11:04:32,,,,,,111751,3234.6633S,15813.9125W,7.7,43.1, 21.3360, 35.5472,065.846,062,012,13.65,162.02,3.15,-1.58,, 3.418  ,3.44,3.39,,,,00007.25,00000000,0135.249,02962,2786.45,2749.04,
04/19/2019,11:05:32,,,,,,111851,3234.5952S,15813.7743W,8.0,36.3, 21.3344, 35.5463,066.012,060,011,13.47,161.55,0.75,0.01,, 3.427  ,3.45,3.39,,,,00007.25,00000000,0131.952,02939,2903.59,2751.82,
04/19/2019,11:06:32,,,,,,111951,3234.5314S,15813.6380W,8.2,36.2, 21.3314, 35.5449,062.766,052,007,8.65,166.99,-5.12,0.04,, 3.436  ,3.45,3.4,,,,00007.25,00000000,0131.459,03007,2818.88,2753.87,
04/19/2019,11:07:32,,,,,,112051,3234.4650S,15813.5002W,7.9,36.4, 21.3370, 35.5449,057.577,069,010,13.43,175.48,0.69,1.43,, 3.393  ,3.42,3.4,,,,00007.25,00000000,0129.529,02734,2773.52,2754.44,
04/19/2019,11:08:32,,,,,,112151,3234.3959S,15813.3655W,8.2,35.3, 21.3294, 35.5424,063.646,068,009,9.87,178.89,-4.73,3.17,, 3.444  ,3.42,3.4,,,,00007.25,00000000,0145.334,03644,2804.53,2755.22,
04/19/2019,11:09:32,,,,,,112251,3234.3356S,15813.2260W,7.9,35.6, 21.3439, 35.5391,060.265,078,008,12.41,176.64,-2.40,3.73,, 3.417  ,3.39,3.4,,,,00007.25,00000000,0132.596,03826,2758.7,2756.94,
04/19/2019,11:10:32,,,,,,112351,3234.2735S,15813.0872W,8.0,43.2, 21.3494, 35.5386,066.006,069,013,14.76,161.73,-4.07,1.93,, 3.347  ,3.37,3.4,,,,00007.25,00000000,0132.229,03237,2854.32,2758.96,
04/19/2019,11:11:32,,,,,,112451,3234.2109S,15812.9482W,8.0,45.2, 21.3593, 35.5399,067.928,059,007,10.34,175.45,-6.80,-0.33,, 3.353  ,3.37,3.4,,,,00007.25,00000000,0130.001,02932,2865.65,2760.04,
04/19/2019,11:12:32,,,,,,112551,3234.1442S,15812.8104W,8.4,36.7, 21.3677, 35.5411,065.716,055,010,12.27,162.04,-7.98,-1.40,, 3.371  ,3.39,3.4,,,,00007.25,00000000,0137.753,03305,2879.95,2762.55,
04/19/2019,11:13:32,,,,,,112651,3234.0780S,15812.6727W,8.0,30.5, 21.3675, 35.5411,057.958,067,006,10.19,175.25,-10.14,-0.06,, 3.437  ,3.43,3.4,,,,00007.25,00000000,0143.726,02879,2848.18,2764.85,
04/19/2019,11:14:32,,,,,,112751,3234.0168S,15812.5347W,8.0,35.7, 21.3717, 35.5409,055.317,081,011,14,164.8,-0.73,1.88,, 3.416  ,3.42,3.4,,,,00007.25,00000000,0131.839,03022,2895.4,2767,
04/19/2019,11:15:32,,,,,,112851,3233.9545S,15812.3997W,7.7,47.5, 21.3635, 35.5410,063.846,053,012,11.75,154.66,1.98,1.73,, 3.440  ,3.43,3.4,,,,00007.25,00000000,0130.357,02442,2885.67,2767.83,
04/19/2019,11:16:32,,,,,,112951,3233.8840S,15812.2658W,8.0,36.1, 21.3627, 35.5405,061.839,073,013,16.27,163.92,-3.14,4.76,, 3.420  ,3.41,3.4,,,,00007.25,00000000,0146.943,03059,2940.08,2769.29,
04/19/2019,11:17:32,,,,,,113051,3233.8183S,15812.1286W,8.3,32.2, 21.3636, 35.5402,050.791,083,012,15.93,165.03,3.17,2.54,, 3.422  ,3.47,3.41,,,,00007.25,00000000,0120.524,02379,2974.47,2771.22,
04/19/2019,11:18:32,,,,,,113151,3233.7499S,15811.9934W,7.9,34.9, 21.3535, 35.5402,053.557,089,010,13.43,175.28,-2.83,0.29,, 3.429  ,3.42,3.41,,,,00007.25,00000000,0130.232,03304,3036.18,2774.09,
04/19/2019,11:19:32,,,,,,113251,3233.6783S,15811.8602W,7.8,38.3, 21.3482, 35.5399,055.567,039,009,9.76,133.5,-1.41,1.86,, 3.409  ,3.42,3.41,,,,00007.25,00000000,0133.436,03375,3128.58,2778.08,
04/19/2019,11:20:32,,,,,,113351,3233.6137S,15811.7300W,7.5,42.6, 21.3466, 35.5397,063.787,064,009,11.22,169.55,-4.63,1.48,, 3.370  ,3.42,3.41,,,,00007.25,00000000,0143.956,03299,3179.52,2783.61,
04/19/2019,11:21:32,,,,,,113451,3233.5469S,15811.6103W,6.9,38.9, 21.3421, 35.5407,066.097,065,016,17.67,154.07,-2.56,1.77,, 3.387  ,3.4,3.41,,,,00007.25,00000000,0151.537,02950,2865.7,2782.7,
04/19/2019,11:22:32,,,,,,113551,3233.4793S,15811.4882W,7.1,29.9, 21.3452, 35.5421,055.553,066,011,13.57,155.99,-2.30,-0.29,, 3.407  ,3.4,3.41,,,,00007.25,00000000,0142.578,02862,2896.48,2782.16,
04/19/2019,11:23:32,,,,,,113651,3233.4192S,15811.3617W,7.6,33.7, 21.3421, 35.5443,055.155,086,011,15.46,172.71,1.71,1.88,, 3.384  ,3.4,3.41,,,,00007.25,00000000,0140.051,02420,2800.22,2779.42,
04/19/2019,11:24:32,,,,,,113751,3233.3562S,15811.2389W,7.2,33.0, 21.3466, 35.5459,052.427,083,014,17.05,159.64,3.80,4.34,, 3.437  ,3.39,3.41,,,,00007.25,00000000,0122.821,02210,2883.24,2780.06,
04/19/2019,11:25:32,,,,,,113851,3233.2949S,15811.1154W,7.6,38.0, 21.3442, 35.5467,057.834,082,013,16.35,166.9,0.16,3.05,, 3.352  ,3.38,3.41,,,,00007.25,00000000,0133.437,03387,2865.47,2781.97,
04/19/2019,11:26:32,,,,,,113951,3233.2302S,15810.9920W,7.2,36.9, 21.3471, 35.5479,055.272,059,010,13.8,164.51,0.12,1.89,, 3.490  ,3.39,3.41,,,,00007.25,00000000,0131.634,02537,2851.42,2784.85,
04/19/2019,11:27:32,,,,,,114051,3233.1619S,15810.8688W,7.1,36.7, 21.3430, 35.5490,065.093,086,014,18.12,171.99,-0.18,0.81,, 3.414  ,3.4,3.41,,,,00007.25,00000000,0124.659,03536,2947.27,2789.91,
04/19/2019,11:28:32,,,,,,114151,3233.0998S,15810.7478W,7.1,37.2, 21.3449, 35.5497,062.714,061,007,9.66,170.89,-8.19,-1.19,, 3.321  ,3.39,3.41,,,,00007.25,00000000,0139.591,03225,2783.07,2791.24,
04/19/2019,11:29:32,,,,,,114251,3233.0358S,15810.6229W,7.1,37.5, 21.3432, 35.5496,063.560,050,008,9.29,161.35,-10.51,-0.07,, 3.433  ,3.4,3.41,,,,00007.25,00000000,0146.253,03280,2801,2793.04,
04/19/2019,11:30:32,,,,,,114351,3232.9742S,15810.5026W,7.2,33.4, 21.3455, 35.5498,059.652,061,013,11.23,153.07,-4.25,3.04,, 3.399  ,3.38,3.41,,,,00007.25,00000000,0131.301,02932,2765.82,2793.68,
04/19/2019,11:31:32,,,,,,114451,3232.9108S,15810.3765W,7.1,41.0, 21.3421, 35.5502,065.136,052,013,13.24,148.52,5.82,1.26,, 3.408  ,3.38,3.41,,,,00007.25,00000000,0121.443,02636,2846.9,2796.63,
04/19/2019,11:32:32,,,,,,114551,3232.8440S,15810.2548W,7.6,30.4, 21.3403, 35.5495,055.399,074,011,14.31,161.03,-0.75,1.07,, 3.342  ,3.37,3.4,,,,00007.25,00000000,0130.406,03241,2815.03,2799.55,
04/19/2019,11:33:32,,,,,,114651,3232.7854S,15810.1275W,7.5,35.1, 21.3478, 35.5500,054.500,068,014,15.58,151.24,4.23,4.05,, 3.276  ,3.36,3.4,,,,00007.25,00000000,00134.07,02535,2823.08,2802.56,
04/19/2019,11:34:32,,,,,,114751,3232.7226S,15810.0040W,7.3,39.5, 21.3475, 35.5507,063.775,078,012,13.13,162.63,0.29,2.51,, 3.344  ,3.37,3.4,,,,00007.25,00000000,0132.485,03273,2890.17,2805.39,
04/19/2019,11:35:32,,,,,,114851,3232.6523S,15809.8850W,7.3,32.0, 21.3432, 35.5507,057.351,071,011,14.82,166.27,4.82,0.90,, 3.342  ,3.38,3.4,,,,00007.25,00000000,00123.51,02413,2882.43,2808.89,
04/19/2019,11:36:32,,,,,,114951,3232.5929S,15809.7596W,7.1,35.3, 21.3442, 35.5516,054.313,066,006,8.89,173.04,-0.49,1.62,, 3.387  ,3.37,3.4,,,,00007.25,00000000,0130.625,03040,2946.18,2814.69,
04/19/2019,11:37:32,,,,,,115051,3232.5299S,15809.6365W,7.2,44.4, 21.3460, 35.5516,069.066,052,012,12.49,155.19,-3.66,-2.93,, 3.376  ,3.38,3.4,,,,00007.25,00000000,0134.767,02941,2822.12,2818.31,
04/19/2019,11:38:32,,,,,,115151,3232.4679S,15809.5111W,7.6,35.8, 21.3429, 35.5513,057.605,057,009,14.69,153.71,4.81,-2.31,, 3.331  ,3.37,3.4,,,,00007.25,00000000,0125.118,01764,2817.45,2821.31,
04/19/2019,11:39:32,,,,,,115251,3232.4092S,15809.3853W,7.3,38.7, 21.3440, 35.5518,060.514,075,013,15.54,162.37,3.19,2.11,, 3.359  ,3.37,3.4,,,,00007.25,00000000,0132.865,02362,2777.45,2823.14,
04/19/2019,11:40:32,,,,,,115351,3232.3451S,15809.2624W,7.6,33.7, 21.3402, 35.5512,058.144,069,013,14.45,165.21,-1.00,0.80,, 3.402  ,3.37,3.4,,,,00007.25,00000000,0122.591,02845,2918.5,2826.02,
04/19/2019,11:41:32,,,,,,115451,3232.2826S,15809.1384W,7.2,41.0, 21.3418, 35.5503,067.063,061,014,13.88,169.28,-0.68,2.05,, 3.365  ,3.39,3.4,,,,00007.25,00000000,0130.143,02485,2936.52,2829.44,
04/19/2019,11:42:33,,,,,,115551,3232.2161S,15809.0162W,7.3,31.0, 21.3453, 35.5507,056.364,086,008,12.79,175.96,-4.46,1.59,, 3.411  ,3.39,3.4,,,,00007.25,00000000,0130.545,03006,2706.3,2829.89,
04/19/2019,11:43:33,,,,,,115652,3232.1536S,15808.8912W,7.2,40.5, 21.3472, 35.5503,064.215,064,014,15.49,155.9,0.75,1.70,, 3.364  ,3.38,3.4,,,,00007.25,00000000,0130.292,02552,2879.15,2833.59,
04/19/2019,11:44:33,,,,,,115752,3232.0940S,15808.7671W,7.7,30.7, 21.3397, 35.5503,053.764,075,011,14.28,161.02,0.43,2.91,, 3.385  ,3.4,3.4,,,,00007.25,00000000,00132.36,02379,2822.98,2836.59,
04/19/2019,11:45:33,,,,,,115852,3232.0311S,15808.6412W,7.2,43.3, 21.3418, 35.5501,068.119,058,010,11.57,164.25,-6.39,-0.09,, 3.358  ,3.4,3.4,,,,00007.25,00000000,0130.787,02976,2849.77,2838.21,
04/19/2019,11:46:33,,,,,,115952,3231.9627S,15808.5219W,7.1,30.8, 21.3462, 35.5500,062.544,078,015,18.96,163.91,2.31,0.47,, 3.346  ,3.38,3.4,,,,00007.25,00000000,0132.372,02775,2771.07,2838.36,
04/19/2019,11:47:33,,,,,,120052,3231.9105S,15808.3953W,7.2,38.3, 21.3402, 35.5500,060.624,047,013,12.44,140.41,2.85,1.49,, 3.364  ,3.37,3.4,,,,00007.25,00000000,0132.659,02895,2829.1,2838.53,
04/19/2019,11:48:33,,,,,,120152,3231.8481S,15808.2701W,7.7,32.3, 21.3445, 35.5492,057.872,081,018,21.5,158.95,2.76,2.76,, 3.351  ,3.37,3.4,,,,00007.25,00000000,0119.605,02570,2846.73,2841.32,
04/19/2019,11:49:33,,,,,,120252,3231.7822S,15808.1479W,7.2,32.2, 21.3474, 35.5502,057.410,068,020,21.63,144.82,-2.56,2.53,, 3.406  ,3.41,3.4,,,,00007.25,00000000,0135.566,03480,2794.1,2843.26,
04/19/2019,11:50:33,,,,,,120352,3231.7120S,15808.0311W,7.1,35.2, 21.3444, 35.5504,060.780,050,016,18.48,140.18,-3.45,0.58,, 3.358  ,3.37,3.4,,,,00007.25,00000000,0125.348,03091,2886.28,2846.05,
04/19/2019,11:51:33,,,,,,120452,3231.6520S,15807.9115W,7.0,33.7, 21.3436, 35.5506,062.833,054,017,19.1,143.32,-5.03,0.71,, 3.332  ,3.38,3.4,,,,00007.25,00000000,0144.415,02597,2891.39,2849.96,
04/19/2019,11:52:33,,,,,,120552,3231.6005S,15807.7849W,7.5,43.3, 21.3459, 35.5501,062.604,045,015,13.55,137.51,-2.26,0.75,, 3.330  ,3.37,3.4,,,,00007.25,00000000,0124.659,02043,2906.93,2853.09,
04/19/2019,11:53:33,,,,,,120652,3231.5357S,15807.6654W,7.0,39.3, 21.3446, 35.5507,067.029,041,014,13.09,137.3,-3.85,2.21,, 3.366  ,3.36,3.4,,,,00007.25,00000000,0134.314,03988,2950.73,2856.92,
04/19/2019,11:54:33,,,,,,120752,3231.4756S,15807.5422W,7.3,32.3, 21.3465, 35.5510,054.951,055,016,17.08,142.82,1.09,4.01,, 3.409  ,3.38,3.4,,,,00007.25,00000000,0132.787,02406,3019.75,2861.42,
04/19/2019,11:55:33,,,,,,120852,3231.4135S,15807.4219W,7.3,35.2, 21.3427, 35.5505,055.658,057,014,16.38,149.1,4.75,1.84,, 3.352  ,3.36,3.4,,,,00007.25,00000000,0133.166,02390,2889.28,2865.76,
04/19/2019,11:56:33,,,,,,120952,3231.3444S,15807.3063W,7.0,34.8, 21.3418, 35.5513,057.607,068,014,14.28,149.3,-2.91,-0.89,, 3.349  ,3.37,3.39,,,,00007.25,00000000,0129.352,03428,2958.8,2868.02,
04/19/2019,11:57:33,,,,,,121052,3231.2726S,15807.1894W,7.6,30.5, 21.3398, 35.5497,056.265,065,017,16.72,154.79,1.95,4.46,, 3.349  ,3.36,3.39,,,,00007.25,00000000,0115.929,02644,2993.98,2872.76,
04/19/2019,11:58:33,,,,,,121152,3231.2101S,15807.0652W,7.4,36.5, 21.3503, 35.5517,062.131,058,013,13.64,147.3,-2.32,3.85,, 3.320  ,3.35,3.39,,,,00007.25,00000000,0134.349,02879,2904.52,2875.05,
04/19/2019,11:59:33,,,,,,121252,3231.1461S,15806.9448W,7.0,35.6, 21.3423, 35.5483,059.487,053,014,13.98,139.93,-2.65,1.88,, 3.379  ,3.36,3.39,,,,00007.25,00000000,0133.637,03730,2951.53,2877.64,
04/19/2019,12:00:33,,,,,,121352,3231.0786S,15806.8234W,7.0,33.5, 21.3358, 35.5478,054.882,061,012,13.26,147.97,-4.71,-0.31,, 3.316  ,3.35,3.39,,,,00007.25,00000000,00129.48,03159,2939.22,2880.02,
04/19/2019,12:01:33,,,,,,121452,3231.0081S,15806.7085W,7.2,30.8, 21.3457, 35.5479,053.775,065,012,13.85,150.31,3.03,1.60,, 3.313  ,3.39,3.39,,,,00007.25,00000000,0132.719,02584,2909.27,2879.21,
04/19/2019,12:02:33,,,,,,121552,3230.9496S,15806.5870W,7.2,41.2, 21.3462, 35.5490,063.963,053,015,15.32,147.71,5.12,2.07,, 3.386  ,3.36,3.39,,,,00007.25,00000000,0133.833,02443,2839.3,2880.77,
04/19/2019,12:03:33,,,,,,121652,3230.8797S,15806.4739W,7.0,29.5, 21.3491, 35.5488,053.477,066,013,14.76,147.78,-0.52,1.21,, 3.335  ,3.38,3.39,,,,00007.25,00000000,0131.329,02887,2910.03,2882.15,
04/19/2019,12:04:33,,,,,,121752,3230.8183S,15806.3536W,7.1,41.2, 21.3486, 35.5492,065.669,057,013,13.87,154.01,-3.00,1.96,, 3.342  ,3.37,3.39,,,,00007.25,00000000,0143.037,03951,2912.92,2884.5,
04/19/2019,12:05:33,,,,,,121852,3230.7625S,15806.2286W,7.3,37.1, 21.3485, 35.5506,060.326,057,017,17.5,142.4,4.18,0.17,, 3.387  ,3.37,3.39,,,,00007.25,00000000,0133.845,02611,2911.97,2884.48,
04/19/2019,12:06:33,,,,,,121952,3230.6993S,15806.1066W,7.0,32.6, 21.3458, 35.5504,053.149,054,012,15.83,133.54,-0.17,-0.77,, 3.385  ,3.38,3.39,,,,00007.25,00000000,00123.51,02634,2927.55,2886.26,
04/19/2019,12:07:33,,,,,,122052,3230.6280S,15805.9936W,7.1,36.1, 21.3473, 35.5507,062.285,056,012,13.39,144.24,-1.51,2.05,, 3.449  ,3.38,3.39,,,,00007.25,00000000,0133.179,02410,2882.38,2887.8,
04/19/2019,12:08:33,,,,,,122152,3230.5624S,15805.8781W,7.0,28.9, 21.3513, 35.5504,053.548,070,015,15.38,152.02,-2.65,-0.82,, 3.422  ,3.41,3.39,,,,00007.25,00000000,0137.983,03857,2953.47,2890.44,
04/19/2019,12:09:33,,,,,,122252,3230.4927S,15805.7621W,6.9,37.9, 21.3405, 35.5504,063.289,046,013,12.62,140.49,-6.33,2.39,, 3.394  ,3.41,3.39,,,,00007.25,00000000,0145.105,02883,2906.53,2892.13,
04/19/2019,12:10:33,,,,,,122352,3230.4348S,15805.6391W,7.2,37.7, 21.3472, 35.5506,058.486,050,011,10.57,144.93,-1.49,2.25,, 3.376  ,3.39,3.39,,,,00007.25,00000000,0122.362,02940,2958.1,2893.49,
04/19/2019,12:11:33,,,,,,122452,3230.3629S,15805.5235W,7.4,28.3, 21.3463, 35.5515,052.802,062,014,17.64,143.23,4.20,0.39,, 3.319  ,3.39,3.39,,,,00007.25,00000000,00123.51,03036,2947.97,2895.37,
04/19/2019,12:12:33,,,,,,122552,3230.2963S,15805.4053W,7.3,33.9, 21.3463, 35.5507,056.773,056,012,11.26,145.2,0.43,1.26,, 3.398  ,3.38,3.39,,,,00007.25,00000000,0133.065,02854,2991.67,2897.25,
04/19/2019,12:13:33,,,,,,122652,3230.2303S,15805.2891W,7.1,34.9, 21.3440, 35.5507,058.050,055,009,10.07,154.36,-2.56,0.75,, 3.450  ,3.39,3.39,,,,00007.25,00000000,00130.63,03289,2999.43,2899.61,
04/19/2019,12:14:33,,,,,,122752,3230.1701S,15805.1705W,6.7,36.3, 21.3501, 35.5497,058.614,067,017,17.05,146.72,6.05,-0.34,, 3.358  ,3.38,3.39,,,,00007.25,00000000,0122.821,02181,2863.2,2899.2,
04/19/2019,12:15:33,,,,,,122852,3230.1111S,15805.0535W,6.7,37.3, 21.3520, 35.5493,061.107,053,010,10.69,151.71,5.27,1.50,, 3.356  ,3.36,3.38,,,,00007.25,00000000,0132.916,02357,2822.9,2898.03,
04/19/2019,12:16:33,,,,,,122952,3230.0465S,15804.9362W,7.2,30.5, 21.3513, 35.5487,053.521,061,009,10.82,155.05,0.64,2.64,, 3.383  ,3.36,3.38,,,,00007.25,00000000,0132.399,02685,2887.9,2896.99,
04/19/2019,12:17:33,,,,,,123052,3229.9872S,15804.8169W,7.0,43.7, 21.3440, 35.5469,065.583,041,011,10,144.34,-0.78,3.06,, 3.343  ,3.37,3.38,,,,00007.25,00000000,0131.802,02123,2983.28,2897.05,
04/19/2019,12:18:33,,,,,,123152,3229.9393S,15804.6902W,7.1,48.6, 21.3435, 35.5461,073.172,029,008,11.51,159.46,-1.74,-0.27,, 3.344  ,3.35,3.38,,,,00007.25,00000000,0150.159,02273,2872.43,2894.11,
04/19/2019,12:19:33,,,,,,123252,3229.8887S,15804.5650W,7.1,35.5, 21.3428, 35.5433,055.799,061,011,12.16,152.06,4.96,0.42,, 3.347  ,3.37,3.38,,,,00007.25,00000000,0125.348,01789,2877.98,2889.49,
04/19/2019,12:20:33,,,,,,123352,3229.8297S,15804.4435W,7.0,43.4, 21.3410, 35.5446,072.746,083,004,9.29,199.93,-10.11,2.83,, 3.360  ,3.36,3.38,,,,00007.25,00000000,0158.888,03661,2763.1,2882.81,
04/19/2019,12:21:33,,,,,,123452,3229.7743S,15804.3202W,7.2,32.3, 21.3409, 35.5445,054.097,059,002,7.11,196.25,-9.03,-0.07,, 3.355  ,3.38,3.38,,,,00007.25,00000000,0129.873,03264,2830.63,2881.82,
04/19/2019,12:22:33,,,,,,123552,3229.7096S,15804.2032W,7.1,37.7, 21.3402, 35.5456,057.145,063,002,8.95,190.69,-2.63,0.98,, 3.402  ,3.38,3.38,,,,00007.25,00000000,0120.983,03080,2847.32,2880.98,
04/19/2019,12:23:33,,,,,,123652,3229.6513S,15804.0852W,6.9,41.4, 21.3473, 35.5458,065.170,071,004,9.86,193.13,0.87,1.67,, 3.366  ,3.38,3.38,,,,00007.25,00000000,0122.591,03712,2882.14,2882.02,
04/19/2019,12:24:33,,,,,,123752,3229.5971S,15803.9614W,7.2,36.6, 21.3442, 35.5457,059.889,110,001,5.81,204.63,-4.26,4.46,, 3.395  ,3.38,3.38,,,,00007.25,00000000,00140.51,03213,2866.97,2881.76,
04/19/2019,12:25:33,,,,,,123852,3229.5294S,15803.8545W,7.0,27.7, 21.3420, 35.5453,053.354,089,006,10.96,177.85,3.10,1.81,, 3.342  ,3.36,3.38,,,,00007.25,00000000,0131.861,03039,2826.63,2880.29,
04/19/2019,12:26:33,,,,,,123952,3229.4731S,15803.7342W,6.5,44.5, 21.3436, 35.5451,067.321,055,007,7.78,175.8,1.80,0.35,, 3.344  ,3.37,3.38,,,,00007.25,00000000,0130.367,02526,2824.72,2879.58,
04/19/2019,12:27:33,,,,,,124052,3229.4289S,15803.6501W,4.0,31.8, 21.3463, 35.5457,054.464,103,003,6.88,202.64,-4.64,-0.96,, 3.351  ,3.37,3.38,,,,00007.25,00000000,00140.74,02743,2957.88,2879.74,
04/19/2019,12:28:33,,,,,,124152,3229.3943S,15803.5977W,3.0,31.5, 21.3395, 35.5457,061.179,122,007,10.66,183.54,0.01,1.98,, 3.379  ,3.37,3.38,,,,00007.25,00000000,0131.574,02824,2934.2,2882.01,
04/19/2019,12:29:33,,,,,,124252,3229.3729S,15803.5518W,2.6,39.5, 21.3495, 35.5450,067.520,078,010,11.3,166.61,8.67,-3.00,, 3.375  ,3.36,3.38,,,,00007.25,00000000,0111.794,03025,2808.92,2882.38,
04/19/2019,12:30:33,,,,,,124352,3229.3573S,15803.5130W,2.3,37.6, 21.3472, 35.5466,062.070,160,006,8.29,220.83,1.40,2.50,, 3.374  ,3.34,3.38,,,,00007.25,00000000,0132.367,02954,2814.23,2883.25,
04/19/2019,12:31:33,,,,,,124452,3229.3376S,15803.4820W,1.7,33.3, 21.3448, 35.5458,060.853,122,004,5.53,191.81,-2.14,2.40,, 3.316  ,3.35,3.37,,,,00007.25,00000000,0129.691,02957,2867.4,2883.94,
04/19/2019,12:32:33,,,,,,124552,3229.3187S,15803.4510W,1.9,29.1, 21.3459, 35.5463,053.587,147,006,7.88,202.63,3.46,-0.10,, 3.348  ,3.37,3.38,,,,00007.25,00000000,0115.929,03275,2883.22,2884.76,
04/19/2019,12:33:33,,,,,,124652,3229.3015S,15803.4241W,1.7,32.4, 21.3457, 35.5460,064.032,120,009,10.52,188.22,1.74,0.94,, 3.419  ,3.36,3.37,,,,00007.25,00000000,0130.403,02918,2826.58,2884.11,
04/19/2019,12:34:33,,,,,,124752,3229.2863S,15803.3957W,1.7,35.3, 21.3439, 35.5468,065.661,111,008,7.63,193.81,0.69,0.89,, 3.359  ,3.35,3.37,,,,00007.25,00000000,0129.829,02778,2952.32,2884.48,
04/19/2019,12:35:33,,,,,,124852,3229.2710S,15803.3654W,2.6,37.5, 21.3480, 35.5467,058.803,107,006,9.3,165.31,1.43,1.03,, 3.297  ,3.36,3.37,,,,00007.25,00000000,0127.416,02608,2916.75,2884.86,
04/19/2019,12:36:33,,,,,,124952,3229.2134S,15803.2990W,6.3,21.3, 21.3466, 35.5471,049.546,057,003,6.75,175.01,-3.42,3.64,, 3.352  ,3.37,3.37,,,,00007.25,00000000,0131.403,03142,2969.31,2884.51,
04/19/2019,12:37:33,,,,,,125052,3229.1554S,15803.1795W,6.9,36.4, 21.3482, 35.5474,054.994,089,007,11.22,179.9,3.36,0.34,, 3.406  ,3.4,3.37,,,,00007.25,00000000,0130.771,02519,2902.12,2885.89,
04/19/2019,12:38:33,,,,,,125153,3229.0816S,15803.0538W,7.7,36.5, 21.3472, 35.5470,064.856,066,008,9.95,179.47,0.24,3.68,, 3.334  ,3.4,3.37,,,,00007.25,00000000,0134.194,02863,3027.97,2889.13,
04/19/2019,12:39:33,,,,,,125253,3229.0195S,15802.9270W,7.4,35.4, 21.3495, 35.5481,058.581,043,009,11.39,155.5,2.00,0.43,, 3.456  ,3.4,3.38,,,,00007.25,00000000,0137.294,03226,3044.62,2893.79,
04/19/2019,12:40:33,,,,,,125352,3228.9709S,15802.7930W,7.3,45.7, 21.3520, 35.5481,062.016,044,008,12.11,161.61,5.52,1.01,, 3.462  ,3.39,3.38,,,,00007.25,00000000,00132.15,02509,2993.03,2895.07,
04/19/2019,12:41:33,,,,,,125453,3228.8970S,15802.6676W,7.4,32.3, 21.3562, 35.5480,053.274,350,004,3.56,199.93,1.72,1.27,, 3.379  ,3.36,3.37,,,,00007.25,00000000,000135.4,02753,2884.86,2894.05,
04/19/2019,12:42:33,,,,,,125553,3228.8448S,15802.5345W,7.4,43.5, 21.3505, 35.5490,060.726,079,009,11.97,174.84,0.51,0.96,, 3.388  ,3.38,3.37,,,,00007.25,00000000,0118.916,03239,2875.87,2896,
04/19/2019,12:43:33,,,,,,125653,3228.7869S,15802.4018W,7.5,41.3, 21.3534, 35.5495,066.638,057,014,12.91,163.07,1.45,2.34,, 3.352  ,3.36,3.37,,,,00007.25,00000000,0119.375,02699,2962.22,2896.94,
04/19/2019,12:44:33,,,,,,125753,3228.7245S,15802.2723W,7.6,33.8, 21.3516, 35.5489,057.174,080,011,13.32,173.38,4.75,1.37,, 3.332  ,3.37,3.37,,,,00007.25,00000000,0133.138,02854,2922.52,2898.69,
04/19/2019,12:45:33,,,,,,125853,3228.6554S,15802.1489W,7.4,40.2, 21.3534, 35.5490,065.964,074,003,7.41,188.86,-6.15,1.04,, 3.369  ,3.37,3.37,,,,00007.25,00000000,0131.714,03120,3000.07,2900.94,
04/19/2019,12:46:33,,,,,,125953,3228.6022S,15802.0139W,7.8,38.5, 21.3491, 35.5496,055.487,117,008,14.54,195.19,-1.54,2.54,, 3.361  ,3.36,3.37,,,,00007.25,00000000,0113.862,02792,2974.47,2904.04,
04/19/2019,12:47:33,,,,,,130053,3228.5304S,15801.8878W,7.6,38.2, 21.3524, 35.5492,064.887,089,011,15.85,179.49,3.97,-0.33,, 3.324  ,3.35,3.37,,,,00007.25,00000000,00123.74,02471,2951.92,2906.43,
04/19/2019,12:48:33,,,,,,130153,3228.4873S,15801.7485W,7.7,46.5, 21.3545, 35.5503,065.673,119,008,14.67,205.17,6.82,2.34,, 3.382  ,3.35,3.37,,,,00007.25,00000000,0133.575,02675,3048.2,2909.53,
04/19/2019,12:49:33,,,,,,130253,3228.4174S,15801.6271W,7.8,29.0, 21.3584, 35.5531,051.821,165,002,9.79,211.07,-0.15,1.75,, 3.375  ,3.36,3.37,,,,00007.25,00000000,0132.955,02928,2916.23,2911.76,
04/19/2019,12:50:33,,,,,,130353,3228.3651S,15801.4952W,7.4,47.5, 21.3627, 35.5541,069.387,089,006,9.66,205.92,2.02,3.04,, 3.366  ,3.35,3.37,,,,00007.25,00000000,00132.61,02951,2911.51,2911.91,
04/19/2019,12:51:33,,,,,,130453,3228.3035S,15801.3701W,7.6,39.6, 21.3627, 35.5560,062.716,194,004,13.45,226.47,-2.92,3.40,, 3.365  ,3.36,3.37,,,,00007.25,00000000,0140.051,02721,3086.57,2914.66,
04/19/2019,12:52:33,,,,,,130553,3228.2548S,15801.2373W,7.6,45.2, 21.3640, 35.5573,065.651,085,006,10.67,192.7,2.84,4.63,, 3.372  ,3.35,3.37,,,,00007.25,00000000,0132.978,02887,3108.82,2917.99,
04/19/2019,12:53:34,,,,,,130653,3228.1876S,15801.1142W,7.3,28.9, 21.3640, 35.5573,050.930,095,016,20.38,164.53,13.93,-0.92,, 3.326  ,3.34,3.37,,,,00007.25,00000000,0125.348,01622,2938.23,2917.7,
04/19/2019,12:54:34,,,,,,130753,3228.1266S,15800.9866W,7.5,42.9, 21.3677, 35.5578,066.870,009,002,5.87,213.32,-7.24,0.40,, 3.333  ,3.36,3.37,,,,00007.25,00000000,0144.415,03778,2963.05,2917.04,
04/19/2019,12:55:34,,,,,,130853,3228.0628S,15800.8591W,7.4,32.6, 21.3615, 35.5580,059.764,075,006,9.73,191.34,-1.76,3.47,, 3.390  ,3.38,3.37,,,,00007.25,00000000,0133.886,02949,3087.49,2919.83,
04/19/2019,12:56:34,,,,,,130953,3227.9897S,15800.7386W,7.1,32.6, 21.3651, 35.5578,052.170,111,003,10.22,185.01,-2.36,-0.27,, 3.344  ,3.37,3.37,,,,00007.25,00000000,0128.373,03003,2955.75,2920.37,
04/19/2019,12:57:34,,,,,,131053,3227.9187S,15800.6198W,7.5,31.8, 21.3610, 35.5578,056.752,082,014,17.71,162.66,8.61,3.11,, 3.353  ,3.38,3.37,,,,00007.25,00000000,0137.137,03084,3141.28,2922.72,
04/19/2019,12:58:34,,,,,,131153,3227.8587S,15800.4950W,7.3,41.7, 21.3599, 35.5583,064.605,080,008,11.52,177.94,-4.86,0.53,, 3.354  ,3.38,3.37,,,,00007.25,00000000,0129.556,02925,2957.95,2924.01,
04/19/2019,12:59:34,,,,,,131253,3227.8032S,15800.3603W,7.7,39.4, 21.3596, 35.5584,060.451,084,010,15.13,174.93,1.70,0.95,, 3.373  ,3.38,3.37,,,,00007.25,00000000,0123.051,03021,3142.95,2927.97,
04/19/2019,13:00:34,,,,,,131353,3227.7354S,15800.2327W,7.7,33.6, 21.3564, 35.5583,053.874,084,008,12.94,170.3,-1.02,-2.65,, 3.340  ,3.37,3.37,,,,00007.25,00000000,0116.848,02863,3099.97,2930.06,
04/19/2019,13:01:34,,,,,,131453,3227.6608S,15800.1086W,7.5,31.8, 21.3547, 35.5585,054.720,098,011,16.26,176.97,4.36,3.31,, 3.394  ,3.37,3.37,,,,00007.25,00000000,00133.29,03089,3191.77,2935.14,
04/19/2019,13:02:34,,,,,,131553,3227.5958S,15759.9809W,7.8,40.7, 21.3532, 35.5580,061.877,058,008,13.52,179.96,0.36,0.67,, 3.324  ,3.38,3.37,,,,00007.25,00000000,0130.901,03015,3023.83,2938.48,
04/19/2019,13:03:34,,,,,,131653,3227.5381S,15759.8500W,7.2,39.2, 21.3534, 35.5577,059.807,059,009,10.31,160.51,-0.38,0.45,, 3.367  ,3.36,3.37,,,,00007.25,00000000,0128.649,02975,3193.57,2942.76,
04/19/2019,13:04:34,,,,,,131753,3227.4618S,15759.7238W,7.6,29.2, 21.3562, 35.5579,055.641,083,010,14.48,167.54,-3.80,-1.19,, 3.376  ,3.37,3.37,,,,00007.25,00000000,0131.073,03258,3078.58,2945.36,
04/19/2019,13:05:34,,,,,,131853,3227.4048S,15759.5940W,7.3,43.7, 21.3560, 35.5585,070.784,081,015,18.69,175.49,-3.91,2.12,, 3.343  ,3.36,3.37,,,,00007.25,00000000,0135.944,03295,3183.37,2949.13,
04/19/2019,13:06:34,,,,,,131953,3227.3467S,15759.4607W,7.6,37.3, 21.3566, 35.5592,056.971,085,014,18.24,170.77,4.05,1.12,, 3.368  ,3.36,3.37,,,,00007.25,00000000,0125.118,02921,2991.98,2950.17,
04/19/2019,13:07:34,,,,,,132053,3227.2730S,15759.3389W,7.3,25.1, 21.3541, 35.5593,050.213,065,012,11.33,152.6,-1.92,-1.60,, 3.378  ,3.35,3.37,,,,00007.25,00000000,0131.533,03187,3108.57,2954.68,
04/19/2019,13:08:34,,,,,,132153,3227.2075S,15759.2162W,7.1,42.1, 21.3593, 35.5588,065.657,051,012,12.21,150.75,0.26,3.79,, 3.367  ,3.37,3.37,,,,00007.25,00000000,0137.753,03370,3159.92,2958.59,
04/19/2019,13:09:34,,,,,,132253,3227.1491S,15759.0820W,7.5,37.8, 21.3491, 35.5577,058.934,068,015,16.65,153.66,2.15,4.01,, 3.351  ,3.34,3.37,,,,00007.25,00000000,0134.164,02290,3086.15,2961.97,
04/19/2019,13:10:34,,,,,,132353,3227.0713S,15758.9673W,7.5,32.1, 21.3422, 35.5541,059.236,080,012,13.35,164.29,-5.09,1.64,, 3.343  ,3.36,3.37,,,,00007.25,00000000,000124.2,03052,3094.28,2964.84,
04/19/2019,13:11:34,,,,,,132453,3227.0092S,15758.8379W,7.5,37.6, 21.3335, 35.5439,060.183,071,008,13.71,172.15,0.45,0.68,, 3.351  ,3.36,3.37,,,,00007.25,00000000,0141.429,03272,3156.3,2967.68,
04/19/2019,13:12:34,,,,,,132553,3226.9407S,15758.7103W,7.1,34.9, 21.3353, 35.5358,059.728,064,005,10.48,166.22,-1.80,-0.73,, 3.426  ,3.38,3.37,,,,00007.25,00000000,000130.5,03045,3107.85,2969.5,
04/19/2019,13:13:34,,,,,,132653,3226.8809S,15758.5805W,7.7,41.6, 21.3295, 35.5263,062.334,104,011,16.64,188.69,5.59,-1.55,, 3.384  ,3.38,3.37,,,,00007.25,00000000,0108.578,02348,3169.78,2972.13,
04/19/2019,13:14:34,,,,,,132753,3226.8144S,15758.4536W,7.5,34.4, 21.3322, 35.5355,062.426,085,011,16.35,180.05,4.89,-0.59,, 3.358  ,3.37,3.37,,,,00007.25,00000000,0117.997,02750,3182.07,2977.5,
04/19/2019,13:15:34,,,,,,132853,3226.7596S,15758.3217W,7.6,39.5, 21.3326, 35.5443,058.203,100,005,12.25,207.88,-3.53,2.39,, 3.346  ,3.35,3.37,,,,00007.25,00000000,0130.052,03297,3143.38,2982.8,
04/19/2019,13:16:34,,,,,,132953,3226.6860S,15758.1968W,7.5,36.6, 21.3396, 35.5509,061.520,098,001,8.95,206.99,-4.61,-0.14,, 3.384  ,3.37,3.37,,,,00007.25,00000000,0130.317,03010,3164.72,2987.2,
04/19/2019,13:17:34,,,,,,133053,3226.6287S,15758.0710W,7.3,38.3, 21.3406, 35.5529,063.699,054,001,7.25,211.96,-6.30,0.17,, 3.331  ,3.36,3.37,,,,00007.25,00000000,0134.222,03887,3086.78,2988.7,
04/19/2019,13:18:34,,,,,,133153,3226.5625S,15757.9467W,7.1,31.1, 21.3371, 35.5547,056.189,078,002,7.08,204.32,1.98,1.33,, 3.378  ,3.37,3.37,,,,00007.25,00000000,0132.178,03654,3126.51,2992.83,
04/19/2019,13:19:34,,,,,,133253,3226.4953S,15757.8272W,6.4,33.6, 21.3329, 35.5557,063.065,070,001,6.64,205.05,-1.68,4.78,, 3.406  ,3.37,3.37,,,,00007.25,00000000,0143.037,04033,3084.68,2997.17,
04/19/2019,13:20:34,,,,,,133353,3226.4339S,15757.6983W,7.5,42.4, 21.3353, 35.5557,068.615,104,003,9.71,208.76,-1.70,2.35,, 3.332  ,3.36,3.37,,,,00007.25,00000000,0131.535,03360,3190.23,3003.4,
04/19/2019,13:21:34,,,,,,133453,3226.3707S,15757.5730W,7.6,36.1, 21.3340, 35.5564,062.106,078,007,11.58,180.16,6.21,2.98,, 3.359  ,3.35,3.37,,,,00007.25,00000000,0125.808,03317,3127.95,3008.55,
04/19/2019,13:22:34,,,,,,133553,3226.3169S,15757.4429W,7.2,40.4, 21.3384, 35.5565,060.787,086,010,14.45,172.54,2.21,0.93,, 3.361  ,3.35,3.37,,,,00007.25,00000000,0123.051,03304,3195.61,3014.7,
04/19/2019,13:23:34,,,,,,133653,3226.2416S,15757.3221W,7.5,26.2, 21.3335, 35.5563,050.531,093,011,16.79,165.62,1.26,1.16,, 3.345  ,3.36,3.36,,,,00007.25,00000000,0120.064,03683,3323.1,3022.27,
04/19/2019,13:24:34,,,,,,133753,3226.1908S,15757.2113W,5.0,52.8, 21.3357, 35.5563,077.186,083,013,15.26,178.41,-3.65,-0.06,, 3.365  ,3.37,3.36,,,,00007.25,00000000,0145.334,05006,4264.1,3045.85,
04/19/2019,13:25:34,,,,,,133853,3226.1596S,15757.1371W,3.9,35.1, 21.3284, 35.5570,059.385,110,010,13.03,181.76,-3.39,1.92,, 3.363  ,3.37,3.36,,,,00007.25,00000000,0132.535,04444,4537.53,3074.92,
04/19/2019,13:26:34,,,,,,133953,3226.1235S,15757.0847W,3.1,29.6, 21.3293, 35.5566,064.231,107,012,15.98,163.65,0.09,-0.78,, 3.305  ,3.35,3.36,,,,00007.25,00000000,0130.938,04725,4635.31,3105.24,
04/19/2019,13:27:34,,,,,,134053,3226.0982S,15757.0383W,2.8,38.6, 21.3300, 35.5571,073.310,108,010,15.18,183.15,2.47,4.35,, 3.364  ,3.36,3.36,,,,00007.25,00000000,0135.166,02513,3152.35,3108.41,
04/19/2019,13:28:34,,,,,,134153,3226.0788S,15756.9959W,2.1,41.6, 21.3283, 35.5569,073.812,091,012,15.38,176.36,2.67,4.77,, 3.372  ,3.34,3.36,,,,00007.25,00000000,00133.42,03473,3051.05,3110.78,
04/19/2019,13:29:34,,,,,,134253,3226.0592S,15756.9537W,2.3,32.4, 21.3308, 35.5570,065.604,111,010,11.94,183.07,-3.01,1.49,, 3.377  ,3.36,3.36,,,,00007.25,00000000,0131.766,03919,2977.38,3113.93,
04/19/2019,13:30:34,,,,,,134353,3226.0346S,15756.9198W,2.1,19.7, 21.3283, 35.5569,060.294,108,008,12.02,185.29,-0.69,3.30,, 3.353  ,3.36,3.36,,,,00007.25,00000000,0133.707,03303,3063.25,3117.77,
04/19/2019,13:31:34,,,,,,134453,3225.9978S,15756.8646W,5.0,29.9, 21.3316, 35.5565,058.062,093,012,13.95,164.83,-0.12,2.06,, 3.389  ,3.35,3.36,,,,00007.25,00000000,0131.226,03350,2990.42,3119.9,
04/19/2019,13:32:34,,,,,,134553,3225.9320S,15756.7561W,7.2,31.3, 21.3290, 35.5566,055.268,086,012,16.07,158.86,-1.64,-0.84,, 3.368  ,3.38,3.36,,,,00007.25,00000000,0130.112,02873,2979.45,3121.38,
04/19/2019,13:33:34,,,,,,134653,3225.8704S,15756.6372W,7.0,37.2, 21.3263, 35.5558,061.396,072,010,12.61,166.35,-4.05,2.70,, 3.390  ,3.37,3.36,,,,00007.25,00000000,0131.364,02918,3087.25,3126.55,
04/19/2019,13:34:34,,,,,,134753,3225.8003S,15756.5169W,7.3,37.3, 21.3295, 35.5547,065.527,068,012,14.71,163.09,-2.35,1.24,, 3.430  ,3.38,3.36,,,,00007.25,00000000,0138.902,03007,3029.95,3128.43,
04/19/2019,13:35:34,,,,,,134853,3225.7470S,15756.3932W,7.7,34.5, 21.3292, 35.5552,058.010,080,011,14.83,168.34,-5.74,-0.88,, 3.347  ,3.36,3.36,,,,00007.25,00000000,0131.549,03165,3068.68,3131.15,
04/19/2019,13:36:34,,,,,,134953,3225.6746S,15756.2773W,7.1,31.8, 21.3217, 35.5543,062.210,076,008,12.1,172.45,-5.07,1.55,, 3.354  ,3.37,3.37,,,,00007.25,00000000,000132.1,02724,3030.33,3132.22,
04/19/2019,13:37:34,,,,,,135053,3225.6155S,15756.1548W,7.1,39.2, 21.3281, 35.5543,063.853,086,010,14.16,177.84,2.91,1.55,, 3.331  ,3.37,3.36,,,,00007.25,00000000,0121.902,02802,3086.53,3135.22,
04/19/2019,13:38:34,,,,,,135153,3225.5519S,15756.0293W,7.5,34.0, 21.3197, 35.5536,055.478,078,012,17.11,168.54,4.60,0.46,, 3.346  ,3.36,3.36,,,,00007.25,00000000,0132.031,03062,3131.08,3137.1,
04/19/2019,13:39:34,,,,,,135254,3225.4763S,15755.9053W,7.6,28.9, 21.3250, 35.5540,052.970,076,008,13.25,159.97,-6.99,5.46,, 3.400  ,3.36,3.36,,,,00007.25,00000000,0151.077,03101,3068.45,3137.3,
04/19/2019,13:40:34,,,,,,135354,3225.4131S,15755.7733W,7.8,39.9, 21.3149, 35.5536,062.529,072,013,15.69,164.23,1.07,2.58,, 3.317  ,3.35,3.36,,,,00007.25,00000000,0125.348,02823,3100.17,3139.33,
04/19/2019,13:41:34,,,,,,135454,3225.3365S,15755.6554W,7.8,28.2, 21.3176, 35.5542,058.378,081,016,20.17,160.51,2.85,1.80,, 3.363  ,3.35,3.36,,,,00007.25,00000000,0134.777,03046,3091.83,3143.21,
04/19/2019,13:42:34,,,,,,135554,3225.2746S,15755.5275W,7.8,36.4, 21.3144, 35.5543,059.934,082,014,14.7,169.25,-4.24,1.42,, 3.325  ,3.34,3.36,,,,00007.25,00000000,00133.25,03104,3030.45,3146.41,
04/19/2019,13:43:34,,,,,,135654,3225.2038S,15755.3985W,7.3,37.1, 21.3156, 35.5539,060.425,069,009,13.11,167.95,0.18,3.56,, 3.386  ,3.33,3.36,,,,00007.25,00000000,0134.548,03148,3102.62,3148.47,
04/19/2019,13:44:34,,,,,,135754,3225.1294S,15755.2726W,7.3,35.0, 21.3099, 35.5540,065.032,052,006,7.59,150.03,-12.67,2.95,, 3.352  ,3.34,3.36,,,,00007.25,00000000,0160.726,03429,3101.72,3151.06,
04/19/2019,13:45:34,,,,,,135854,3225.0754S,15755.1405W,7.2,43.6, 21.3135, 35.5536,066.222,066,012,13.82,163.6,-6.67,2.54,, 3.338  ,3.33,3.36,,,,00007.25,00000000,0144.875,02862,3136.07,3153.19,
04/19/2019,13:46:34,,,,,,135954,3225.0065S,15755.0116W,7.3,36.6, 21.2985, 35.5529,062.091,077,013,17.1,170.39,0.26,0.77,, 3.311  ,3.31,3.36,,,,00007.25,00000000,0132.285,03497,3188.85,3157.65,
04/19/2019,13:47:34,,,,,,140054,3224.9407S,15754.8803W,7.4,36.6, 21.2978, 35.5520,059.104,064,014,18.37,156.69,6.70,-0.31,, 3.275  ,3.31,3.36,,,,00007.25,00000000,0126.037,02263,3264.57,3162.5,
04/19/2019,13:48:34,,,,,,140154,3224.8718S,15754.7527W,7.6,33.5, 21.2901, 35.5503,058.298,082,015,18.67,163.23,1.12,0.41,, 3.327  ,3.29,3.36,,,,00007.25,00000000,0132.802,03907,3159.6,3164.88,
04/19/2019,13:49:34,,,,,,140254,3224.8099S,15754.6201W,7.6,39.1, 21.2905, 35.5500,062.921,085,013,17.04,173.38,0.37,0.10,, 3.261  ,3.29,3.36,,,,00007.25,00000000,00132.86,03663,3618.68,3176.42,
04/19/2019,13:50:34,,,,,,140354,3224.7425S,15754.4889W,7.6,37.2, 21.2850, 35.5498,063.363,086,010,13.18,177.01,-3.81,2.91,, 3.307  ,3.29,3.36,,,,00007.25,00000000,0122.362,03268,3562.33,3187.45,
04/19/2019,13:51:34,,,,,,140454,3224.6727S,15754.3569W,8.2,35.9, 21.2857, 35.5499,062.128,097,016,21.56,177.38,6.31,2.26,, 3.280  ,3.29,3.35,,,,00007.25,00000000,00123.74,03824,3551.22,3195.73,
04/19/2019,13:52:34,,,,,,140554,3224.6101S,15754.2247W,7.6,35.4, 21.2890, 35.5506,058.160,086,013,17.16,169.23,2.12,-0.30,, 3.314  ,3.3,3.35,,,,00007.25,00000000,0129.587,03945,3462.23,3201.29,
04/19/2019,13:53:34,,,,,,140654,3224.5425S,15754.0959W,7.9,40.3, 21.2846, 35.5505,065.606,075,012,15.5,170.7,-0.19,2.41,, 3.286  ,3.3,3.35,,,,00007.25,00000000,0134.526,03316,3382.25,3209.15,
04/19/2019,13:54:34,,,,,,140754,3224.4824S,15753.9632W,7.6,38.7, 21.2782, 35.5511,062.672,086,010,14.38,177.29,-1.81,0.00,, 3.289  ,3.3,3.35,,,,00007.25,00000000,0133.849,03724,3628.33,3220.28,
04/19/2019,13:55:34,,,,,,140854,3224.4184S,15753.8300W,7.5,38.3, 21.2765, 35.5509,061.704,097,007,14.55,187.16,-7.61,1.38,, 3.248  ,3.31,3.35,,,,00007.25,00000000,0143.037,03560,3614.68,3229.06,
04/19/2019,13:56:34,,,,,,140954,3224.3501S,15753.6986W,7.9,35.4, 21.2748, 35.5486,057.224,086,015,18.97,166.58,6.27,3.97,, 3.359  ,3.31,3.35,,,,00007.25,00000000,0124.889,02935,3661.35,3240.59,
04/19/2019,13:57:35,,,,,,141054,3224.2811S,15753.5694W,7.8,36.1, 21.2772, 35.5455,059.391,084,012,16.32,172.05,1.15,-1.64,, 3.287  ,3.31,3.35,,,,00007.25,00000000,0124.659,03374,3664.07,3249.52,
04/19/2019,13:58:35,,,,,,141154,3224.2156S,15753.4345W,7.9,39.8, 21.2776, 35.5432,059.522,082,008,13.78,173.8,1.77,1.00,, 3.270  ,3.31,3.35,,,,00007.25,00000000,0132.735,03036,3485.85,3258.27,
04/19/2019,13:59:35,,,,,,141254,3224.1466S,15753.3037W,7.7,33.7, 21.2812, 35.5462,056.372,090,016,21.27,166.1,3.57,-0.59,, 3.284  ,3.3,3.35,,,,00007.25,00000000,0135.125,03261,3520.65,3264.68,
04/19/2019,14:00:35,,,,,,141354,3224.0796S,15753.1727W,7.6,36.3, 21.2891, 35.5504,057.780,090,013,14.76,178.74,-1.10,3.64,, 3.310  ,3.3,3.35,,,,00007.25,00000000,0131.828,02720,3390.97,3269.54,
04/19/2019,14:01:35,,,,,,141454,3224.0064S,15753.0447W,7.7,34.4, 21.2959, 35.5526,056.865,091,010,14.85,176.26,0.64,0.50,, 3.272  ,3.31,3.34,,,,00007.25,00000000,0130.393,02614,2845.67,3263.21,
04/19/2019,14:02:35,,,,,,141554,3223.9377S,15752.9169W,7.7,36.8, 21.3098, 35.5545,058.110,075,010,16.93,169.32,7.73,1.77,, 3.353  ,3.3,3.34,,,,00007.25,00000000,0127.875,02548,2881.19,3260.8,
04/19/2019,14:03:35,,,,,,141654,3223.8802S,15752.7861W,7.4,45.6, 21.3150, 35.5551,066.298,078,011,15.96,171.4,-0.82,0.33,, 3.341  ,3.32,3.34,,,,00007.25,00000000,0132.621,02558,2762.85,3254.12,
04/19/2019,14:04:35,,,,,,141754,3223.8199S,15752.6538W,7.5,38.0, 21.3154, 35.5544,061.351,079,011,14.3,168.71,-3.79,-0.22,, 3.310  ,3.33,3.34,,,,00007.25,00000000,0130.623,03274,2843.67,3249.86,
04/19/2019,14:05:35,,,,,,141854,3223.7492S,15752.5239W,8.0,34.6, 21.3175, 35.5545,055.679,097,007,12.89,185.59,-0.29,1.15,, 3.351  ,3.32,3.34,,,,00007.25,00000000,0126.037,02640,2683.38,3242.25,
04/19/2019,14:06:35,,,,,,141954,3223.6775S,15752.3988W,7.8,37.8, 21.3239, 35.5545,062.351,069,007,14.8,169.38,0.59,-0.17,, 3.387  ,3.36,3.34,,,,00007.25,00000000,0133.001,02217,2720.18,3238.1,
04/19/2019,14:07:35,,,,,,142054,3223.6213S,15752.2630W,8.0,42.3, 21.3274, 35.5547,063.524,084,013,16.96,174.6,6.56,1.99,, 3.363  ,3.37,3.34,,,,00007.25,00000000,0112.024,02341,2795.67,3232.16,
04/19/2019,14:08:35,,,,,,142154,3223.5678S,15752.1261W,7.8,40.4, 21.3257, 35.5550,062.606,096,006,11.81,193.53,-7.26,2.47,, 3.364  ,3.38,3.34,,,,00007.25,00000000,0144.186,03313,2838,3226.97,
04/19/2019,14:09:35,,,,,,142254,3223.5050S,15751.9936W,7.3,37.7, 21.3344, 35.5549,060.456,093,010,14.66,180.02,-6.95,-1.86,, 3.381  ,3.39,3.34,,,,00007.25,00000000,0147.402,03326,2900.55,3223.75,
04/19/2019,14:10:35,,,,,,142354,3223.4339S,15751.8632W,7.8,35.6, 21.3331, 35.5542,062.721,097,011,15.5,182.54,-0.84,3.05,, 3.408  ,3.38,3.34,,,,00007.25,00000000,0125.118,03188,3079.05,3222.79,
04/19/2019,14:11:35,,,,,,142454,3223.3761S,15751.7276W,8.0,41.0, 21.3283, 35.5537,064.719,085,015,18.42,175.58,2.87,2.52,, 3.352  ,3.37,3.34,,,,00007.25,00000000,0117.308,03461,3211.5,3223.51,
04/19/2019,14:12:35,,,,,,142554,3223.3144S,15751.6011W,7.0,32.2, 21.3231, 35.5532,056.453,111,014,19.6,182.01,5.42,3.29,, 3.389  ,3.38,3.34,,,,00007.25,00000000,0125.348,03761,3501.47,3230.77,
04/19/2019,14:13:35,,,,,,142654,3223.2794S,15751.5114W,4.3,46.5, 21.3223, 35.5518,072.604,104,014,17.09,187.7,-2.08,2.08,, 3.379  ,3.37,3.34,,,,00007.25,00000000,0131.923,03642,3555.58,3236.77,
04/19/2019,14:14:35,,,,,,142754,3223.2509S,15751.4453W,3.7,33.7, 21.3274, 35.5516,059.281,105,010,12.76,177.17,1.63,1.45,, 3.372  ,3.35,3.34,,,,00007.25,00000000,0121.902,03360,3434.1,3240.72,
04/19/2019,14:15:35,,,,,,142854,3223.2219S,15751.3918W,2.9,35.9, 21.3222, 35.5524,061.824,112,010,12.59,192.34,-4.68,3.56,, 3.331  ,3.35,3.34,,,,00007.25,00000000,0138.672,03203,3417.52,3245.08,
04/19/2019,14:16:35,,,,,,142954,3223.1953S,15751.3440W,2.9,36.6, 21.3245, 35.5517,062.539,124,013,14.08,176.6,0.33,-1.86,, 3.363  ,3.35,3.34,,,,00007.25,00000000,00131.82,03572,3585.76,3252.37,
04/19/2019,14:17:35,,,,,,143054,3223.1698S,15751.2969W,3.1,35.8, 21.3177, 35.5510,066.066,104,015,16.3,180.03,0.41,2.25,, 3.378  ,3.35,3.34,,,,00007.25,00000000,0129.254,03617,3776.5,3263.94,
04/19/2019,14:18:35,,,,,,143154,3223.1464S,15751.2500W,3.2,34.8, 21.3113, 35.5491,065.518,116,010,15.64,183.8,0.79,-1.94,, 3.279  ,3.33,3.34,,,,00007.25,00000000,0132.647,03725,3693.48,3273.47,
04/19/2019,14:19:35,,,,,,143254,3223.1215S,15751.2031W,3.0,33.7, 21.3090, 35.5490,063.777,114,015,17.44,180.98,1.65,4.36,, 3.353  ,3.34,3.34,,,,00007.25,00000000,0125.118,03771,3805.35,3285.1,
04/19/2019,14:20:35,,,,,,143354,3223.0955S,15751.1513W,3.6,38.0, 21.3062, 35.5498,060.799,109,011,13.61,181.67,-2.83,3.42,, 3.325  ,3.35,3.34,,,,00007.25,00000000,0132.521,03739,3919.66,3297.68,
04/19/2019,14:21:35,,,,,,143454,3223.0417S,15751.0496W,7.5,35.1, 21.3096, 35.5499,057.878,112,008,14.25,191.19,-6.89,0.87,, 3.370  ,3.35,3.34,,,,00007.25,00000000,0131.821,04046,3795.22,3309.3,
04/19/2019,14:22:35,,,,,,143554,3222.9732S,15750.9231W,7.5,39.9, 21.3057, 35.5482,071.070,095,006,12.08,195.99,-8.72,2.14,, 3.353  ,3.36,3.34,,,,00007.25,00000000,0147.861,04768,3843.48,3319.5,
04/19/2019,14:23:35,,,,,,143654,3222.9258S,15750.7857W,7.4,44.8, 21.3058, 35.5464,067.893,093,012,16.64,184.43,-0.32,3.09,, 3.325  ,3.35,3.34,,,,00007.25,00000000,00140.51,04514,3949.15,3329.6,
04/19/2019,14:24:35,,,,,,143754,3222.8649S,15750.6531W,7.8,35.0, 21.3092, 35.5497,062.552,096,010,15.72,182.98,1.52,3.52,, 3.340  ,3.34,3.34,,,,00007.25,00000000,0129.483,04597,4001,3324.96,
04/19/2019,14:25:35,,,,,,143854,3222.8000S,15750.5253W,7.9,35.9, 21.3015, 35.5433,061.470,101,015,20.7,180.32,2.61,-0.42,, 3.321  ,3.32,3.34,,,,00007.25,00000000,0126.267,04507,4187.77,3318.67,
04/19/2019,14:26:35,,,,,,143954,3222.7337S,15750.3958W,8.0,34.8, 21.2591, 35.5234,055.077,111,011,18.49,187.77,3.04,2.57,, 3.351  ,3.33,3.34,,,,00007.25,00000000,0133.555,03094,4309.37,3313.56,
04/19/2019,14:27:35,,,,,,144054,3222.6737S,15750.2648W,7.4,42.6, 21.2150, 35.5044,063.622,096,012,13.78,186.11,-1.97,0.28,, 3.339  ,3.34,3.34,,,,00007.25,00000000,0131.798,03214,3208.62,3314.81,
04/19/2019,14:28:35,,,,,,144154,3222.6099S,15750.1349W,7.6,35.4, 21.2026, 35.4928,056.438,081,015,20.25,168.28,3.51,-1.98,, 3.321  ,3.33,3.34,,,,00007.25,00000000,00123.97,02771,3430.57,3320.42,
04/19/2019,14:29:35,,,,,,144254,3222.5441S,15750.0067W,7.8,36.0, 21.1926, 35.4834,059.135,091,011,15.87,176.78,-3.01,2.01,, 3.369  ,3.33,3.34,,,,00007.25,00000000,0132.878,03367,3419.32,3327.17,
04/19/2019,14:30:35,,,,,,144354,3222.4737S,15749.8790W,7.9,38.6, 21.1792, 35.4768,064.673,097,015,19.88,176.39,1.55,1.32,, 3.390  ,3.34,3.34,,,,00007.25,00000000,0135.383,03686,3389.87,3333.06,
04/19/2019,14:31:35,,,,,,144454,3222.4165S,15749.7431W,7.7,39.3, 21.2040, 35.4836,062.791,094,013,17.79,187.11,-3.08,1.40,, 3.322  ,3.3,3.34,,,,00007.25,00000000,0133.074,03975,3304.15,3337.66,
04/19/2019,14:32:35,,,,,,144554,3222.3577S,15749.6112W,7.8,39.7, 21.2119, 35.4836,063.382,099,017,22.14,178.86,1.65,1.51,, 3.288  ,3.28,3.34,,,,00007.25,00000000,00135.67,03487,3386.85,3344.87,
04/19/2019,14:33:35,,,,,,144654,3222.3054S,15749.4762W,7.5,41.8, 21.2158, 35.4828,063.947,090,010,13.6,185.27,-4.57,-0.09,, 3.285  ,3.29,3.33,,,,00007.25,00000000,0141.889,04030,3447.88,3350.79,
04/19/2019,14:34:35,,,,,,144754,3222.2421S,15749.3439W,7.4,37.6, 21.2223, 35.4826,060.727,112,018,24.28,179.6,-0.39,1.29,, 3.255  ,3.28,3.33,,,,00007.25,00000000,0134.395,03251,3497.77,3359.04,
04/19/2019,14:35:35,,,,,,144854,3222.1703S,15749.2128W,7.4,34.7, 21.2332, 35.4833,056.603,116,017,23.03,185.04,1.93,0.09,, 3.298  ,3.3,3.33,,,,00007.25,00000000,0141.659,03542,3554.92,3367.36,
04/19/2019,14:36:35,,,,,,144954,3222.1079S,15749.0766W,7.7,38.0, 21.2312, 35.4821,056.679,105,015,20.31,180.07,-2.90,-2.10,, 3.260  ,3.29,3.33,,,,00007.25,00000000,0131.329,03569,3626.97,3377.9,
