Date,Time,GPS-nav-time,GPS-nav-Lat,GPS-nav-Lon,GPS-nav-SOG,GPS-nav-COG,GPS-lab-time,GPS-lab-Lat,GPS-lab-Lon,GPS-lab-SOG,GPS-lab-COG,Tsal-temp,Tsal-sal,ADU5-Heading,Wind-Dir,WIND-Spd,TRUE-WIND-Speed,TRUE-WIND-Direction,Seatex-MRU-Roll,Seatex-MRU-Pitch,Chirp-DBT-meters,FluorT-Chl-Invivo,Fluor-Chl-avg-1-min-Value,Fluor-Chl-avg-60-min-Value,Fluor-CDOM-Raw,Fluor-CDOM-avg-1-mins-Value,Fluor-CDOM-avg-60-mins-Value,LCI90-payout,LCI90-Spd,LCI90-tension,Xmiss-NewDigital-RAW,Xmiss-NewDigital-1-min-Value,Xmiss-NewDigital-avg-60-min-Value,
04/03/2019,18:49:52,190227,4351.6048S,17855.2549E,6.7,81.4,190229,4351.6095S,17855.2763E,6.6,81.7, 15.4303, 34.4714,108.410,019,008,8.01,196.11,11.03,3.13,, 22.228 ,22.49,20.39,,,,00008.75,00000000,0128.393,00269,496.2,473.98,
04/03/2019,18:50:52,190327,4351.6352S,17855.4021E,6.7,80.8,190329,4351.6403S,17855.4247E,6.7,80.1, 15.4331, 34.4714,102.085,326,011,2.62,47.88,-0.29,1.64,, 22.794 ,23.05,20.55,,,,00008.75,00000000,0126.303,00374,460.42,473.21,
04/03/2019,18:51:52,190427,4351.6567S,17855.5466E,6.4,78.3,190429,4351.6619S,17855.5672E,6.3,84.4, 15.4362, 34.4714,107.903,340,007,1.04,134.22,-0.36,1.50,, 22.976 ,22.87,20.67,,,,00008.75,00000000,0132.699,00397,479.93,473.67,
04/03/2019,18:52:52,190527,4351.6879S,17855.6889E,6.5,80.2,190529,4351.6916S,17855.7106E,6.7,79.0, 15.4308, 34.4710,102.723,330,008,3.82,116.72,0.14,1.92,, 23.030 ,23.46,20.82,,,,00008.75,00000000,0134.307,00358,473.25,473.7,
04/03/2019,18:53:52,190627,4351.7113S,17855.8401E,6.7,78.9,190629,4351.7180S,17855.8634E,6.8,82.5, 15.4258, 34.4719,106.167,350,008,2.12,144.98,2.04,0.60,, 22.944 ,22.99,20.93,,,,00008.75,00000000,0125.327,00558,443.42,472.43,
04/03/2019,18:54:52,190727,4351.7424S,17855.9925E,6.8,80.0,190729,4351.7489S,17856.0161E,7.0,81.7, 15.4287, 34.4723,106.959,012,007,4.47,190.33,4.01,2.60,, 22.759 ,22.9,21.02,,,,00008.75,00000000,0129.646,00412,492.82,473.65,
04/03/2019,18:55:52,190827,4351.7700S,17856.1432E,6.7,79.7,190829,4351.7745S,17856.1667E,6.6,83.7, 15.4448, 34.4724,111.061,030,010,8.51,181.85,12.04,2.03,, 23.169 ,22.84,21.1,,,,00008.75,00000000,0131.576,00281,541.2,476.65,
04/03/2019,18:56:52,190927,4351.8021S,17856.2915E,6.7,79.5,190929,4351.8042S,17856.3159E,6.9,77.9, 15.4450, 34.4732,101.608,019,008,5.52,178.56,10.61,3.43,, 22.980 ,23.04,21.18,,,,00008.75,00000000,0115.929,00243,505.03,478.02,
04/03/2019,18:57:52,191027,4351.8263S,17856.4411E,6.7,78.5,191029,4351.8313S,17856.4658E,6.9,80.0, 15.4395, 34.4742,109.811,030,010,8.93,180.78,7.32,4.39,, 23.673 ,23.04,21.26,,,,00008.75,00000000,0128.382,00356,463.33,477.57,
04/03/2019,18:58:52,191127,4351.8653S,17856.5859E,6.7,85.5,191129,4351.8729S,17856.6109E,6.7,88.7, 15.4503, 34.4748,109.426,358,010,4.55,144.49,3.74,0.08,, 22.348 ,22.84,21.32,,,,00008.75,00000000,00115.01,00396,476.6,477.54,
04/03/2019,18:59:52,191227,4351.8915S,17856.7309E,6.5,78.5,191229,4351.8927S,17856.7558E,6.4,74.8, 15.4489, 34.4762,096.416,351,008,2.29,126.83,-2.33,-0.18,, 22.275 ,22.3,21.36,,,,00008.75,00000000,0147.172,00759,495.34,478.16,
04/03/2019,19:00:52,191327,4351.9130S,17856.8781E,6.5,78.2,191329,4351.9150S,17856.9034E,6.3,81.3, 15.4554, 34.4767,102.790,327,007,1.36,15.6,3.18,1.47,, 21.994 ,22.41,21.4,,,,00008.75,00000000,0125.189,00215,507.8,479.08,
04/03/2019,19:01:52,191427,4351.9429S,17857.0223E,6.5,81.7,191429,4351.9481S,17857.0471E,6.6,85.0, 15.4614, 34.4776,102.684,329,007,1.58,2.71,3.89,1.84,, 22.369 ,22.73,21.44,,,,00008.75,00000000,0139.821,00244,469.58,478.89,
04/03/2019,19:02:52,191527,4351.9641S,17857.1709E,6.6,76.3,191529,4351.9665S,17857.1963E,6.7,78.0, 15.4612, 34.4785,099.024,331,009,3.55,140.2,6.98,-0.73,, 22.029 ,22.19,21.47,,,,00008.75,00000000,0112.254,00156,507.62,480.02,
04/03/2019,19:03:52,191627,4351.9971S,17857.3151E,6.5,85.0,191629,4352.0034S,17857.3386E,6.4,95.9, 15.4866, 34.4802,116.654,307,011,3.36,46.69,-1.02,3.26,, 22.463 ,22.33,21.5,,,,00008.75,00000000,0125.914,00341,564.33,483,
04/03/2019,19:04:52,191728,4352.0332S,17857.4558E,6.4,82.2,191729,4352.0368S,17857.4769E,6.3,76.5, 15.4789, 34.4814,100.984,357,008,3.15,145.17,-1.48,0.68,, 22.093 ,22.43,21.53,,,,00008.75,00000000,0143.726,00706,534.02,484.44,
04/03/2019,19:05:52,191828,4352.0556S,17857.6015E,6.5,78.2,191829,4352.0590S,17857.6223E,6.4,80.4, 15.4855, 34.4824,100.258,328,010,3.82,49.43,-1.66,1.68,, 21.782 ,22.1,21.55,,,,00008.75,00000000,0147.402,00768,476.65,484.08,
04/03/2019,19:06:52,191928,4352.0824S,17857.7478E,6.6,79.7,191929,4352.0885S,17857.7708E,6.7,85.9, 15.4986, 34.4845,109.774,354,010,7.59,151.42,6.77,2.72,, 21.873 ,22.08,21.56,,,,00008.75,00000000,0128.832,00351,537,485.54,
04/03/2019,19:07:52,192028,4352.1212S,17857.8921E,6.6,84.8,192029,4352.1270S,17857.9146E,6.7,86.4, 15.5067, 34.4844,105.015,336,008,0.57,25.61,-1.10,1.57,, 22.143 ,21.96,21.57,,,,00008.75,00000000,0133.159,00285,525.27,486.78,
04/03/2019,19:08:52,192128,4352.1436S,17858.0455E,6.8,76.2,192129,4352.1493S,17858.0689E,6.7,78.8, 15.5005, 34.4855,104.881,001,005,6.9,186.57,4.19,1.23,, 21.894 ,22.04,21.59,,,,00008.75,00000000,0152.915,00568,474.38,486.57,
04/03/2019,19:09:52,192228,4352.1842S,17858.1890E,6.7,85.2,192229,4352.1885S,17858.2113E,6.7,82.6, 15.5009, 34.4855,103.603,347,008,1.45,127.79,0.14,2.23,, 22.164 ,22.03,21.6,,,,00008.75,00000000,0123.364,00780,473.97,486.26,
04/03/2019,19:10:52,192328,4352.2098S,17858.3347E,6.5,79.9,192329,4352.2131S,17858.3568E,6.6,80.7, 15.5135, 34.4854,099.332,331,010,3.7,51.97,-0.16,0.79,, 22.113 ,22.17,21.61,,,,00008.75,00000000,0126.202,00340,516.37,487.07,
04/03/2019,19:11:52,192428,4352.2323S,17858.4851E,6.7,77.8,192429,4352.2384S,17858.5070E,6.5,84.5, 15.5161, 34.4858,109.753,353,010,4.46,131.65,4.56,-1.76,, 21.818 ,21.93,21.62,,,,00008.75,00000000,0120.064,00491,474.42,486.8,
04/03/2019,19:12:52,192528,4352.2687S,17858.6256E,6.5,82.7,192529,4352.2735S,17858.6474E,6.6,80.3, 15.5227, 34.4860,100.050,024,007,4.96,188.92,5.09,2.76,, 21.999 ,22.32,21.64,,,,00008.75,00000000,0127.615,00482,510.62,487.41,
04/03/2019,19:13:52,192628,4352.2970S,17858.7752E,6.7,81.4,192629,4352.3040S,17858.7977E,7.0,96.8, 15.5270, 34.4874,107.714,354,009,9,100.8,-4.69,0.34,, 22.384 ,22.26,21.66,,,,00008.75,00000000,0117.767,00891,506.52,487.84,
04/03/2019,19:14:52,192728,4352.3327S,17858.9212E,6.6,84.4,192729,4352.3405S,17858.9428E,6.6,89.1, 15.5255, 34.4888,109.620,001,004,5.42,329.02,1.17,4.02,, 22.782 ,22.26,21.67,,,,00008.75,00000000,0146.253,00608,494.44,487.99,
04/03/2019,19:15:52,192828,4352.3656S,17859.0624E,6.5,82.9,192829,4352.3719S,17859.0865E,6.4,85.7, 15.5276, 34.4895,104.360,335,007,0.95,31.48,2.51,-0.06,, 22.527 ,22.51,21.69,,,,00008.75,00000000,0102.605,00319,510.35,488.53,
04/03/2019,19:16:52,192928,4352.3951S,17859.2074E,6.5,81.0,192929,4352.3994S,17859.2303E,6.4,82.4, 15.5342, 34.4894,105.862,006,007,3.51,177.86,0.75,1.97,, 22.957 ,22.87,21.72,,,,00008.75,00000000,0124.709,00504,480.03,488.4,
04/03/2019,19:17:52,193028,4352.4247S,17859.3552E,6.6,80.8,193029,4352.4284S,17859.3786E,6.7,80.5, 15.5339, 34.4903,101.461,025,006,5.03,202.77,-0.65,3.43,, 22.458 ,22.85,21.74,,,,00008.75,00000000,0138.443,00765,489.27,488.41,
04/03/2019,19:18:52,193128,4352.4550S,17859.5028E,6.7,81.9,193129,4352.4616S,17859.5253E,6.8,87.3, 15.5323, 34.4909,109.069,333,007,1.24,313.37,-1.75,2.75,, 22.909 ,22.88,21.77,,,,00008.75,00000000,0137.983,00880,501.28,488.48,
04/03/2019,19:19:52,193228,4352.4960S,17859.6471E,6.7,86.3,193229,4352.5033S,17859.6674E,6.4,84.6, 15.5390, 34.4920,108.808,324,007,1.22,153.46,2.82,0.42,, 23.197 ,22.85,21.79,,,,00008.75,00000000,00124.48,00389,528.32,489.34,
04/03/2019,19:20:52,193328,4352.5256S,17859.7959E,6.7,80.2,193329,4352.5314S,17859.8180E,6.8,81.3, 15.5417, 34.4927,103.979,022,008,6.21,173.98,7.69,3.06,, 23.008 ,23.07,21.82,,,,00008.75,00000000,0117.767,00356,516.42,489.99,
04/03/2019,19:21:52,193428,4352.5588S,17859.9434E,6.8,82.3,193429,4352.5647S,17859.9676E,6.7,85.2, 15.5380, 34.4929,107.090,338,011,4.3,84.92,-2.94,-0.81,, 23.392 ,23.44,21.85,,,,00008.75,00000000,0125.008,00421,492.78,490.05,
04/03/2019,19:22:52,193528,4352.5930S,17900.0908E,6.6,83.2,193529,4352.6015S,17900.1142E,6.6,87.9, 15.5536, 34.4936,109.117,335,014,6.53,71.82,-5.99,-2.29,, 23.405 ,23.51,21.89,,,,00008.75,00000000,00115.47,00828,481.1,489.89,
04/03/2019,19:23:52,193628,4352.6250S,17900.2333E,6.5,82.4,193629,4352.6294S,17900.2561E,6.4,82.2, 15.5566, 34.4934,104.861,335,007,3.43,134.51,-0.08,0.72,, 23.868 ,24.03,21.93,,,,00008.75,00000000,0124.009,00352,525.27,490.59,
04/03/2019,19:24:52,193728,4352.6494S,17900.3827E,6.6,77.6,193729,4352.6539S,17900.4064E,6.6,79.0, 15.5550, 34.4928,102.862,012,009,5.25,160.81,4.94,-1.37,, 23.630 ,23.84,21.97,,,,00008.75,00000000,0129.075,00270,533.3,491.48,
04/03/2019,19:25:52,193828,4352.6835S,17900.5290E,6.6,83.9,193829,4352.6918S,17900.5524E,6.6,89.7, 15.5574, 34.4918,111.166,009,007,3.7,189.13,3.66,0.89,, 23.518 ,23.73,22,,,,00008.75,00000000,00115.47,00229,521.45,491.96,
04/03/2019,19:26:52,193928,4352.7177S,17900.6728E,6.5,81.7,193929,4352.7202S,17900.6944E,6.4,80.0, 15.5590, 34.4906,100.078,309,007,3.62,343.73,0.18,1.59,, 23.588 ,23.56,22.03,,,,00008.75,00000000,0124.825,00253,516.67,492.43,
04/03/2019,19:27:52,194028,4352.7387S,17900.8179E,6.5,78.2,194029,4352.7431S,17900.8392E,6.6,80.5, 15.5566, 34.4886,107.526,346,006,1.5,200.17,-1.38,3.16,, 23.678 ,23.33,22.05,,,,00008.75,00000000,0127.433,00637,500.42,492.65,
04/03/2019,19:28:52,194128,4352.7805S,17900.9591E,6.6,86.8,194129,4352.7872S,17900.9794E,6.9,87.7, 15.5544, 34.4884,111.060,346,010,3.39,116.86,3.68,-1.33,, 22.709 ,22.88,22.07,,,,00008.75,00000000,099.6187,00197,498.02,492.75,
04/03/2019,19:29:52,194228,4352.8080S,17901.0988E,6.4,79.2,194229,4352.8110S,17901.1201E,6.4,77.1, 15.5593, 34.4828,094.828,348,011,4.67,89.35,-4.91,1.87,, 25.571 ,23.08,22.08,,,,00008.75,00000000,0126.411,00976,539.7,493.68,
04/03/2019,19:30:52,194328,4352.8344S,17901.2407E,6.3,83.7,194329,4352.8409S,17901.2609E,6.3,94.2, 15.5467, 34.4816,117.103,018,009,7.96,161.1,1.28,4.37,, 21.930 ,23.14,22.1,,,,00008.75,00000000,0133.159,00506,551.1,494.61,
04/03/2019,19:31:52,194428,4352.8602S,17901.3817E,6.4,76.5,194429,4352.8666S,17901.4050E,6.4,74.8, 15.5500, 34.4810,100.890,001,009,4.4,143.32,6.75,2.61,, 22.293 ,22.36,22.11,,,,00008.75,00000000,0127.927,00227,511.3,494.9,
04/03/2019,19:32:52,194528,4352.9022S,17901.5174E,6.4,90.0,194529,4352.9072S,17901.5393E,6.6,94.3, 15.5464, 34.4790,107.040,013,011,5.81,149.59,-4.43,-1.41,, 22.569 ,22.52,22.11,,,,00008.75,00000000,0119.835,00793,512.22,495.27,
04/03/2019,19:33:52,194628,4352.9248S,17901.6634E,6.5,79.6,194628,4352.9289S,17901.6850E,,, 15.5404, 34.4746,106.714,329,008,1.72,353.41,-6.07,1.80,, 22.019 ,22.23,22.13,,,,00008.75,00000000,0125.228,00957,462.31,494.43,
04/03/2019,19:34:52,194728,4352.9575S,17901.8079E,6.5,83.5,194729,4352.9635S,17901.8307E,6.5,87.4, 15.5493, 34.4733,108.414,326,008,4.1,20.43,1.35,2.11,, 22.740 ,22.08,22.19,,,,00008.75,00000000,0120.294,00560,508.08,494.73,
04/03/2019,19:35:52,194828,4352.9835S,17901.9522E,6.5,78.9,194829,4352.9944S,17901.9758E,6.4,75.0, 15.5498, 34.4732,102.745,025,010,5.9,196.37,7.11,-0.82,, 21.783 ,22.28,22.25,,,,00008.75,00000000,00115.24,00116,519.45,495.13,
04/03/2019,19:36:52,194928,4353.0168S,17902.0930E,6.4,83.1,194929,4353.0245S,17902.1189E,6.5,85.7, 15.5489, 34.4710,105.456,353,006,0.77,138.22,0.32,3.10,, 22.079 ,21.88,22.3,,,,00008.75,00000000,0124.941,00361,480.33,494.97,
04/03/2019,19:37:52,195028,4353.0435S,17902.2337E,6.4,80.4,195029,4353.0486S,17902.2600E,6.5,80.4, 15.5442, 34.4695,100.598,342,009,2.52,88.28,1.29,-0.08,, 21.946 ,22.08,22.35,,,,00008.75,00000000,0125.539,00349,488.63,494.61,
04/03/2019,19:38:52,195128,4353.0646S,17902.3847E,6.6,77.5,195129,4353.0708S,17902.4099E,6.7,88.7, 15.5409, 34.4677,108.333,348,010,1.38,110.25,-1.78,-0.15,, 21.720 ,21.76,22.4,,,,00008.75,00000000,0111.335,01136,532.85,495.51,
04/03/2019,19:39:52,195228,4353.1033S,17902.5264E,6.6,85.4,195229,4353.1055S,17902.5524E,6.6,84.8, 15.5414, 34.4659,106.410,041,007,4.01,151.05,-1.56,2.69,, 21.473 ,21.76,22.44,,,,00008.75,00000000,0126.354,00895,514.03,496.07,
04/03/2019,19:40:52,195328,4353.1257S,17902.6737E,6.5,77.9,195329,4353.1293S,17902.7003E,6.3,82.7, 15.5396, 34.4650,108.799,025,006,5.29,201.43,0.00,2.83,, 21.439 ,21.28,22.47,,,,00008.75,00000000,0123.506,00319,490.57,496.42,
04/03/2019,19:41:52,195428,4353.1665S,17902.8060E,6.3,87.6,195429,4353.1698S,17902.8315E,6.4,86.8, 15.5410, 34.4635,103.425,004,006,2.17,197.67,1.87,1.01,, 21.215 ,21.32,22.48,,,,00008.75,00000000,0125.125,00323,526.72,497.22,
04/03/2019,19:42:52,195528,4353.1903S,17902.9523E,6.4,79.4,195529,4353.1938S,17902.9776E,6.6,83.5, 15.5334, 34.4636,109.934,335,007,0.43,107.27,1.65,1.54,, 20.780 ,20.88,22.48,,,,00008.75,00000000,0124.884,00421,506,498.48,
04/03/2019,19:43:52,195628,4353.2278S,17903.0934E,6.5,84.0,195629,4353.2305S,17903.1185E,6.5,84.4, 15.5351, 34.4624,104.495,346,009,2.63,105.71,-0.27,-0.03,, 20.380 ,20.66,22.47,,,,00008.75,00000000,0127.101,00425,502.4,498.65,
04/03/2019,19:44:52,195728,4353.2523S,17903.2337E,6.3,80.4,195729,4353.2573S,17903.2576E,6.2,83.9, 15.5410, 34.4609,107.274,354,005,2.07,217.63,1.21,6.05,, 20.252 ,20.21,22.46,,,,00008.75,00000000,0138.213,00255,526.65,499.61,
04/03/2019,19:45:52,195828,4353.2864S,17903.3677E,6.1,84.0,195829,4353.2876S,17903.3913E,6.0,84.4, 15.5356, 34.4607,105.622,001,009,4.11,139.61,-3.02,1.58,, 19.848 ,20.17,22.44,,,,00008.75,00000000,0123.426,00618,476.28,500.21,
04/03/2019,19:46:52,195928,4353.3112S,17903.5077E,6.2,79.2,195929,4353.3150S,17903.5303E,6.3,79.3, 15.5324, 34.4608,104.679,025,009,7.68,167.94,3.44,2.55,, 19.359 ,19.76,22.41,,,,00008.75,00000000,0128.549,00530,525.5,501.59,
04/03/2019,19:47:52,200028,4353.3441S,17903.6361E,6.0,85.0,200029,4353.3461S,17903.6600E,5.9,87.6, 15.5439, 34.4616,107.510,349,008,2.07,71.25,-4.83,2.62,, 20.942 ,19.94,22.37,,,,00008.75,00000000,0131.321,00652,489.53,501.81,
04/03/2019,19:48:52,200128,4353.3712S,17903.7735E,6.2,80.4,200129,4353.3728S,17903.7959E,6.3,79.9, 15.5426, 34.4627,101.347,013,009,5.21,157.47,5.98,0.54,, 19.758 ,20.31,22.33,,,,00008.75,00000000,0112.024,00432,526.25,503.28,
04/03/2019,19:49:52,200228,4353.3997S,17903.9123E,6.3,81.9,200229,4353.4021S,17903.9350E,6.3,90.1, 15.5277, 34.4630,112.689,007,005,3.15,218.43,-2.57,4.36,, 19.213 ,19.69,22.29,,,,00008.75,00000000,0145.105,00906,524.13,503.74,
04/03/2019,19:50:52,200328,4353.4353S,17904.0462E,6.2,82.9,200329,4353.4368S,17904.0712E,6.2,81.1, 15.5284, 34.4649,101.877,031,007,3.94,159.19,0.80,-1.14,, 20.284 ,20.47,22.24,,,,00008.75,00000000,0104.443,00375,479.3,503.93,
04/03/2019,19:51:52,200428,4353.4652S,17904.1887E,6.4,82.4,200429,4353.4676S,17904.2121E,6.5,87.6, 15.5269, 34.4656,111.076,008,007,7.1,143.8,0.59,4.37,, 20.196 ,20.13,22.2,,,,00008.75,00000000,0142.807,00641,524.27,504.63,
04/03/2019,19:52:52,200528,4353.5039S,17904.3258E,6.5,85.2,200529,4353.5081S,17904.3493E,6.6,83.0, 15.5276, 34.4663,100.720,000,010,2.36,173.07,9.06,-0.03,, 20.805 ,20.4,22.15,,,,00008.75,00000000,0107.429,00316,536.05,505.69,
04/03/2019,19:53:52,200628,4353.5294S,17904.4700E,6.3,77.8,200629,4353.5308S,17904.4917E,6.3,77.2, 15.5294, 34.4671,098.831,063,010,11.31,195.52,5.73,1.11,, 20.870 ,20.55,22.11,,,,00008.75,00000000,000124.2,00433,547.73,507.2,
04/03/2019,19:54:52,200728,4353.5453S,17904.6182E,6.5,74.6,200729,4353.5449S,17904.6386E,6.5,76.7, 15.5286, 34.4670,098.555,005,007,2.3,133.22,-6.07,1.05,, 20.577 ,20.66,22.07,,,,00008.75,00000000,0139.361,00523,523.82,507.65,
04/03/2019,19:55:52,200828,4353.5768S,17904.7603E,6.4,85.5,200830,4353.5842S,17904.7822E,6.4,96.1, 15.5317, 34.4688,120.726,019,008,6.1,184.01,1.26,2.12,, 21.288 ,21,22.04,,,,00008.75,00000000,0128.343,00582,542.67,507.64,
04/03/2019,19:56:52,200928,4353.6147S,17904.9022E,6.5,81.7,200930,4353.6154S,17904.9256E,6.6,76.7, 15.5422, 34.4699,096.767,019,010,6.41,156.23,-2.87,0.86,, 21.427 ,21.53,22.01,,,,00008.75,00000000,00123.76,00953,517.65,507.9,
04/03/2019,19:57:52,201028,4353.6312S,17905.0470E,6.4,76.9,201030,4353.6360S,17905.0710E,6.3,83.3, 15.5495, 34.4710,110.567,022,011,8.32,166.68,3.67,-0.50,, 21.927 ,21.71,21.99,,,,00008.75,00000000,098.6999,00361,577.27,509.69,
04/03/2019,19:58:52,201128,4353.6723S,17905.1849E,6.4,87.2,201130,4353.6781S,17905.2091E,6.4,88.7, 15.5458, 34.4713,107.428,350,006,1.02,205.98,1.90,3.39,, 21.848 ,21.9,21.98,,,,00008.75,00000000,0125.771,00243,513.52,510.22,
04/03/2019,19:59:52,201228,4353.6947S,17905.3319E,6.5,76.2,201230,4353.6972S,17905.3569E,6.6,73.4, 15.5411, 34.4722,093.299,356,010,4.08,115.63,4.13,1.42,, 22.446 ,22.1,21.97,,,,00008.75,00000000,0125.348,00641,525.55,510.83,
04/03/2019,20:00:52,201328,4353.7050S,17905.4799E,6.5,72.9,201330,4353.7085S,17905.5040E,6.5,80.8, 15.5428, 34.4718,104.963,337,014,7.5,82.97,5.04,0.07,, 21.588 ,22.55,21.98,,,,00008.75,00000000,0119.145,00372,516.07,511.09,
04/03/2019,20:01:52,201428,4353.7408S,17905.6091E,6.0,86.0,201430,4353.7491S,17905.6312E,5.8,93.4, 15.5465, 34.4717,117.438,001,010,5.34,145.79,0.78,0.81,, 21.839 ,21.92,21.96,,,,00008.75,00000000,0110.875,00688,560.4,512.52,
04/03/2019,20:02:52,201528,4353.7752S,17905.7421E,6.1,82.6,201530,4353.7775S,17905.7656E,6.3,78.3, 15.5475, 34.4712,097.829,010,012,5.01,134.33,1.53,1.46,, 21.422 ,22.07,21.96,,,,00008.75,00000000,0113.173,00603,527.34,512.85,
04/03/2019,20:03:53,201628,4353.7893S,17905.8903E,6.4,75.3,201630,4353.7944S,17905.9126E,6.3,85.6, 15.5445, 34.4708,111.124,002,013,6.24,142.75,-0.69,1.47,, 21.151 ,21.41,21.95,,,,00008.75,00000000,0116.618,00581,542.2,512.21,
04/03/2019,20:04:53,201728,4353.8369S,17906.0158E,6.1,92.7,201730,4353.8436S,17906.0392E,6.2,97.2, 15.5533, 34.4690,116.004,015,008,4.47,181.46,-3.41,3.47,, 24.438 ,21.87,21.94,,,,00008.75,00000000,0153.605,01005,495.33,511.61,
04/03/2019,20:05:53,201828,4353.8618S,17906.1568E,6.2,76.8,201830,4353.8610S,17906.1814E,6.3,69.9, 15.5552, 34.4709,088.756,040,011,9.41,163.62,3.32,0.94,, 21.652 ,21.87,21.93,,,,00008.75,00000000,0129.688,00662,566.18,513,
04/03/2019,20:06:53,201928,4353.8646S,17906.3022E,6.3,69.8,201930,4353.8674S,17906.3255E,6.2,83.4, 15.5546, 34.4717,113.586,039,010,7.24,201.18,8.50,1.54,, 21.545 ,21.57,21.92,,,,00008.75,00000000,0117.078,00357,563.37,513.58,
04/03/2019,20:07:53,202028,4353.9143S,17906.4335E,6.4,91.4,202030,4353.9206S,17906.4552E,6.4,94.8, 15.5580, 34.4722,114.035,002,011,9.09,174.71,6.91,1.80,, 21.241 ,21.29,21.91,,,,00008.75,00000000,0127.943,00158,542.15,513.87,
04/03/2019,20:08:53,202128,4353.9458S,17906.5725E,6.3,80.3,202130,4353.9480S,17906.5967E,6.2,73.9, 15.5576, 34.4710,096.647,059,010,12.03,188.46,2.80,4.45,, 21.603 ,21.28,21.9,,,,00008.75,00000000,00131.78,00139,507.65,514.3,
04/03/2019,20:09:53,202228,4353.9681S,17906.7085E,6.1,80.7,202230,4353.9738S,17906.7300E,6.3,87.4, 15.5829, 34.4698,111.665,029,012,9.66,172.19,3.52,1.56,, 25.183 ,22.89,21.91,,,,00008.75,00000000,0108.348,00396,496.28,514.61,
04/03/2019,20:10:53,202328,4354.0085S,17906.8459E,6.4,87.5,202330,4354.0139S,17906.8673E,6.5,94.1, 15.6118, 34.4694,115.294,350,008,1.65,261.33,-2.64,-1.33,, 22.437 ,38.92,22.21,,,,00008.75,00000000,0126.932,01023,318.95,511.3,
04/03/2019,20:11:53,202428,4354.0360S,17906.9888E,6.4,77.1,202430,4354.0355S,17907.0137E,6.6,67.4, 15.5666, 34.4701,089.448,048,012,7.73,181.04,6.27,-0.79,, 20.958 ,21.57,22.2,,,,00008.75,00000000,0116.389,00923,550.86,512.5,
04/03/2019,20:12:53,202528,4354.0397S,17907.1430E,6.7,69.8,202530,4354.0416S,17907.1666E,6.7,76.7, 15.5618, 34.4700,104.498,015,008,5.45,175.45,3.42,0.07,, 20.485 ,20.65,22.18,,,,00008.75,00000000,0104.903,00791,579.35,513.59,
04/03/2019,20:13:53,202628,4354.0774S,17907.2866E,6.6,85.4,202630,4354.0842S,17907.3089E,6.6,94.3, 15.5627, 34.4699,118.125,343,009,2.57,118.9,-5.30,2.03,, 20.555 ,20.55,22.15,,,,00008.75,00000000,0129.024,01026,559.95,514.4,
04/03/2019,20:14:53,202728,4354.1197S,17907.4231E,6.4,85.9,202730,4354.1229S,17907.4465E,6.6,79.4, 15.5642, 34.4698,101.661,047,006,5.09,189.4,-2.05,3.12,, 20.246 ,20.45,22.12,,,,00008.75,00000000,0113.907,00926,560.37,515.44,
04/03/2019,20:15:53,202829,4354.1347S,17907.5770E,6.5,73.3,202830,4354.1367S,17907.5981E,6.6,73.8, 15.5633, 34.4701,098.151,036,008,7.37,184.39,1.52,1.05,, 19.713 ,19.88,22.07,,,,00008.75,00000000,0101.916,00491,577.23,516.64,
04/03/2019,20:16:53,202929,4354.1648S,17907.7210E,6.5,83.8,202930,4354.1716S,17907.7388E,6.5,98.1, 15.5648, 34.4702,124.578,044,010,10.07,206.59,5.93,1.42,, 20.039 ,19.85,22.02,,,,00008.75,00000000,085.1458,00343,582.66,518.4,
04/03/2019,20:17:53,203029,4354.2221S,17907.8436E,6.3,94.1,203030,4354.2262S,17907.8631E,6.0,85.0, 15.5633, 34.4701,101.003,054,007,7.54,205.32,11.13,0.40,, 19.616 ,19.87,21.97,,,,00008.75,00000000,0117.951,00297,547.72,519.28,
04/03/2019,20:18:53,203129,4354.2280S,17907.9875E,6.2,68.3,203130,4354.2258S,17908.0112E,6.3,59.7, 15.5702, 34.4697,078.955,354,005,2.49,256.93,-1.39,1.42,, 19.359 ,19.56,21.92,,,,00008.75,00000000,0122.821,00602,495.27,519.48,
04/03/2019,20:19:53,203229,4354.2232S,17908.1344E,6.3,67.4,203230,4354.2262S,17908.1552E,6.3,81.4, 15.5682, 34.4702,111.041,041,006,5.24,210.87,0.10,1.82,, 19.673 ,19.51,21.86,,,,00008.75,00000000,0113.712,00638,533.25,519.72,
04/03/2019,20:20:53,203329,4354.2714S,17908.2633E,6.2,90.9,203330,4354.2789S,17908.2807E,6.3,97.5, 15.5649, 34.4705,117.800,020,007,4.63,199.49,5.40,1.14,, 19.477 ,19.29,21.8,,,,00008.75,00000000,0113.115,00412,569,520.49,
04/03/2019,20:21:53,203429,4354.3102S,17908.4023E,6.5,83.6,203430,4354.3112S,17908.4216E,6.7,76.7, 15.5672, 34.4699,096.337,000,006,2.18,194.22,-1.31,-2.24,, 19.127 ,19.08,21.73,,,,00008.75,00000000,00132.01,01134,482.15,520.2,
04/03/2019,20:22:53,203529,4354.3268S,17908.5491E,6.4,76.8,203530,4354.3296S,17908.5676E,6.5,81.3, 15.5709, 34.4690,109.413,032,012,7.51,192.31,1.10,0.52,, 18.422 ,19.22,21.66,,,,00008.75,00000000,0115.539,00871,528.72,520.7,
04/03/2019,20:23:53,203629,4354.3523S,17908.6940E,6.5,77.6,203630,4354.3533S,17908.7128E,6.4,83.6, 15.5664, 34.4686,107.201,008,011,7.4,156.99,-5.52,-1.38,, 18.216 ,18.73,21.57,,,,00008.75,00000000,0110.255,00459,527.82,520.64,
04/03/2019,20:24:53,203729,4354.3730S,17908.8410E,6.5,76.2,203730,4354.3743S,17908.8591E,6.5,81.0, 15.5688, 34.4679,109.333,032,010,6.47,173.29,-1.40,0.57,, 18.395 ,18.15,21.47,,,,00008.75,00000000,097.7809,00502,485.12,519.96,
04/03/2019,20:25:53,203829,4354.4062S,17908.9834E,6.5,81.7,203830,4354.4061S,17909.0018E,6.4,79.8, 15.5630, 34.4680,099.336,022,006,6.89,187.52,1.69,-0.28,, 17.704 ,17.98,21.38,,,,00008.75,00000000,0104.443,00712,526.42,520.05,
04/03/2019,20:26:53,203929,4354.4122S,17909.1320E,6.5,68.2,203930,4354.4101S,17909.1560E,6.6,64.1, 15.5626, 34.4688,085.371,006,008,4.52,154.09,2.43,-0.80,, 19.036 ,17.95,21.28,,,,00008.75,00000000,0112.116,00421,559.22,520.81,
04/03/2019,20:27:53,204029,4354.4207S,17909.2770E,6.3,73.7,204030,4354.4260S,17909.2966E,6.4,88.4, 15.5643, 34.4671,117.539,032,009,8.19,193.06,2.03,1.62,, 18.180 ,18.18,21.2,,,,00008.75,00000000,0112.449,00389,572.38,521.83,
04/03/2019,20:28:53,204129,4354.4709S,17909.4064E,6.4,91.4,204130,4354.4781S,17909.4249E,6.5,91.6, 15.5659, 34.4670,110.562,036,010,8.39,188.46,3.79,1.61,, 17.227 ,17.42,21.11,,,,00008.75,00000000,0100.078,00358,524.73,522.31,
04/03/2019,20:29:53,204229,4354.4901S,17909.5552E,6.5,75.2,204230,4354.4918S,17909.5759E,6.5,75.4, 15.5618, 34.4672,105.536,032,010,8.75,175.84,-2.91,0.23,, 17.125 ,17.05,21.01,,,,00008.75,00000000,0102.146,00696,532.38,522.15,
04/03/2019,20:30:53,204329,4354.5198S,17909.7003E,6.4,82.2,204330,4354.5238S,17909.7197E,6.3,86.9, 15.5654, 34.4690,112.631,047,011,13.15,212.3,1.80,6.13,, 17.578 ,17.09,20.9,,,,00008.75,00000000,0154.064,00539,579.38,522.58,
04/03/2019,20:31:53,204429,4354.5539S,17909.8330E,6.2,84.4,204430,4354.5565S,17909.8536E,6.3,86.0, 15.5707, 34.4691,109.934,353,007,2.08,165,0.42,0.72,, 17.702 ,17.85,20.83,,,,00004.25,-13.9087,0125.912,00647,507,522.52,
04/03/2019,20:32:53,204529,4354.5847S,17909.9724E,6.3,82.1,204530,4354.5856S,17909.9927E,6.4,82.5, 15.5723, 34.4708,104.820,016,008,4.85,172.91,0.21,1.26,, 17.224 ,17.14,20.74,,,,00004.25,00000000,0101.227,00452,543.22,522.93,
04/03/2019,20:33:53,204629,4354.6045S,17910.1225E,6.6,76.3,204630,4354.6066S,17910.1442E,6.4,78.3, 15.5681, 34.4715,102.990,031,011,9.02,169.33,5.10,1.03,, 17.192 ,17.31,20.66,,,,00004.25,00000000,098.0107,00275,540.65,524.27,
04/03/2019,20:34:53,204729,4354.6375S,17910.2613E,6.3,84.3,204730,4354.6430S,17910.2827E,6.2,92.4, 15.5725, 34.4722,113.388,010,011,4.29,128.83,-5.88,0.54,, 17.484 ,17.38,20.58,,,,00004.25,00000000,0105.362,00435,534.57,524.99,
04/03/2019,20:35:53,204829,4354.6608S,17910.4078E,6.5,77.5,204830,4354.6636S,17910.4303E,6.7,79.8, 15.5778, 34.4716,104.104,343,006,3.32,19.43,-8.88,1.15,, 17.737 ,17.62,20.5,,,,00004.25,00000000,0145.564,00221,496.48,524.44,
04/03/2019,20:36:53,204929,4354.6913S,17910.5550E,6.6,82.5,204930,4354.6945S,17910.5768E,6.6,87.2, 15.5680, 34.4720,110.246,030,009,7.29,186.59,1.12,0.97,, 17.086 ,17.25,20.43,,,,00000004,00000000,0111.899,00669,554.38,525.76,
04/03/2019,20:37:53,205029,4354.7194S,17910.7036E,6.7,78.4,205030,4354.7207S,17910.7254E,6.9,73.3, 15.5663, 34.4719,098.327,047,009,9.5,189.02,4.02,2.05,, 17.513 ,17.11,20.34,,,,00000004,00000000,0124.429,00389,570.98,527.06,
04/03/2019,20:38:53,205129,4354.7555S,17910.8462E,6.6,86.3,205130,4354.7598S,17910.8677E,6.6,90.6, 15.5659, 34.4722,106.645,001,006,0.7,299.8,-8.48,2.38,, 17.279 ,17.17,20.27,,,,00000004,00000000,0129.254,01266,503.57,526.61,
04/03/2019,20:39:53,205229,4354.7866S,17910.9934E,6.6,81.8,205230,4354.7894S,17911.0176E,6.6,80.1, 15.5680, 34.4732,106.463,050,007,7.07,209.55,-2.95,2.83,, 17.343 ,17.2,20.19,,,,00000004,00000000,0115.828,00691,554.32,527.37,
04/03/2019,20:40:53,205329,4354.8206S,17911.1349E,6.4,86.0,205330,4354.8266S,17911.1586E,6.4,90.3, 15.5712, 34.4750,110.911,354,009,5.81,138.38,2.52,0.81,, 18.212 ,17.76,20.13,,,,00003.75,-0540161,0117.056,00359,535.28,528.15,
04/03/2019,20:41:53,205429,4354.8516S,17911.2726E,6.3,82.2,205430,4354.8570S,17911.2955E,6.2,85.2, 15.5678, 34.4773,109.665,023,010,7.17,168.37,2.20,0.62,, 18.509 ,18.41,20.08,,,,00003.75,00000000,0105.592,00298,514.41,528.07,
04/03/2019,20:42:53,205529,4354.8973S,17911.4055E,6.3,90.6,205530,4354.9043S,17911.4274E,6.3,92.9, 15.5701, 34.4797,110.656,010,011,6.74,157.94,2.58,1.34,, 19.386 ,18.99,20.05,,,,00003.75,00000000,0125.348,00339,520.33,528.23,
04/03/2019,20:43:53,205629,4354.9190S,17911.5506E,6.4,77.0,205630,4354.9234S,17911.5740E,6.4,77.3, 15.5815, 34.4818,102.795,002,009,4.45,146.44,5.23,2.39,, 19.404 ,19.53,20.03,,,,00003.75,00000000,0116.345,00350,509.75,528.33,
04/03/2019,20:44:53,205729,4354.9581S,17911.6835E,6.2,87.7,205730,4354.9655S,17911.7074E,6.3,89.9, 15.5851, 34.4795,107.676,002,012,6.41,128.42,0.36,-1.63,, 19.239 ,19.14,20.02,,,,00003.75,00000000,0100.997,00388,516.23,528.22,
04/03/2019,20:45:53,205829,4354.9808S,17911.8323E,6.5,78.9,205830,4354.9892S,17911.8515E,6.5,87.6, 15.5836, 34.4801,123.226,012,011,7.89,169.45,0.30,0.14,, 18.737 ,18.61,19.99,,,,00003.75,00000000,090.6594,00662,541.67,529.25,
04/03/2019,20:46:53,205929,4355.0385S,17911.9568E,6.5,94.6,205930,4355.0492S,17911.9769E,6.6,92.4, 15.5830, 34.4790,113.191,354,008,4.78,184.7,8.05,2.03,, 18.372 ,18.44,19.97,,,,00003.75,00000000,091.3487,00329,512.85,529.06,
04/03/2019,20:47:53,210029,4355.0699S,17912.1068E,6.7,80.1,210030,4355.0740S,17912.1293E,6.7,77.0, 15.5819, 34.4773,103.934,003,007,3.55,177.28,-0.51,3.44,, 17.668 ,18.12,19.94,,,,00003.75,00000000,0120.754,00484,498.4,529.24,
04/03/2019,20:48:53,210129,4355.1004S,17912.2527E,6.5,81.7,210130,4355.1059S,17912.2762E,6.5,79.6, 15.5823, 34.4754,098.417,004,004,3.21,230.73,-6.60,0.86,, 17.811 ,17.91,19.9,,,,00003.75,00000000,0113.772,01051,513.72,529.13,
04/03/2019,20:49:53,210229,4355.1193S,17912.3994E,6.4,79.3,210230,4355.1258S,17912.4233E,6.4,87.2, 15.5726, 34.4736,109.513,033,006,5.77,208.38,4.77,4.28,, 17.465 ,17.62,19.86,,,,000003.5,00000000,0126.497,00591,596.37,530.39,
04/03/2019,20:50:53,210329,4355.1379S,17912.5491E,6.6,73.3,210330,4355.1417S,17912.5733E,6.6,74.6, 15.5691, 34.4720,101.482,002,006,3.17,170.92,-0.33,3.55,, 17.331 ,17.33,19.81,,,,000003.5,00000000,0118.686,00252,512.1,531.06,
04/03/2019,20:51:53,210429,4355.1650S,17912.6931E,6.4,79.8,210430,4355.1706S,17912.7153E,6.2,83.2, 15.5677, 34.4710,107.342,035,012,11.01,180.22,3.09,1.98,, 17.350 ,17.16,19.76,,,,000003.5,00000000,0101.916,00275,545.85,531.53,
04/03/2019,20:52:53,210529,4355.1947S,17912.8271E,6.0,82.8,210530,4355.2031S,17912.8483E,5.5,87.1, 15.5618, 34.4700,109.265,029,007,5.56,188.61,-3.59,0.81,, 17.466 ,16.92,19.7,,,,000003.5,00000000,00132.01,00590,478.4,530.62,
04/03/2019,20:53:53,210629,4355.2124S,17912.9144E,4.0,83.3,210631,4355.2225S,17912.9375E,3.2,87.7, 15.5565, 34.4706,109.907,025,005,3.67,174.63,-1.82,0.97,, 17.192 ,17.12,19.64,,,,000003.5,00000000,0113.348,00515,519.32,530.26,
04/03/2019,20:54:53,210729,4355.2228S,17912.9715E,2.6,78.3,210730,4355.2296S,17912.9921E,2.2,76.1, 15.5667, 34.4706,106.321,030,008,8.47,159.37,6.70,1.65,, 16.307 ,16.46,19.57,,,,000003.5,00000000,0104.673,00320,544.77,530.64,
04/03/2019,20:55:53,210829,4355.2286S,17913.0117E,1.9,75.9,210830,4355.2332S,17913.0332E,1.5,71.5, 15.5621, 34.4708,104.661,077,006,5.75,159.13,0.37,-0.21,, 15.514 ,16.05,19.49,,,,000003.5,00000000,0104.213,00607,543.69,530.76,
04/03/2019,20:56:53,210929,4355.2282S,17913.0390E,1.3,68.5,210930,4355.2358S,17913.0587E,1.0,72.6, 15.5714, 34.4704,110.972,355,003,6.69,148.6,-0.92,1.01,, 15.885 ,16.02,19.4,,,,000003.5,00000000,0119.835,00510,510.4,530.48,
04/03/2019,20:57:53,211029,4355.2283S,17913.0789E,2.1,68.4,211031,4355.2439S,17913.0934E,2.4,94.8, 15.5677, 34.4709,150.839,018,008,5.89,193.96,8.41,-1.16,, 15.830 ,15.91,19.31,,,,000003.5,00000000,095.4836,00336,561.53,530.18,
04/03/2019,20:58:53,211129,4355.2494S,17913.1038E,1.4,114.2,211131,4355.2601S,17913.0973E,0.9,161.0, 15.5713, 34.4713,209.596,275,008,8.13,146.12,5.17,-1.37,, 16.341 ,16.48,19.21,,,,000003.5,00000000,0102.605,00403,504.48,530.02,
04/03/2019,20:59:53,211229,4355.2553S,17913.1021E,0.8,162.2,211231,4355.2659S,17913.0930E,0.4,162.7, 15.5811, 34.4708,211.034,316,008,7.6,167.26,-1.95,-0.51,, 16.842 ,16.61,19.12,,,,000003.5,00000000,00112.51,00625,489.08,529.38,
04/03/2019,21:00:53,211329,4355.2556S,17913.1035E,0.6,196.8,211331,4355.2670S,17913.0939E,0.5,103.8, 15.5823, 34.4701,209.811,312,005,4.75,166.93,-0.56,1.17,, 16.133 ,16.44,19.02,,,,000003.5,00000000,0114.336,00548,481.81,528.76,
04/03/2019,21:01:53,211429,4355.2525S,17913.1081E,0.7,2.9,211431,4355.2620S,17913.0983E,0.6,17.0, 15.5946, 34.4708,205.341,335,004,4.57,182.84,3.39,3.81,, 16.230 ,16.25,18.92,,,,000003.5,00000000,0110.649,00392,521.75,527.98,
04/03/2019,21:02:53,211529,4355.2483S,17913.1218E,0.9,31.6,211531,4355.2557S,17913.1066E,0.6,16.7, 15.6164, 34.4706,231.652,305,006,6.6,194.03,2.31,-0.49,, 15.895 ,15.91,18.82,,,,00003.25,00000000,0114.198,00362,477.15,527.23,
04/03/2019,21:03:53,211629,4355.2468S,17913.1365E,0.7,50.1,211631,4355.2520S,17913.1188E,0.5,31.8, 15.5902, 34.4714,260.584,282,002,2.45,188.3,4.40,-0.69,, 16.055 ,16.05,18.73,,,,00003.25,00000000,0103.754,00491,471.38,526.08,
04/03/2019,21:04:53,211729,4355.2451S,17913.1453E,0.9,61.7,211731,4355.2446S,17913.1303E,0.9,44.9, 15.5922, 34.4713,283.415,232,006,6.37,163.02,-0.74,-0.32,, 16.212 ,16.24,18.64,,,,00003.25,00000000,0113.199,00439,465.46,525.61,
04/03/2019,21:05:53,211829,4355.2398S,17913.1546E,1.0,38.9,211831,4355.2379S,17913.1382E,1.0,34.5, 15.5875, 34.4714,286.412,141,004,3.21,77.17,-1.92,1.56,, 16.096 ,16.31,18.55,,,,00003.25,00000000,0126.497,00752,549.78,525.51,
04/03/2019,21:06:53,211929,4355.2331S,17913.1583E,1.0,40.8,211931,4355.2330S,17913.1420E,0.6,344.3, 15.5874, 34.4715,276.220,213,005,5.57,146.34,-0.49,0.20,, 16.800 ,16.64,18.46,,,,00003.25,00000000,0114.405,00834,519.65,524.67,
04/03/2019,21:07:53,212029,4355.2270S,17913.1584E,0.8,6.2,212031,4355.2290S,17913.1425E,0.5,347.5, 15.5861, 34.4710,262.917,194,006,8.36,124.37,-2.49,3.61,, 16.058 ,16.36,18.38,,,,00003.25,00000000,0122.591,00566,513.65,524.19,
04/03/2019,21:08:53,212129,4355.2201S,17913.1578E,0.8,6.1,212131,4355.2273S,17913.1430E,0.6,347.8, 15.5888, 34.4712,247.261,283,003,3.59,157.62,2.62,1.03,, 15.867 ,16.26,18.3,,,,00003.25,00000000,091.8081,00389,541.73,524.73,
04/03/2019,21:09:53,212229,4355.2161S,17913.1602E,0.8,4.4,212231,4355.2244S,17913.1471E,0.4,34.3, 15.5836, 34.4713,236.363,350,004,4.39,225.17,1.64,-1.50,, 16.609 ,16.27,18.19,,,,00003.25,00000000,0105.821,00504,529.56,525.49,
04/03/2019,21:10:53,212329,4355.2096S,17913.1605E,0.8,358.7,212331,4355.2196S,17913.1493E,0.3,26.0, 15.5894, 34.4715,219.102,279,005,5.16,148.99,1.36,2.26,, 16.559 ,16.29,17.79,,,,00003.25,00000000,0120.983,00568,513.63,528.69,
04/03/2019,21:11:53,212429,4355.2048S,17913.1606E,0.7,345.9,212431,4355.2158S,17913.1528E,0.5,8.7, 15.5909, 34.4707,205.039,308,004,2.41,157.57,5.03,1.19,, 16.191 ,15.98,17.7,,,,00003.25,00000000,000107.2,00336,532.58,528.31,
04/03/2019,21:12:53,212529,4355.2013S,17913.1662E,0.7,12.3,212531,4355.2114S,17913.1575E,0.5,17.5, 15.5869, 34.4721,201.854,307,003,4.59,187.37,3.38,5.42,, 15.828 ,16.03,17.62,,,,00003.25,00000000,0111.236,00407,513.1,527.4,
04/03/2019,21:13:54,212629,4355.1936S,17913.1743E,0.8,25.4,212631,4355.2015S,17913.1615E,0.7,5.1, 15.5919, 34.4718,224.950,304,007,6.69,173.44,-0.18,-0.83,, 15.572 ,16.06,17.55,,,,00003.25,00000000,0112.637,00696,499.82,526.57,
04/03/2019,21:14:54,212729,4355.1888S,17913.1866E,0.9,38.1,212731,4355.1949S,17913.1699E,0.5,17.1, 15.6190, 34.4711,254.050,254,002,3.44,170.35,5.30,2.70,, 16.100 ,15.97,17.47,,,,00003.25,00000000,0113.154,00752,566.2,526.65,
04/03/2019,21:15:54,212829,4355.1864S,17913.1959E,0.9,43.6,212831,4355.1870S,17913.1788E,0.7,8.7, 15.6061, 34.4716,276.823,271,006,6.8,187.91,-1.13,-1.28,, 15.844 ,15.95,17.41,,,,00003.25,00000000,0115.566,00499,516.87,525.7,
04/03/2019,21:16:54,212929,4355.1811S,17913.2013E,0.7,22.2,212931,4355.1792S,17913.1832E,0.3,6.5, 15.5934, 34.4713,282.743,283,002,2.38,202.57,4.39,-0.75,, 15.816 ,16.05,17.34,,,,00003.25,00000000,00112.35,00597,535.97,524.92,
04/03/2019,21:17:54,213029,4355.1733S,17913.1998E,0.8,0.7,213031,4355.1710S,17913.1839E,0.6,312.0, 15.5965, 34.4709,277.468,224,007,7.49,140.81,0.16,4.24,, 15.623 ,15.9,17.28,,,,00000003,00000000,0113.189,00526,532.38,524.62,
04/03/2019,21:18:54,213129,4355.1655S,17913.1964E,0.7,312.6,213131,4355.1696S,17913.1806E,0.4,292.9, 15.5948, 34.4716,255.431,293,002,1.91,206,1.64,-0.90,, 15.982 ,15.94,17.22,,,,00000003,00000000,0105.362,00582,510,524.82,
04/03/2019,21:19:54,213229,4355.1613S,17913.1929E,0.7,321.1,213231,4355.1669S,17913.1791E,0.4,16.8, 15.5934, 34.4715,244.865,291,006,6.37,176.99,-0.42,0.93,, 16.041 ,16.09,17.16,,,,00000003,00000000,0120.294,00666,527.75,524.51,
04/03/2019,21:20:54,213329,4355.1585S,17913.1935E,0.4,8.2,213331,4355.1626S,17913.1796E,0.4,4.2, 15.5883, 34.4711,237.142,307,005,5.4,184.08,0.03,-2.16,, 15.462 ,15.85,17.1,,,,00000003,00000000,0113.775,00262,485.62,523.21,
04/03/2019,21:21:54,213429,4355.1533S,17913.1939E,0.7,14.2,213431,4355.1616S,17913.1816E,0.4,39.3, 15.5913, 34.4714,226.758,275,001,1.14,161.57,4.57,2.58,, 16.103 ,16.09,17.05,,,,00000003,00000000,0467.411,00414,501.9,523.65,
04/03/2019,21:22:54,213530,4355.1495S,17913.1979E,0.7,18.3,213531,4355.1580S,17913.1832E,0.5,19.2, 15.5845, 34.4712,228.324,295,006,5.33,152.94,-0.20,0.71,, 16.064 ,15.95,17,,,,-0000005,00000000,0360.129,00465,519.7,523.81,
04/03/2019,21:23:54,213630,4355.1458S,17913.2042E,0.7,22.2,213631,4355.1524S,17913.1888E,0.5,12.3, 15.5915, 34.4724,240.435,272,007,4.39,155.47,0.55,3.06,, 15.846 ,16.1,16.96,,,,-0000005,00000000,0315.562,00425,471.47,522.98,
04/03/2019,21:24:54,213730,4355.1425S,17913.2122E,1.0,45.4,213731,4355.1470S,17913.1987E,1.1,31.5, 15.6200, 34.4711,261.922,250,010,4.57,163.8,-8.69,4.18,, 16.032 ,16.08,16.92,,,,-0000005,00000000,0345.426,00704,491.68,523.04,
04/03/2019,21:25:54,213830,4355.1400S,17913.2181E,0.9,44.9,213831,4355.1413S,17913.2047E,0.4,28.4, 15.5936, 34.4716,268.810,189,000,0.4,208.4,5.52,3.47,, 16.217 ,16.43,16.89,,,,-0000003,013.4811,0293.738,00422,482.55,522.33,
04/03/2019,21:26:54,213930,4355.1341S,17913.2265E,0.9,57.6,213931,4355.1343S,17913.2081E,0.7,10.8, 15.6004, 34.4723,281.138,232,005,4.29,128.29,3.76,5.73,, 16.064 ,16.1,16.86,,,,-0000021,-37.7511,00275.36,00335,488.95,521.34,
04/03/2019,21:27:54,214030,4355.1306S,17913.2282E,0.7,31.8,214031,4355.1277S,17913.2099E,0.3,6.5, 15.5953, 34.4710,285.226,264,006,8.29,173.42,-0.18,-0.31,, 16.214 ,16.39,16.84,,,,-0059.25,-38.6736,0370.237,00998,488.27,519.93,
04/03/2019,21:28:54,214130,4355.1232S,17913.2270E,0.8,340.6,214131,4355.1214S,17913.2119E,0.5,320.7, 15.5939, 34.4710,268.119,220,004,4.49,135.56,0.93,4.17,, 15.993 ,15.91,16.81,,,,-0097.25,-38.4065,0376.767,00634,536.8,520.01,
04/03/2019,21:29:54,214230,4355.1156S,17913.2233E,0.8,307.5,214231,4355.1197S,17913.2109E,0.7,311.6, 15.5938, 34.4711,252.364,239,008,7.7,129.15,-6.10,4.80,, 15.935 ,16.23,16.8,,,,-0135.75,-37.3688,0448.803,00980,465.8,518.8,
04/03/2019,21:30:54,214330,4355.1124S,17913.2217E,0.7,4.2,214331,4355.1159S,17913.2083E,0.4,42.2, 15.5941, 34.4711,240.242,238,005,4.92,122.77,-1.80,1.82,, 16.098 ,16.16,16.78,,,,-0173.75,-37.7811,0427.209,00769,481.13,517.31,
04/03/2019,21:31:54,214430,4355.1075S,17913.2221E,0.6,340.3,214431,4355.1129S,17913.2096E,0.4,14.3, 15.5831, 34.4716,231.392,298,008,8.36,170.28,-1.94,0.42,, 16.719 ,16.33,16.76,,,,-0211.25,-37.5686,0329.575,00604,481.95,516.88,
04/03/2019,21:32:54,214530,4355.1028S,17913.2270E,0.6,4.1,214531,4355.1094S,17913.2135E,0.5,359.2, 15.5937, 34.4718,235.380,291,005,5.39,167.54,-1.24,-0.73,, 16.289 ,16.48,16.75,,,,-0248.75,-37.5843,0377.588,00795,512.63,516.35,
04/03/2019,21:33:54,214630,4355.0982S,17913.2318E,0.6,18.6,214631,4355.1021S,17913.2160E,0.5,2.8, 15.5913, 34.4717,246.281,254,006,6.37,143.24,0.20,4.16,, 15.940 ,16.13,16.73,,,,-0000286,-37.2702,0400.331,00716,479.72,515.25,
04/03/2019,21:34:54,214730,4355.0955S,17913.2363E,0.9,41.1,214731,4355.0979S,17913.2217E,0.9,35.4, 15.6044, 34.4715,257.278,259,001,0.36,98.12,13.67,2.67,, 15.819 ,16.09,16.7,,,,-0000323,-36.4053,0344.653,00147,517.51,514.8,
04/03/2019,21:35:54,214830,4355.0910S,17913.2375E,0.7,2.0,214831,4355.0911S,17913.2251E,0.5,318.5, 15.5885, 34.4726,265.735,236,004,4.36,123.35,5.96,1.87,, 16.040 ,16.06,16.68,,,,-00359.5,-36.5831,0427.669,00254,509.38,515.23,
04/03/2019,21:36:54,214930,4355.0834S,17913.2346E,0.7,340.1,214931,4355.0861S,17913.2222E,0.4,320.5, 15.5852, 34.4722,253.090,255,003,3.4,147.2,6.82,2.55,, 15.928 ,15.95,16.66,,,,-0396.75,-36.9236,0427.669,00263,484.03,514.09,
04/03/2019,21:37:54,215030,4355.0772S,17913.2301E,0.6,312.8,215031,4355.0822S,17913.2142E,0.2,272.7, 15.5811, 34.4714,239.770,283,006,6.07,160.19,2.26,2.16,, 15.587 ,16.09,16.64,,,,-00433.5,-037.519,0447.425,00463,505.08,513.02,
04/03/2019,21:38:54,215130,4355.0745S,17913.2279E,0.6,287.8,215131,4355.0824S,17913.2135E,0.4,300.5, 15.5887, 34.4711,231.553,271,007,10.26,163.23,-2.06,-0.04,, 15.835 ,15.77,16.62,,,,-0470.25,-35.8911,0566.194,00731,525.47,512.88,
04/03/2019,21:39:54,215230,4355.0724S,17913.2292E,0.5,347.6,215231,4355.0806S,17913.2150E,0.2,33.7, 15.5910, 34.4715,229.015,283,005,6.1,155.78,3.47,1.66,, 16.036 ,15.83,16.59,,,,-0499.25,-7.66579,0482.114,00623,490.53,512.12,
04/03/2019,21:40:54,215330,4355.0712S,17913.2312E,0.6,29.6,215331,4355.0781S,17913.2173E,0.3,23.5, 15.5814, 34.4711,235.660,274,006,6,114.07,1.21,4.20,, 15.989 ,15.91,16.56,,,,-0000469,038.9393,0496.357,00553,525.07,512.09,
04/03/2019,21:41:54,215430,4355.0701S,17913.2343E,0.7,40.1,215431,4355.0743S,17913.2184E,0.4,38.1, 15.5907, 34.4717,248.489,265,005,5.18,157.49,0.07,0.58,, 16.374 ,16.18,16.53,,,,-0000430,040.2093,00560.91,00457,484.35,511.47,
04/03/2019,21:42:54,215530,4355.0696S,17913.2391E,0.7,52.2,215531,4355.0728S,17913.2233E,0.5,24.3, 15.5851, 34.4723,264.999,260,008,7.39,166.51,0.52,1.36,, 15.714 ,16.11,16.48,,,,-0390.25,040.0174,0579.977,00511,482.68,510.94,
04/03/2019,21:43:54,215630,4355.0675S,17913.2419E,0.8,47.7,215631,4355.0667S,17913.2265E,0.6,28.0, 15.5905, 34.4715,275.539,243,005,6.26,146.37,2.73,1.64,, 15.925 ,16.11,16.42,,,,-0350.75,0039.503,0453.628,00445,516.1,511.07,
04/03/2019,21:44:54,215730,4355.0612S,17913.2426E,0.6,340.4,215731,4355.0581S,17913.2269E,0.5,335.6, 15.5912, 34.4711,273.697,259,006,6.5,158.14,-0.72,-0.90,, 16.139 ,16.2,16.37,,,,-0311.25,039.3592,0375.291,00688,531.98,511.21,
04/03/2019,21:45:54,215830,4355.0543S,17913.2382E,0.7,344.4,215831,4355.0569S,17913.2236E,0.4,281.2, 15.5953, 34.4712,247.570,269,010,10.26,154.6,-3.10,3.80,, 15.951 ,15.95,16.33,,,,-0271.75,040.1908,0460.749,00952,487.38,510.28,
04/03/2019,21:46:54,215930,4355.0522S,17913.2357E,0.6,283.5,215931,4355.0574S,17913.2199E,0.4,277.6, 15.5898, 34.4709,236.819,238,003,4.4,108.4,5.09,5.96,, 15.997 ,16.11,16.29,,,,-0231.25,040.2882,0486.708,00362,526.48,510.45,
04/03/2019,21:47:54,220030,4355.0505S,17913.2333E,0.7,305.7,220031,4355.0568S,17913.2203E,0.3,294.7, 15.5938, 34.4711,229.462,275,005,5.26,142.84,0.54,1.40,, 15.659 ,15.88,16.25,,,,-00191.5,039.6204,00569.87,00357,486.05,510.24,
04/03/2019,21:48:54,220130,4355.0495S,17913.2346E,0.5,351.1,220131,4355.0566S,17913.2249E,0.0,16.9, 15.5910, 34.4711,222.164,311,002,2,173.16,2.42,2.86,, 16.550 ,16.02,16.22,,,,-0000152,040.1368,0588.478,00684,514.27,509.94,
04/03/2019,21:49:54,220230,4355.0456S,17913.2368E,0.7,4.4,220231,4355.0525S,17913.2296E,0.4,115.5, 15.6014, 34.4717,212.968,300,003,2.7,159.95,2.93,1.32,, 16.197 ,16.06,16.19,,,,-00111.5,040.6856,0482.803,00337,518.22,508.77,
04/03/2019,21:50:54,220330,4355.0430S,17913.2404E,0.6,17.6,220331,4355.0509S,17913.2325E,0.4,42.0, 15.5941, 34.4726,208.972,265,003,1.65,75.48,5.35,4.82,, 16.399 ,16.23,16.18,,,,-00072.5,037.5172,0425.142,00396,502.25,508.6,
04/03/2019,21:51:54,220430,4355.0386S,17913.2446E,0.7,14.5,220431,4355.0469S,17913.2383E,0.4,1.7, 15.6070, 34.4729,215.799,274,005,6.27,156.12,1.88,-2.75,, 15.915 ,16.37,16.16,,,,-0035.75,036.3526,0424.453,00487,493.33,507.66,
04/03/2019,21:52:54,220530,4355.0376S,17913.2519E,0.7,25.7,220531,4355.0408S,17913.2439E,0.4,22.0, 15.6115, 34.4725,228.570,229,004,3.92,103.24,3.17,2.96,, 16.385 ,16.23,16.15,,,,-00009.5,020.6388,0367.021,00778,560.83,508.89,
04/03/2019,21:53:54,220630,4355.0349S,17913.2586E,0.7,38.4,220631,4355.0380S,17913.2440E,0.3,14.2, 15.6268, 34.4721,245.941,243,006,6.13,131.49,-1.39,0.84,, 16.206 ,16.1,16.13,,,,-0000005,00000000,0378.737,00543,538.48,509.23,
04/03/2019,21:54:54,220730,4355.0338S,17913.2636E,0.7,38.3,220731,4355.0374S,17913.2470E,0.3,21.3, 15.6144, 34.4719,258.741,182,004,4.1,133.72,-3.77,0.75,, 16.046 ,16.15,16.13,,,,-0000005,00000000,0522.086,00564,544.52,509.29,
04/03/2019,21:55:54,220830,4355.0327S,17913.2655E,0.7,39.3,220831,4355.0345S,17913.2462E,0.4,41.6, 15.6074, 34.4724,263.496,199,005,8.09,146.35,-7.44,1.63,, 16.044 ,16.01,16.13,,,,00003.75,016.6483,0581.815,01047,541.53,509.07,
04/03/2019,21:56:54,220930,4355.0291S,17913.2644E,0.7,17.6,220931,4355.0324S,17913.2465E,0.5,292.2, 15.6007, 34.4718,253.236,199,002,4.4,79.34,5.93,-2.18,, 16.593 ,16.02,16.13,,,,00000005,00000000,0101.227,00326,536.08,509.36,
04/03/2019,21:57:54,221030,4355.0247S,17913.2644E,0.6,17.3,221031,4355.0301S,17913.2466E,0.2,21.4, 15.5988, 34.4720,239.037,250,002,2.18,176.83,2.97,-0.11,, 15.920 ,16.14,16.13,,,,00000005,00000000,0106.181,00304,516.32,508.73,
04/03/2019,21:58:54,221130,4355.0226S,17913.2601E,0.7,327.9,221131,4355.0295S,17913.2512E,0.4,45.3, 15.5979, 34.4718,221.372,259,003,3.92,127.05,1.59,1.24,, 15.745 ,16.02,16.12,,,,00000005,00000000,0106.824,00676,506.37,508.87,
04/03/2019,21:59:54,221230,4355.0222S,17913.2589E,0.6,73.1,221231,4355.0288S,17913.2531E,0.6,125.5, 15.5970, 34.4720,215.398,342,002,2.65,185.36,1.28,-2.32,, 15.394 ,15.9,16.11,,,,00000005,00000000,0096.862,00515,536.72,509.51,
04/03/2019,22:00:54,221330,4355.0243S,17913.2590E,0.5,19.0,221331,4355.0284S,17913.2544E,0.4,81.0, 15.6018, 34.4720,212.180,308,006,5.94,163.97,1.34,-0.16,, 15.417 ,15.6,16.1,,,,00000005,00000000,0106.836,00588,504.97,509.94,
04/03/2019,22:01:54,221430,4355.0226S,17913.2669E,0.6,36.6,221432,4355.0259S,17913.2595E,0.4,29.0, 15.6118, 34.4719,228.207,255,004,4.05,128.41,1.60,0.69,, 15.961 ,15.87,16.09,,,,00000005,00000000,0107.077,00435,511.9,509.89,
04/03/2019,22:02:54,221530,4355.0223S,17913.2800E,0.8,60.1,221532,4355.0215S,17913.2650E,0.5,38.1, 15.6046, 34.4718,254.108,273,006,5.11,143.38,1.03,3.09,, 16.141 ,15.94,16.09,,,,00000005,00000000,00107.02,00247,463.82,509.57,
04/03/2019,22:03:54,221630,4355.0230S,17913.2876E,0.7,68.8,221631,4355.0216S,17913.2701E,0.4,54.9, 15.5960, 34.4719,269.641,218,004,3.9,133.26,0.85,-0.66,, 15.895 ,16.02,16.09,,,,00000005,00000000,0096.862,00430,480.73,509.73,
04/03/2019,22:04:54,221730,4355.0193S,17913.2886E,0.5,26.4,221732,4355.0180S,17913.2718E,0.5,336.3, 15.6020, 34.4727,270.875,255,002,2.49,163.96,2.32,-0.04,, 15.457 ,15.8,16.08,,,,00000005,00000000,089.7404,00314,482,510.17,
04/03/2019,22:05:54,221830,4355.0152S,17913.2885E,0.6,352.0,221832,4355.0146S,17913.2714E,0.5,3.7, 15.5996, 34.4726,258.297,274,008,8.49,172.96,-2.41,2.10,, 15.845 ,15.7,16.07,,,,00000005,00000000,0105.503,00659,530.25,509.83,
04/03/2019,22:06:54,221930,4355.0112S,17913.2881E,0.5,337.0,221932,4355.0136S,17913.2715E,0.4,305.2, 15.6121, 34.4718,245.136,262,006,7.39,136.49,-1.92,2.06,, 16.277 ,15.71,16.06,,,,00000005,00000000,0105.125,00613,489.3,509.51,
04/03/2019,22:07:54,222030,4355.0064S,17913.2922E,0.7,350.7,222032,4355.0139S,17913.2744E,0.4,339.8, 15.6042, 34.4723,233.418,276,004,4.34,128.25,1.52,4.36,, 16.150 ,15.91,16.05,,,,00000005,00000000,0095.254,00526,511.08,509.56,
04/03/2019,22:08:54,222130,4355.0063S,17913.2908E,0.6,19.3,222132,4355.0126S,17913.2831E,0.5,48.0, 15.6050, 34.4721,229.692,264,006,5.98,138.47,1.99,1.58,, 15.463 ,15.79,16.04,,,,00000005,00000000,0106.216,00660,503.13,508.97,
04/03/2019,22:09:54,222230,4355.0019S,17913.2927E,0.6,352.5,222232,4355.0080S,17913.2856E,0.4,353.0, 15.5989, 34.4724,224.623,273,004,4.33,140.69,3.91,-0.97,, 15.835 ,15.81,16.04,,,,00008.75,09.51919,096.1728,00435,504.37,508.35,
04/03/2019,22:10:54,222330,4354.9970S,17913.2932E,0.7,347.0,222332,4355.0015S,17913.2872E,0.4,12.1, 15.5997, 34.4719,223.544,262,006,5.31,153.41,0.81,-1.65,, 15.755 ,15.78,16.03,,,,00008.75,00000000,0107.411,00303,481.88,507.83,
04/03/2019,22:11:54,222430,4354.9940S,17913.2927E,0.6,324.9,222432,4354.9989S,17913.2869E,1.1,344.6, 15.5991, 34.4715,214.068,292,004,5.79,124.26,-1.66,5.49,, 16.079 ,15.88,16.03,,,,00008.75,00000000,0114.781,00643,504.4,507.45,
04/03/2019,22:12:54,222530,4354.9900S,17913.2922E,0.6,323.4,222532,4355.0013S,17913.2885E,0.5,19.6, 15.5976, 34.4722,201.422,265,005,4.2,136.8,0.14,1.40,, 15.726 ,15.66,16.02,,,,00008.75,00000000,092.0377,00565,548.27,507.91,
04/03/2019,22:13:54,222630,4354.9854S,17913.2957E,0.7,353.7,222632,4354.9956S,17913.2914E,0.5,346.2, 15.5997, 34.4723,205.135,298,003,3.45,142.24,2.20,-0.84,, 15.726 ,15.58,16.01,,,,00008.75,00000000,0095.943,00786,533.88,508.45,
04/03/2019,22:14:54,222730,4354.9802S,17913.3074E,0.9,30.9,222732,4354.9869S,17913.2993E,0.8,20.8, 15.6113, 34.4720,232.235,270,006,8.56,157.19,-2.01,0.91,, 15.825 ,15.46,16,,,,00008.75,00000000,0105.297,00609,529,507.75,
04/03/2019,22:15:54,222830,4354.9802S,17913.3179E,0.7,56.8,222832,4354.9799S,17913.3036E,0.4,46.3, 15.5932, 34.4720,259.196,223,005,5.89,122.89,0.19,-0.15,, 15.068 ,15.88,16,,,,00008.75,00000000,096.6322,00363,488.65,507.24,
04/03/2019,22:16:54,222930,4354.9802S,17913.3231E,0.7,60.2,222932,4354.9777S,17913.3069E,0.5,60.7, 15.6039, 34.4719,268.492,240,005,4.94,154.22,3.09,0.03,, 15.686 ,15.8,16,,,,00008.75,00000000,095.0242,00281,508.12,506.71,
04/03/2019,22:17:54,223030,4354.9801S,17913.3230E,0.6,61.7,223032,4354.9720S,17913.3105E,0.2,76.4, 15.5989, 34.4724,267.204,237,005,4.93,146.37,-0.64,0.76,, 15.948 ,15.9,16,,,,00008.75,00000000,0107.525,00831,518,506.59,
04/03/2019,22:18:54,223130,4354.9760S,17913.3204E,0.3,311.4,223132,4354.9767S,17913.3078E,0.4,159.0, 15.6006, 34.4719,248.962,246,009,8.62,134.1,-2.42,3.27,, 15.653 ,15.79,16,,,,00008.75,00000000,0106.124,01014,520.73,506.63,
04/03/2019,22:19:54,223230,4354.9779S,17913.3167E,0.5,226.1,223231,4354.9808S,17913.3040E,,, 15.5925, 34.4719,234.342,257,006,5.63,154.19,2.21,0.44,, 15.518 ,15.89,15.99,,,,00008.75,00000000,0107.169,00315,535.3,506.87,
04/03/2019,22:20:54,223330,4354.9834S,17913.3142E,0.8,213.1,223332,4354.9886S,17913.3098E,0.8,161.4, 15.5963, 34.4726,229.325,307,004,3.24,180.28,4.93,0.55,, 14.888 ,15.21,15.98,,,,00008.75,00000000,0106.055,00483,560.97,508.22,
04/03/2019,22:21:54,223430,4354.9863S,17913.3190E,0.6,130.9,223432,4354.9920S,17913.3102E,0.0,123.3, 15.5976, 34.4719,228.136,262,004,4.63,149.2,4.33,2.69,, 15.306 ,15.08,15.96,,,,00008.75,00000000,0104.791,00325,485.61,507.95,
04/03/2019,22:22:54,223530,4354.9894S,17913.3219E,0.7,127.5,223532,4354.9924S,17913.3138E,0.6,128.5, 15.5835, 34.4729,234.938,261,007,6.41,136.66,-3.35,-1.12,, 16.223 ,15.5,15.96,,,,00008.75,00000000,0105.446,00913,486.85,507.35,
04/03/2019,22:23:54,223630,4354.9963S,17913.3275E,0.8,126.8,223632,4354.9959S,17913.3174E,0.8,128.7, 15.6037, 34.4727,248.457,251,005,3.3,129.31,1.73,-0.73,, 16.171 ,15.9,15.95,,,,00008.75,00000000,0106.032,00587,506.37,507.97,
04/03/2019,22:24:54,223730,4355.0007S,17913.3339E,0.7,104.8,223732,4355.0034S,17913.3181E,0.4,116.0, 15.5930, 34.4724,228.107,233,008,7.7,125.49,-1.53,-0.70,, 15.849 ,15.73,15.95,,,,00008.75,00000000,0103.723,00378,516.22,508.28,
04/03/2019,22:25:54,223830,4355.0050S,17913.3349E,0.5,149.5,223832,4355.0075S,17913.3191E,0.6,200.7, 15.5865, 34.4723,266.940,251,008,7.55,154.8,0.96,0.19,, 14.923 ,15.27,15.93,,,,00008.75,00000000,0106.216,00509,478.45,508.19,
04/03/2019,22:26:54,223930,4355.0107S,17913.3159E,1.1,222.2,223932,4355.0148S,17913.3034E,1.1,207.7, 15.5880, 34.4722,243.813,266,010,9.45,143.17,-2.12,2.95,, 15.319 ,15.13,15.91,,,,00008.75,00000000,0106.492,00576,477.25,507.94,
04/03/2019,22:27:55,224030,4355.0279S,17913.2914E,1.5,200.0,224032,4355.0365S,17913.2833E,1.5,199.7, 15.5798, 34.4723,237.320,255,006,3.43,118.35,3.35,-0.83,, 15.241 ,15.64,15.9,,,,00008.75,00000000,096.1728,00327,519.32,508.28,
04/03/2019,22:28:55,224130,4355.0496S,17913.2627E,1.9,195.6,224132,4355.0577S,17913.2532E,2.1,195.5, 15.5790, 34.4726,235.683,288,006,4.42,111.21,1.25,4.23,, 15.130 ,15.05,15.89,,,,00008.75,00000000,0111.105,00584,461.63,507.36,
04/03/2019,22:29:55,224230,4355.0746S,17913.2353E,1.9,193.6,224232,4355.0830S,17913.2265E,1.8,193.6, 15.5883, 34.4725,206.415,290,004,2.27,107.66,4.13,2.27,, 14.832 ,14.9,15.86,,,,00008.75,00000000,098.0107,00333,497.75,507.89,
04/03/2019,22:30:55,224330,4355.0969S,17913.2110E,1.9,192.7,224332,4355.1062S,17913.1987E,1.9,200.3, 15.5844, 34.4723,233.861,308,005,3.25,171.22,4.98,3.01,, 15.210 ,14.86,15.84,,,,00008.75,00000000,0114.781,00162,508.17,508.16,
04/03/2019,22:31:55,224430,4355.1193S,17913.1847E,1.9,192.1,224432,4355.1284S,17913.1743E,1.7,194.6, 15.5932, 34.4730,240.001,339,002,5.01,95.58,5.66,1.01,, 15.128 ,15,15.82,,,,00008.75,00000000,0119.375,00283,496.87,508.6,
04/03/2019,22:32:55,224530,4355.1394S,17913.1596E,1.7,195.2,224532,4355.1495S,17913.1487E,1.8,199.8, 15.5835, 34.4734,235.202,297,005,3.48,159.54,2.97,2.50,, 14.930 ,15.06,15.8,,,,00008.75,00000000,00115.47,00530,494.83,508.71,
04/03/2019,22:33:55,224631,4355.1624S,17913.1318E,1.8,195.0,224632,4355.1678S,17913.1199E,1.7,205.9, 15.5878, 34.4740,240.890,287,006,4.75,155.14,0.53,2.81,, 15.135 ,14.99,15.78,,,,00008.75,00000000,092.9567,00461,490.8,508.93,
04/03/2019,22:34:55,224731,4355.1832S,17913.1021E,1.8,199.5,224732,4355.1870S,17913.0884E,1.6,203.1, 15.5927, 34.4742,238.626,298,006,4.56,166.8,3.47,-0.04,, 15.266 ,15.31,15.76,,,,00008.75,00000000,0103.287,00459,488.77,508.58,
04/03/2019,22:35:55,224831,4355.2039S,17913.0739E,1.8,198.3,224832,4355.2080S,17913.0605E,1.6,200.6, 15.5916, 34.4756,236.493,271,006,5.2,133.25,2.16,2.07,, 15.332 ,15.21,15.75,,,,00008.75,00000000,00105.86,00510,484.02,508.18,
04/03/2019,22:36:55,224931,4355.2224S,17913.0491E,1.7,195.2,224932,4355.2264S,17913.0368E,1.5,202.5, 15.5903, 34.4752,233.380,289,005,3.96,149.04,2.30,2.62,, 14.929 ,15.32,15.74,,,,00008.75,00000000,0106.055,00682,508.45,508.52,
04/03/2019,22:37:55,225031,4355.2440S,17913.0249E,1.7,196.9,225032,4355.2495S,17913.0096E,1.6,199.9, 15.5900, 34.4754,237.591,250,008,7.65,115.42,0.67,2.76,, 14.778 ,14.89,15.72,,,,00008.75,00000000,0105.389,00443,500.83,508.35,
04/03/2019,22:38:55,225131,4355.2626S,17912.9971E,1.7,201.8,225132,4355.2698S,17912.9818E,1.8,206.9, 15.5913, 34.4761,244.461,307,005,3.4,183.49,2.50,-0.31,, 14.554 ,14.83,15.7,,,,00008.75,00000000,0095.254,00445,492.7,508.02,
04/03/2019,22:39:55,225231,4355.2778S,17912.9626E,1.8,206.1,225232,4355.2888S,17912.9527E,1.6,202.3, 15.6006, 34.4774,234.279,218,006,4.04,134.21,-1.23,4.15,, 15.112 ,14.87,15.69,,,,00008.75,00000000,093.1863,00498,460.8,507.47,
04/03/2019,22:40:55,225331,4355.3015S,17912.9379E,1.8,191.0,225332,4355.3148S,17912.9276E,2.1,183.8, 15.6125, 34.4787,221.844,282,003,1.04,202.66,3.59,1.59,, 14.710 ,14.9,15.67,,,,00008.75,00000000,0106.079,00338,493.08,506.9,
04/03/2019,22:41:55,225431,4355.3277S,17912.9162E,1.9,188.8,225432,4355.3344S,17912.9016E,1.8,211.4, 15.6067, 34.4796,257.259,268,003,2.18,128.74,6.89,-3.49,, 14.702 ,14.9,15.65,,,,00008.75,00000000,0108.261,00540,463.53,506.66,
04/03/2019,22:42:55,225531,4355.3376S,17912.8822E,1.7,214.1,225532,4355.3480S,17912.8721E,1.7,199.3, 15.6093, 34.4802,228.555,276,003,2.46,109.7,2.70,0.95,, 15.195 ,14.79,15.63,,,,00008.75,00000000,0113.402,00498,444.15,506.01,
04/03/2019,22:43:55,225631,4355.3617S,17912.8583E,1.8,191.7,225632,4355.3728S,17912.8505E,2.0,183.8, 15.6038, 34.4808,218.508,283,003,3.28,99.71,2.32,1.89,, 15.217 ,15.14,15.61,,,,00008.75,00000000,0104.953,00429,452.87,504.94,
04/03/2019,22:44:55,225731,4355.3910S,17912.8399E,1.9,183.0,225732,4355.4006S,17912.8282E,1.9,185.8, 15.6066, 34.4807,222.412,318,003,1.27,224.43,4.26,-0.74,, 14.904 ,15.12,15.59,,,,00008.75,00000000,099.1593,00238,466.73,503.87,
04/03/2019,22:45:55,225831,4355.4179S,17912.8156E,2.0,186.0,225832,4355.4283S,17912.8055E,2.0,189.2, 15.6079, 34.4808,222.758,253,006,4.29,158.89,3.14,4.57,, 14.388 ,14.63,15.57,,,,00008.75,00000000,0111.565,00405,423.47,502.76,
04/03/2019,22:46:55,225931,4355.4441S,17912.7931E,1.9,186.2,225932,4355.4548S,17912.7825E,1.9,191.5, 15.6111, 34.4814,230.285,279,004,2.89,123.07,2.88,0.08,, 14.782 ,14.8,15.55,,,,00008.75,00000000,096.6322,00424,488.08,502.19,
04/03/2019,22:47:55,230031,4355.4658S,17912.7701E,1.8,195.7,230032,4355.4751S,17912.7579E,1.9,197.3, 15.6088, 34.4811,229.307,258,006,4.76,139.82,1.20,2.02,, 14.933 ,14.7,15.53,,,,00008.75,00000000,0105.091,00421,457.05,501.68,
04/03/2019,22:48:55,230131,4355.4888S,17912.7451E,1.8,193.6,230132,4355.4987S,17912.7321E,1.6,196.2, 15.6128, 34.4814,232.205,269,003,2.45,109.25,3.32,2.05,, 15.154 ,15,15.51,,,,00008.75,00000000,093.4161,00249,457.17,500.8,
04/03/2019,22:49:55,230231,4355.5095S,17912.7177E,1.7,195.8,230232,4355.5184S,17912.7048E,1.5,201.4, 15.6067, 34.4819,237.244,311,006,4.46,182.62,1.13,1.54,, 14.876 ,15.34,15.5,,,,00008.75,00000000,0107.262,00432,441.68,499.51,
04/03/2019,22:50:55,230331,4355.5310S,17912.6876E,1.9,198.3,230332,4355.5405S,17912.6750E,1.9,200.8, 15.6158, 34.4817,235.151,266,010,9.19,130.48,2.11,0.41,, 15.127 ,15.03,15.48,,,,00008.75,00000000,0105.367,00513,466.37,498.88,
04/03/2019,22:51:55,230431,4355.5497S,17912.6580E,1.8,204.7,230432,4355.5594S,17912.6458E,1.8,202.4, 15.6067, 34.4821,230.944,234,007,6.32,126.66,1.08,-0.98,, 15.215 ,15.03,15.46,,,,00008.75,00000000,0105.126,00399,488.42,498.79,
04/03/2019,22:52:55,230531,4355.5728S,17912.6308E,1.9,197.8,230532,4355.5825S,17912.6185E,1.8,199.4, 15.5936, 34.4814,233.083,290,006,4.67,149.9,1.55,0.96,, 14.271 ,14.93,15.44,,,,00008.75,00000000,0108.135,00365,446.22,496.91,
04/03/2019,22:53:55,230631,4355.5957S,17912.6010E,1.9,197.6,230632,4355.6033S,17912.5867E,1.6,205.9, 15.5988, 34.4795,243.418,225,004,4.5,87.76,1.74,1.31,, 14.249 ,14.67,15.41,,,,00008.75,00000000,00106.55,00379,496.77,496.13,
04/03/2019,22:54:55,230731,4355.6117S,17912.5657E,1.9,211.9,230732,4355.6167S,17912.5517E,1.8,215.8, 15.6004, 34.4783,244.149,262,005,4.58,123.49,-0.79,-2.17,, 14.291 ,14.19,15.38,,,,00008.75,00000000,093.8755,00338,463.17,494.75,
04/03/2019,22:55:55,230831,4355.6324S,17912.5285E,2.1,208.4,230832,4355.6398S,17912.5154E,2.3,201.8, 15.5963, 34.4770,229.270,244,007,4.56,83.36,3.23,-0.72,, 13.701 ,13.92,15.34,,,,00008.75,00000000,093.4161,00374,462.86,493.33,
04/03/2019,22:56:55,230931,4355.6591S,17912.5002E,2.1,191.9,230932,4355.6692S,17912.4906E,2.1,188.0, 15.5985, 34.4765,222.809,254,005,3.75,88.74,0.08,1.59,, 14.062 ,13.93,15.31,,,,00008.75,00000000,0107.102,00414,480.1,492.78,
04/03/2019,22:57:55,231031,4355.6877S,17912.4759E,2.1,189.0,231032,4355.6969S,17912.4641E,2.0,195.1, 15.6015, 34.4748,228.229,254,008,7.65,107.77,-3.47,0.33,, 13.260 ,13.62,15.27,,,,00008.75,00000000,0106.975,00788,466.93,491.98,
04/03/2019,22:58:55,231131,4355.7131S,17912.4504E,1.9,189.5,231132,4355.7225S,17912.4396E,1.7,187.7, 15.6041, 34.4734,223.365,244,004,4.08,83.08,3.09,1.36,, 13.474 ,13.47,15.23,,,,00008.75,00000000,0106.838,00376,471.1,491.21,
04/03/2019,22:59:55,231231,4355.7368S,17912.4260E,1.9,192.5,231232,4355.7464S,17912.4121E,1.7,202.1, 15.5954, 34.4723,235.366,236,006,6.31,93.76,-1.19,2.25,, 13.124 ,13.22,15.18,,,,00008.75,00000000,0104.724,00424,517.7,491,
04/03/2019,23:00:55,231331,4355.7554S,17912.3974E,1.8,203.1,231332,4355.7633S,17912.3835E,1.6,208.1, 15.5920, 34.4713,235.801,246,004,3.81,112.87,-0.73,0.54,, 13.201 ,13.06,15.14,,,,00008.75,00000000,095.7134,00380,478.47,490.46,
04/03/2019,23:01:55,231431,4355.7739S,17912.3682E,1.8,203.5,231432,4355.7832S,17912.3531E,1.7,203.3, 15.5885, 34.4692,230.189,220,003,2.22,125.34,1.15,2.94,, 12.991 ,13.03,15.09,,,,00008.75,00000000,00107.32,00278,498.85,490.28,
04/03/2019,23:02:55,231531,4355.7931S,17912.3393E,1.7,202.7,231532,4355.8017S,17912.3246E,1.5,205.7, 15.5896, 34.4678,236.351,211,001,1.2,121.19,3.93,4.08,, 12.729 ,12.91,15.04,,,,00008.75,00000000,0104.977,00491,470.8,490.53,
04/03/2019,23:03:55,231631,4355.8095S,17912.3098E,1.7,207.7,231632,4355.8161S,17912.2959E,1.6,213.7, 15.5965, 34.4668,243.883,245,004,4.17,106.43,-0.44,-1.46,, 12.751 ,12.78,14.99,,,,00008.75,00000000,0109.273,00762,510.1,491,
04/03/2019,23:04:55,231731,4355.8226S,17912.2831E,1.7,207.6,231733,4355.8284S,17912.2690E,1.7,220.7, 15.5873, 34.4663,245.470,250,006,6.1,119.34,-2.62,3.15,, 12.881 ,12.82,14.94,,,,00008.75,00000000,0122.362,00798,494.64,491.06,
04/03/2019,23:05:55,231831,4355.8295S,17912.2135E,3.1,244.7,231832,4355.8235S,17912.1982E,3.9,279.6, 15.5855, 34.4662,309.198,209,001,4.5,110.53,0.89,1.75,, 13.590 ,13.02,14.89,,,,00008.75,00000000,099.3889,00260,479.03,490.12,
04/03/2019,23:06:55,231931,4355.7643S,17912.1737E,4.1,316.9,231933,4355.7480S,17912.1774E,5.0,349.6, 15.5932, 34.4668,022.004,034,008,7.46,92.54,-1.85,3.98,, 14.412 ,13.66,14.86,,,,00008.75,00000000,0109.365,00444,520.13,490.61,
04/03/2019,23:07:55,232031,4355.7036S,17912.2545E,4.5,22.2,232032,4355.6979S,17912.2709E,5.0,52.8, 15.5895, 34.4677,086.532,009,011,7.9,115.51,2.10,1.95,, 13.296 ,13.49,14.82,,,,00008.75,00000000,0100.078,00639,531.68,490.89,
04/03/2019,23:08:55,232131,4355.7100S,17912.3669E,4.7,67.9,232133,4355.7140S,17912.3887E,5.0,80.2, 15.6000, 34.4684,105.894,000,010,5.91,127.43,3.42,0.84,, 13.801 ,13.55,14.78,,,,00008.75,00000000,091.8081,00267,543.53,491.48,
