Date,Time,GPS-nav-time,GPS-nav-Lat,GPS-nav-Lon,GPS-nav-SOG,GPS-nav-COG,GPS-lab-time,GPS-lab-Lat,GPS-lab-Lon,GPS-lab-SOG,GPS-lab-COG,Tsal-temp,Tsal-sal,ADU5-Heading,Wind-Dir,WIND-Spd,TRUE-WIND-Speed,TRUE-WIND-Direction,Seatex-MRU-Roll,Seatex-MRU-Pitch,Chirp-DBT-meters,FluorT-Chl-Invivo,Fluor-Chl-avg-1-min-Value,Fluor-Chl-avg-60-min-Value,Fluor-CDOM-Raw,Fluor-CDOM-avg-1-mins-Value,Fluor-CDOM-avg-60-mins-Value,LCI90-payout,LCI90-Spd,LCI90-tension,Xmiss-NewDigital-RAW,Xmiss-NewDigital-1-min-Value,Xmiss-NewDigital-avg-60-min-Value,
04/01/2019,00:20:32,003236,4336.3695S,17243.3837E,0.1,297.1,003237,4336.3788S,17243.3913E,0.1,185.9, 23.1385,  0.1076,,181,017,,,1.18,1.40,, 3.239  ,3.26,3.01,,,,00000003,00000000,0119.087,00042,44.38,44.59,
04/01/2019,00:21:32,003336,4336.3685S,17243.3835E,0.0,281.9,003337,4336.3793S,17243.3920E,0.0,185.9, 23.1651,  0.1076,,193,022,,,1.17,1.40,, 3.287  ,3.28,3.06,,,,00000003,00000000,0118.616,00042,45.72,44.76,
04/01/2019,00:22:32,003436,4336.3683S,17243.3832E,0.0,270.8,003437,4336.3785S,17243.3907E,0.0,185.9, 23.1914,  0.1077,,188,017,,,0.85,1.35,, 3.290  ,3.3,3.1,,,,00000003,00000000,0119.742,00044,44.3,44.7,
04/01/2019,00:23:32,003536,4336.3662S,17243.3828E,0.0,268.4,003537,4336.3797S,17243.3906E,0.0,185.9, 23.2176,  0.1077,,190,014,,,1.07,1.45,, 3.345  ,3.3,3.13,,,,00000003,00000000,0120.868,00045,44.42,44.67,
04/01/2019,00:24:32,003636,4336.3661S,17243.3830E,0.0,278.0,003637,4336.3789S,17243.3909E,0.0,185.9, 23.2438,  0.1077,,170,008,,,0.52,1.41,, 3.281  ,3.3,3.15,,,,00000003,00000000,0120.604,00045,44.57,44.66,
04/01/2019,00:25:32,003736,4336.3673S,17243.3831E,0.0,279.1,003737,4336.3808S,17243.3904E,0.0,185.9, 23.2698,  0.1078,,168,017,,,0.11,1.36,, 3.294  ,3.3,3.17,,,,00000003,00000000,000119.1,00044,44.68,44.66,
04/01/2019,00:26:32,003836,4336.3675S,17243.3841E,0.0,274.0,003837,4336.3806S,17243.3906E,0.0,185.9, 23.2952,  0.1077,,187,016,,,0.62,1.35,, 3.261  ,3.3,3.18,,,,00000003,00000000,0119.433,00045,44.75,44.67,
04/01/2019,00:27:32,003936,4336.3688S,17243.3817E,0.0,265.3,003937,4336.3794S,17243.3924E,0.0,185.9, 23.3211,  0.1078,,163,013,,,1.04,1.37,, 3.310  ,3.29,3.19,,,,00000003,00000000,0119.939,00045,44.58,44.66,
04/01/2019,00:28:32,004036,4336.3678S,17243.3793E,0.0,268.4,004037,4336.3788S,17243.3929E,0.0,185.9, 23.3472,  0.1078,,174,015,,,0.68,1.33,, 3.300  ,3.28,3.2,,,,00000003,00000000,0119.848,00044,44.57,44.65,
04/01/2019,00:29:32,004136,4336.3684S,17243.3834E,0.0,271.6,004137,4336.3787S,17243.3922E,0.0,185.9, 23.3726,  0.1078,,186,015,,,0.32,1.40,, 3.232  ,3.29,3.2,,,,00000003,00000000,0119.917,00045,44.65,44.65,
04/01/2019,00:30:32,004236,4336.3684S,17243.3821E,0.0,262.5,004237,4336.3744S,17243.3919E,0.0,185.9, 23.3983,  0.1078,,170,012,,,0.31,1.43,, 3.285  ,3.28,3.21,,,,00000003,00000000,0120.469,00045,44.51,44.65,
04/01/2019,00:31:32,004336,4336.3677S,17243.3834E,0.0,279.4,004337,4336.3738S,17243.3924E,0.0,185.9, 23.4234,  0.1078,,175,007,,,0.18,1.42,, 3.259  ,3.24,3.21,,,,00000003,00000000,0119.872,00045,44.77,44.65,
04/01/2019,00:32:32,004436,4336.3683S,17243.3832E,0.0,280.4,004437,4336.3768S,17243.3929E,0.0,185.9, 23.4486,  0.1078,,183,007,,,0.54,1.39,, 3.190  ,3.23,3.21,,,,00000003,00000000,0120.814,00045,44.72,44.66,
04/01/2019,00:33:32,004536,4336.3682S,17243.3813E,0.0,283.4,004537,4336.3781S,17243.3929E,0.0,185.9, 23.4747,  0.1078,,118,009,,,0.31,1.43,, 3.265  ,3.22,3.21,,,,00000003,00000000,0121.457,00045,44.58,44.65,
04/01/2019,00:34:32,004636,4336.3689S,17243.3833E,0.0,278.6,004637,4336.3813S,17243.3914E,0.0,185.9, 23.4993,  0.1078,,128,010,,,-0.19,1.38,, 3.235  ,3.2,3.21,,,,00000003,00000000,0121.262,00045,44.6,44.65,
04/01/2019,00:35:32,004736,4336.3695S,17243.3835E,0.0,275.8,004737,4336.3791S,17243.3918E,0.0,185.9, 23.5242,  0.1078,,137,006,,,-0.47,1.36,, 3.133  ,3.19,3.21,,,,00000003,00000000,0120.344,00045,44.72,44.65,
04/01/2019,00:36:32,004836,4336.3685S,17243.3832E,0.0,276.0,004837,4336.3807S,17243.3928E,0.1,185.9, 23.5484,  0.1078,,149,005,,,0.17,1.42,, 3.129  ,3.17,3.21,,,,00000003,00000000,0121.251,00045,44.53,44.65,
04/01/2019,00:37:32,004936,4336.3676S,17243.3809E,0.0,273.3,004937,4336.3837S,17243.3914E,0.1,185.9, 23.5738,  0.1078,,173,013,,,-0.15,1.33,, 3.211  ,3.17,3.21,,,,00000003,00000000,0119.299,00045,44.78,44.65,
04/01/2019,00:38:32,005036,4336.3682S,17243.3824E,0.1,279.1,005037,4336.3796S,17243.3929E,0.1,185.9, 23.5990,  0.1078,,162,013,,,0.03,1.40,, 3.139  ,3.15,3.2,,,,00000003,00000000,0120.551,00045,44.41,44.64,
04/01/2019,00:39:32,005136,4336.3686S,17243.3829E,0.1,273.8,005137,4336.3802S,17243.3905E,0.1,185.9, 23.6223,  0.1078,,186,016,,,0.60,1.37,, 3.106  ,3.15,3.2,,,,00000003,00000000,0119.702,00044,44.65,44.64,
04/01/2019,00:40:32,005236,4336.3690S,17243.3821E,0.1,261.2,005237,4336.3789S,17243.3894E,0.1,185.9, 23.6471,  0.1078,,187,012,,,0.18,1.38,, 3.120  ,3.13,3.2,,,,00000003,00000000,0120.426,00044,44.63,44.64,
04/01/2019,00:41:32,005336,4336.3685S,17243.3811E,0.1,294.4,005337,4336.3799S,17243.3907E,0.1,185.9, 23.6719,  0.1079,,158,010,,,-0.04,1.39,, 3.122  ,3.13,3.2,,,,00000003,00000000,0121.322,00045,44.6,44.64,
04/01/2019,00:42:32,005436,4336.3682S,17243.3815E,0.0,301.9,005437,4336.3811S,17243.3898E,0.1,185.9, 23.6963,  0.1079,,168,010,,,0.05,1.38,, 3.129  ,3.11,3.19,,,,00000003,00000000,0121.035,00045,44.78,44.65,
04/01/2019,00:43:32,005536,4336.3687S,17243.3827E,0.0,289.9,005537,4336.3813S,17243.3931E,0.1,185.9, 23.7195,  0.1079,,185,013,,,0.38,1.39,, 3.110  ,3.11,3.19,,,,00000003,00000000,0121.082,00045,44.85,44.65,
04/01/2019,00:44:32,005636,4336.3685S,17243.3826E,0.0,282.0,005637,4336.3764S,17243.3925E,0.1,185.9, 23.7440,  0.1079,,146,016,,,0.06,1.36,, 3.076  ,3.11,3.19,,,,00000003,00000000,0119.371,00044,44.78,44.66,
04/01/2019,00:45:32,005736,4336.3685S,17243.3831E,0.0,279.5,005737,4336.3777S,17243.3911E,0.1,185.9, 23.7670,  0.1079,,195,011,,,0.53,1.48,, 3.101  ,3.09,3.18,,,,00000003,00000000,0119.934,00045,44.77,44.66,
04/01/2019,00:46:32,005836,4336.3680S,17243.3832E,0.0,279.9,005837,4336.3777S,17243.3889E,0.1,185.9, 23.7903,  0.1079,,190,017,,,0.58,1.39,, 3.085  ,3.08,3.18,,,,00000003,00000000,0119.153,00045,44.66,44.66,
04/01/2019,00:47:32,005936,4336.3685S,17243.3834E,0.0,270.0,005937,4336.3768S,17243.3896E,0.0,185.9, 23.8138,  0.1079,,190,018,,,1.12,1.52,, 3.114  ,3.07,3.18,,,,00000003,00000000,0120.049,00044,44.65,44.66,
04/01/2019,00:48:32,010036,4336.3678S,17243.3830E,0.1,280.2,010037,4336.3759S,17243.3918E,0.0,185.9, 23.8368,  0.1079,,174,014,,,0.67,1.46,, 3.043  ,3.06,3.17,,,,00000003,00000000,00120.05,00044,44.4,44.65,
04/01/2019,00:49:32,010136,4336.3687S,17243.3840E,0.0,298.4,010137,4336.3756S,17243.3923E,0.0,185.9, 23.8596,  0.1080,,165,006,,,-0.01,1.50,, 3.038  ,3.04,3.17,,,,00000003,00000000,0120.096,00044,44.63,44.65,
04/01/2019,00:50:32,010236,4336.3688S,17243.3834E,0.0,305.2,010237,4336.3768S,17243.3911E,0.1,185.9, 23.8824,  0.1080,,121,010,,,0.13,1.49,, 3.033  ,3.04,3.17,,,,00000003,00000000,0119.821,00044,44.83,44.66,
04/01/2019,00:51:32,010336,4336.3684S,17243.3836E,0.0,302.1,010337,4336.3777S,17243.3904E,0.0,185.9, 23.9044,  0.1080,,126,005,,,0.43,1.52,, 2.974  ,3.02,3.16,,,,00000003,00000000,0119.948,00045,44.78,44.66,
04/01/2019,00:52:32,010436,4336.3684S,17243.3823E,0.1,276.9,010437,4336.3774S,17243.3911E,0.1,185.9, 23.9269,  0.1080,,142,003,,,0.33,1.37,, 3.015  ,3,3.16,,,,00000003,00000000,0118.456,00045,44.83,44.67,
04/01/2019,00:53:32,010536,4336.3685S,17243.3833E,0.1,287.4,010537,4336.3779S,17243.3920E,0.0,185.9, 23.9489,  0.1080,,170,004,,,0.62,1.40,, 3.032  ,3,3.15,,,,00000003,00000000,0120.844,00045,44.77,44.67,
04/01/2019,00:54:32,010636,4336.3694S,17243.3832E,0.0,273.6,010637,4336.3766S,17243.3927E,0.0,185.9, 23.9702,  0.1080,,183,007,,,0.31,1.45,, 2.980  ,2.99,3.15,,,,00000003,00000000,0121.132,00045,44.8,44.67,
04/01/2019,00:55:32,010736,4336.3698S,17243.3838E,0.0,254.2,010737,4336.3761S,17243.3920E,0.0,185.9, 23.9926,  0.1080,,172,010,,,0.47,1.42,, 2.968  ,2.99,3.14,,,,00000003,00000000,0120.741,00045,44.77,44.67,
04/01/2019,00:56:32,010836,4336.3691S,17243.3827E,0.0,243.6,010837,4336.3767S,17243.3912E,0.1,185.9, 24.0139,  0.1081,,169,016,,,-0.48,1.35,, 2.975  ,2.99,3.14,,,,00000003,00000000,0121.327,00045,44.67,44.67,
04/01/2019,00:57:32,010936,4336.3720S,17243.3827E,0.1,260.6,010937,4336.3764S,17243.3904E,0.1,185.9, 24.0352,  0.1081,,186,013,,,0.06,1.42,, 2.981  ,2.97,3.14,,,,00000003,00000000,0120.822,00045,44.76,44.68,
04/01/2019,00:58:32,011036,4336.3685S,17243.3835E,0.1,313.5,011037,4336.3752S,17243.3904E,0.1,185.9, 24.0566,  0.1081,,174,013,,,-0.17,1.32,, 3.001  ,2.97,3.13,,,,00000003,00000000,0121.248,00044,44.42,44.67,
04/01/2019,00:59:32,011136,4336.3711S,17243.3855E,0.1,318.4,011137,4336.3739S,17243.3895E,0.0,185.9, 24.0763,  0.1081,,158,005,,,0.03,1.37,, 3.019  ,2.96,3.13,,,,00000003,00000000,0119.789,00045,44.63,44.67,
04/01/2019,01:00:32,011236,4336.3678S,17243.3868E,0.2,250.7,011237,4336.3760S,17243.3901E,0.3,200.7, 24.0971,  0.1081,,186,015,,,0.09,1.39,, 2.947  ,2.96,3.12,,,,00000003,00000000,0119.227,00045,44.53,44.67,
04/01/2019,01:01:32,011336,4336.3727S,17243.3835E,0.4,191.0,011337,4336.3809S,17243.3882E,0.5,165.7, 24.1186,  0.1082,,169,018,,,0.23,1.36,, 2.962  ,2.95,3.12,,,,00000003,00000000,0119.652,00045,44.42,44.66,
04/01/2019,01:02:32,011436,4336.3962S,17243.3879E,1.8,154.9,011438,4336.3998S,17243.3757E,2.4,196.3, 24.1388,  0.1082,,097,015,,,-1.31,1.61,, 2.895  ,2.95,3.12,,,,00000003,00000000,0123.868,00044,44.1,44.65,
04/01/2019,01:03:32,011536,4336.4139S,17243.3516E,1.7,207.0,011538,4336.4133S,17243.3365E,1.7,220.4, 24.1572,  0.1081,,085,009,,,-0.67,1.30,, 3.012  ,2.97,3.11,,,,00000003,00000000,0122.972,00045,44.35,44.64,
04/01/2019,01:04:32,011636,4336.4248S,17243.3219E,1.4,215.9,011638,4336.4243S,17243.3070E,1.3,218.3, 24.1776,  0.1082,,086,014,,,-1.01,1.33,, 3.013  ,2.96,3.11,,,,00000003,00000000,0123.546,00044,44.23,44.63,
04/01/2019,01:05:32,011736,4336.4370S,17243.2894E,1.7,220.7,011738,4336.4333S,17243.2684E,2.2,224.1, 24.1961,  0.1081,,045,007,,,-0.04,1.60,, 2.977  ,2.96,3.11,,,,00000003,00000000,0122.949,00045,44.58,44.63,
04/01/2019,01:06:33,011836,4336.4555S,17243.2112E,3.5,224.8,011838,4336.4576S,17243.1929E,4.2,223.1, 24.2159,  0.1082,,022,008,,,0.20,1.45,, 2.973  ,2.94,3.1,,,,00000003,00000000,0122.811,00045,44.85,44.64,
04/01/2019,01:07:33,011936,4336.4854S,17243.1184E,4.5,219.8,011938,4336.4922S,17243.1024E,4.7,215.0, 24.2350,  0.1082,,354,007,,,0.50,1.29,, 2.900  ,2.93,3.1,,,,00000003,00000000,0123.133,00045,44.7,44.64,
04/01/2019,01:08:33,012036,4336.5298S,17243.0273E,4.7,212.8,012038,4336.5365S,17243.0127E,4.7,209.1, 24.2545,  0.1080,,027,008,,,0.75,1.36,, 2.917  ,2.95,3.1,,,,00000003,00000000,0122.903,00045,44.77,44.64,
04/01/2019,01:09:33,012136,4336.5987S,17242.9924E,4.3,172.9,012138,4336.6104S,17242.9915E,4.7,160.1, 24.2734,  0.1082,,083,005,,,0.55,1.39,, 2.903  ,2.93,3.09,,,,00000003,00000000,0122.754,00045,52.31,44.78,
04/01/2019,01:10:33,012236,4336.6817S,17242.9941E,4.8,156.0,012238,4336.6943S,17242.9995E,5.0,149.4, 24.2921,  0.1083,,094,007,,,0.33,1.20,, 2.956  ,2.94,3.09,,,,00000003,00000000,0123.328,00045,44.7,44.78,
04/01/2019,01:11:33,012336,4336.7540S,17243.0413E,4.8,129.8,012338,4336.7639S,17243.0560E,5.0,115.1, 24.3101,  0.1083,,115,004,,,0.35,1.36,, 2.921  ,2.91,3.09,,,,00000003,00000000,0122.777,00045,44.9,44.78,
04/01/2019,01:12:33,012436,4336.8063S,17243.1315E,5.0,106.2,012438,4336.8134S,17243.1505E,5.0,94.8, 24.3278,  0.1081,,175,002,,,0.58,1.30,, 2.957  ,2.93,3.09,,,,00000003,00000000,00122.88,00044,44.75,44.78,
04/01/2019,01:13:33,012536,4336.8370S,17243.2436E,5.1,88.6,012538,4336.8414S,17243.2613E,5.1,85.1, 24.3459,  0.1082,,160,001,,,-0.04,1.30,, 2.871  ,2.91,3.08,,,,00000003,00000000,0122.674,00045,44.88,44.78,
04/01/2019,01:14:33,012636,4336.8526S,17243.3591E,5.1,76.3,012638,4336.8543S,17243.3781E,5.1,74.1, 24.3644,  0.1084,,164,003,,,0.27,1.46,, 2.912  ,2.91,3.08,,,,00000003,00000000,0122.467,00045,44.83,44.78,
04/01/2019,01:15:33,012736,4336.8570S,17243.4795E,5.2,68.5,012738,4336.8557S,17243.4977E,5.2,65.8, 24.3826,  0.1081,,169,004,,,0.10,1.21,, 2.872  ,2.9,3.08,,,,00000003,00000000,0123.363,00045,44.82,44.78,
04/01/2019,01:16:33,012836,4336.8506S,17243.6024E,5.2,62.0,012838,4336.8493S,17243.6186E,5.2,60.3, 24.4011,  0.1081,,215,007,,,0.43,1.10,, 2.955  ,2.91,3.08,,,,00000003,00000000,000122.8,00045,44.75,44.78,
04/01/2019,01:17:33,012936,4336.8371S,17243.7211E,5.2,59.5,012938,4336.8371S,17243.7354E,5.1,61.4, 24.4180,  0.1083,,154,000,,,0.04,1.20,, 2.849  ,2.89,3.08,,,,00000003,00000000,0123.271,00045,44.76,44.78,
04/01/2019,01:18:33,013037,4336.8237S,17243.8366E,5.1,57.8,013038,4336.8229S,17243.8517E,5.1,56.7, 24.4367,  0.1081,,199,000,,,0.02,1.35,, 2.876  ,2.89,3.08,,,,00000003,00000000,0122.801,00045,44.82,44.79,
04/01/2019,01:19:33,013137,4336.8087S,17243.9545E,5.1,55.6,013138,4336.8056S,17243.9677E,5.1,59.5, 24.4546,  0.1083,,150,000,,,0.14,1.17,, 2.881  ,2.9,3.07,,,,00000003,00000000,0123.203,00045,44.57,44.79,
04/01/2019,01:20:33,013237,4336.7958S,17244.0738E,5.1,55.0,013238,4336.7915S,17244.0839E,5.1,55.1, 24.4738,  0.1082,,138,000,,,0.40,1.63,, 2.910  ,2.88,3.07,,,,00000003,00000000,0123.042,00045,44.68,44.8,
04/01/2019,01:21:33,013337,4336.7780S,17244.1872E,5.1,54.1,013338,4336.7731S,17244.1989E,5.1,52.3, 24.4921,  0.1082,,175,000,,,0.08,1.49,, 2.868  ,2.88,3.06,,,,00000003,00000000,0122.571,00044,44.73,44.78,
04/01/2019,01:22:33,013437,4336.7549S,17244.3004E,5.1,52.2,013438,4336.7513S,17244.3143E,5.1,54.3, 24.5094,  0.1082,,255,000,,,0.82,1.53,, 2.910  ,2.87,3.05,,,,00000003,00000000,0122.755,00045,44.63,44.78,
04/01/2019,01:23:33,013537,4336.7410S,17244.4157E,5.1,56.2,013538,4336.7374S,17244.4294E,5.1,53.5, 24.5268,  0.1085,,293,000,,,1.33,1.09,, 2.874  ,2.88,3.05,,,,00000003,00000000,0122.388,00344,90.55,45.56,
04/01/2019,01:24:33,013637,4336.7169S,17244.5272E,5.1,49.3,013638,4336.7081S,17244.5410E,5.1,49.7, 24.5466,  0.1083,,244,000,,,0.22,1.72,, 2.874  ,2.88,3.04,,,,00000003,00000000,0122.548,00044,68.63,46.04,
04/01/2019,01:25:33,013737,4336.6940S,17244.6436E,5.2,51.0,013738,4336.6876S,17244.6570E,5.2,53.5, 24.5629,  0.1083,,161,000,,,2.02,1.10,, 2.862  ,2.88,3.03,,,,00000003,00000000,0123.112,00117,113.62,47.13,
04/01/2019,01:26:33,013837,4336.6754S,17244.7617E,5.3,54.2,013838,4336.6702S,17244.7753E,5.3,55.3, 24.5809,  0.1080,,319,000,,,1.04,1.78,, 2.897  ,2.86,3.02,,,,00000003,00000000,0122.951,00044,322,51.76,
04/01/2019,01:27:33,013937,4336.6586S,17244.8809E,5.3,56.3,013938,4336.6566S,17244.8951E,5.3,57.4, 24.5980,  0.1085,,272,002,,,1.65,0.99,, 2.860  ,2.87,3.02,,,,00000003,00000000,0122.756,00354,88.77,52.46,
04/01/2019,01:28:33,014037,4336.6462S,17245.0030E,5.3,57.1,014038,4336.6427S,17245.0156E,5.3,56.6, 24.6144,  0.1082,,259,008,,,-0.09,1.33,, 2.871  ,2.86,3.01,,,,00000003,00000000,0121.837,00032,1272.98,72.86,
04/01/2019,01:29:33,014137,4336.6277S,17245.1220E,5.4,55.4,014138,4336.6252S,17245.1385E,5.3,56.3, 24.6313,  0.1082,,230,005,,,-0.83,1.32,, 2.879  ,2.86,3,,,,00000003,00000000,0122.561,00044,138.47,74.45,
04/01/2019,01:30:33,014237,4336.6110S,17245.2439E,5.3,54.8,014238,4336.6059S,17245.2570E,5.3,56.6, 24.6472,  0.1082,,103,007,,,0.15,1.26,, 2.877  ,2.85,3,,,,00000003,00000000,0123.893,00048,141.9,76.1,
04/01/2019,01:31:33,014337,4336.5935S,17245.3630E,5.3,55.3,014338,4336.5887S,17245.3766E,5.2,55.7, 24.6648,  0.1084,,097,002,,,0.35,1.26,, 2.839  ,2.86,2.99,,,,00000003,00000000,0122.596,00049,101.53,77.05,
04/01/2019,01:32:33,014437,4336.5731S,17245.4813E,5.4,54.4,014438,4336.5693S,17245.4964E,5.4,56.2, 24.6640,  0.1078,,206,016,,,0.82,1.05,, 2.855  ,2.85,2.98,,,,00000003,00000000,0121.424,00050,52.15,77.18,
04/01/2019,01:33:33,014537,4336.5494S,17245.6064E,5.6,51.2,014538,4336.5446S,17245.6194E,5.5,52.2, 24.6686,  0.1071,,193,007,,,1.60,0.68,, 2.847  ,2.85,2.98,,,,00000003,00000000,0114.551,00372,464.05,83.65,
04/01/2019,01:34:33,014637,4336.5295S,17245.7144E,4.7,51.8,014638,4336.5237S,17245.7245E,4.3,54.7, 24.6812,  0.1067,,198,016,,,2.95,1.12,, 2.830  ,2.84,2.97,,,,00000003,00000000,00121.47,04775,541.88,91.72,
04/01/2019,01:35:33,014737,4336.5154S,17245.8004E,4.0,52.0,014738,4336.5094S,17245.8151E,3.9,52.6, 24.6931,  0.1060,,196,021,,,1.15,2.04,, 2.867  ,2.83,2.97,,,,00000003,00000000,0122.068,00010,1083.53,107.58,
04/01/2019,01:36:33,014837,4336.4935S,17245.8873E,4.0,48.7,014838,4336.4882S,17245.9047E,4.0,53.8, 24.7183,  0.1067,,199,011,,,0.69,1.63,, 2.811  ,2.85,2.96,,,,00000003,00000000,0121.195,00042,322.58,112.3,
04/01/2019,01:37:33,014937,4336.4781S,17245.9801E,4.0,52.3,014938,4336.4746S,17245.9928E,3.9,57.0, 24.7334,  0.1068,,194,009,,,0.43,1.04,, 2.829  ,2.83,2.95,,,,00000003,00000000,000121.7,00044,294.81,116.48,
04/01/2019,01:38:33,015037,4336.4701S,17246.0643E,3.8,57.4,015038,4336.4663S,17246.0781E,3.7,56.5, 24.7334,  0.1056,,188,015,,,1.55,2.28,, 2.843  ,2.84,2.95,,,,00000003,00000000,0121.654,00298,776.95,128.83,
04/01/2019,01:39:33,015137,4336.4549S,17246.1457E,3.7,53.2,015138,4336.4529S,17246.1620E,3.7,54.1, 24.7581,  0.1059,,171,010,,,0.19,3.62,, 2.794  ,2.83,2.94,,,,00000003,00000000,0121.586,00045,174.87,129.76,
04/01/2019,01:40:33,015237,4336.4390S,17246.2287E,3.6,51.0,015238,4336.4339S,17246.2414E,3.5,49.1, 24.7707,  0.1062,,207,010,,,0.58,0.98,, 2.795  ,2.83,2.94,,,,00000003,00000000,0122.792,00056,296.25,134.05,
04/01/2019,01:41:33,015337,4336.4217S,17246.3065E,3.5,50.4,015338,4336.4170S,17246.3180E,3.5,54.4, 24.7839,  0.1058,,225,014,,,-0.02,1.51,, 2.806  ,2.83,2.93,,,,00000003,00000000,0121.264,00000,984.03,149.39,
04/01/2019,01:42:33,015437,4336.4076S,17246.3782E,3.3,50.7,015438,4336.4035S,17246.3907E,3.2,53.7, 24.8056,  0.1057,,171,001,,,1.51,2.85,, 2.823  ,2.83,2.93,,,,00000003,00000000,0121.425,00405,983.6,165.27,
04/01/2019,01:43:33,015537,4336.3959S,17246.4489E,3.2,51.8,015538,4336.3892S,17246.4629E,3.2,49.7, 24.8122,  0.1059,,204,015,,,1.56,1.39,, 2.813  ,2.82,2.92,,,,00000003,00000000,0121.471,00534,251.62,168.69,
04/01/2019,01:44:33,015637,4336.3770S,17246.5277E,3.5,49.5,015638,4336.3719S,17246.5403E,3.6,53.2, 24.8177,  0.1064,,171,017,,,-0.35,0.16,, 2.802  ,2.83,2.92,,,,00000003,00000000,00124.01,00049,141.97,170.24,
04/01/2019,01:45:33,015737,4336.3615S,17246.6100E,3.8,52.2,015738,4336.3590S,17246.6252E,3.8,53.0, 24.8334,  0.1055,,181,015,,,-0.25,2.96,, 2.829  ,2.8,2.91,,,,00000003,00000000,0129.713,00048,409.6,176.41,
04/01/2019,01:46:33,015837,4336.3519S,17246.6923E,3.7,58.6,015838,4336.3524S,17246.7065E,3.5,66.0, 24.6439,  0.1008,,187,005,,,1.94,-0.21,, 2.828  ,2.82,2.91,,,,00000003,00000000,0123.677,00263,760.42,188.51,
04/01/2019,01:47:33,015937,4336.3464S,17246.7663E,3.2,58.6,015938,4336.3463S,17246.7794E,3.0,58.2, 24.7421,  0.0998,,161,017,,,-0.34,0.44,, 2.997  ,2.96,2.91,,,,00000003,00000000,0123.574,00045,173.23,190.62,
04/01/2019,01:48:33,020037,4336.3488S,17246.8399E,3.3,71.3,020038,4336.3553S,17246.8541E,3.4,83.5, 24.7396,  0.0991,,121,011,,,1.23,1.95,, 3.000  ,2.98,2.91,,,,00000003,00000000,0124.654,00065,267.08,194.38,
04/01/2019,01:49:33,020137,4336.3655S,17246.9072E,3.2,80.6,020138,4336.3660S,17246.9254E,3.0,69.3, 24.5551,  0.0945,,193,012,,,2.95,-0.13,, 2.961  ,2.97,2.91,,,,00000003,00000000,0123.654,04729,1152.07,212.79,
04/01/2019,01:50:33,020237,4336.3592S,17246.9833E,3.2,63.1,020238,4336.3596S,17246.9982E,3.3,67.3, 24.5582,  0.0931,,187,014,,,-0.06,3.26,, 2.966  ,2.96,2.9,,,,00000003,00000000,0123.298,00054,1233.18,233.36,
04/01/2019,01:51:33,020337,4336.3576S,17247.0614E,3.4,62.9,020338,4336.3544S,17247.0759E,3.6,58.4, 24.6231,  0.0928,,215,019,,,-0.19,1.03,, 2.902  ,2.93,2.9,,,,00000003,00000000,0121.736,00000,1581.43,258.12,
04/01/2019,01:52:33,020437,4336.3435S,17247.1442E,3.6,57.0,020438,4336.3415S,17247.1617E,3.6,60.5, 24.6527,  0.0930,,186,014,,,0.21,0.41,, 2.956  ,2.94,2.9,,,,00000003,00000000,0114.551,00020,518.58,266.09,
04/01/2019,01:53:33,020537,4336.3330S,17247.2216E,3.5,52.5,020538,4336.3275S,17247.2407E,3.3,51.0, 24.6923,  0.0933,,213,014,,,1.98,-0.58,, 2.951  ,2.94,2.9,,,,00000003,00000000,0113.173,00155,467.87,273.33,
04/01/2019,01:54:33,020637,4336.3170S,17247.3019E,3.6,51.7,020638,4336.3131S,17247.3217E,3.6,55.4, 24.7302,  0.0936,,205,012,,,-0.58,2.85,, 2.905  ,2.94,2.9,,,,00000003,00000000,0122.897,00000,881.57,288.75,
04/01/2019,01:55:33,020737,4336.3058S,17247.3802E,3.4,53.1,020738,4336.2984S,17247.3978E,3.4,49.3, 24.7583,  0.0939,,214,014,,,1.71,1.16,, 2.906  ,2.94,2.9,,,,00000003,00000000,0122.885,03594,709.42,300.06,
04/01/2019,01:56:33,020837,4336.2892S,17247.4537E,3.3,49.1,020838,4336.2809S,17247.4705E,3.1,54.0, 24.8195,  0.0881,,172,011,,,-4.63,0.57,, 2.902  ,2.93,2.9,,,,00000003,00000000,0122.345,00012,754.57,312.06,
04/01/2019,01:57:33,020937,4336.2754S,17247.5255E,3.3,52.1,020938,4336.2679S,17247.5424E,3.3,51.4, 24.9025,  0.0947,,156,014,,,-4.47,1.79,, 2.892  ,2.92,2.9,,,,00000003,00000000,0137.294,00107,384.37,318.52,
04/01/2019,01:58:33,021037,4336.2616S,17247.5983E,3.2,49.8,021038,4336.2540S,17247.6131E,3.0,50.9, 24.9713,  0.0951,,173,009,,,-0.32,2.99,, 2.871  ,2.89,2.9,,,,00000003,00000000,00123.69,00066,862.62,331.26,
04/01/2019,01:59:33,021137,4336.2494S,17247.6711E,3.2,49.4,021139,4336.2375S,17247.6848E,3.1,53.2, 24.9939,  0.0950,,171,010,,,2.60,0.90,, 2.875  ,2.88,2.9,,,,00000003,00000000,0123.942,02829,973.07,346.87,
04/01/2019,02:00:33,021237,4336.2315S,17247.7363E,3.1,49.2,021239,4336.2223S,17247.7534E,3.0,45.6, 19.4779, 30.2851,,201,010,,,-0.09,2.39,, 24.321 ,4.14,2.92,,,,00000003,00000000,0122.254,01714,1184.78,365.19,
04/01/2019,02:01:33,021337,4336.2143S,17247.8003E,3.0,47.2,021339,4336.2062S,17247.8181E,3.1,52.4, 17.9901, 32.6497,,181,011,,,3.80,2.03,, 25.184 ,25.72,3.33,,,,00000003,00000000,0125.103,03359,2621,408.65,
04/01/2019,02:02:33,021437,4336.2029S,17247.8732E,3.3,52.1,021439,4336.1925S,17247.8904E,3.3,49.2, 17.8899, 32.6490,,221,016,,,2.64,-0.22,, 25.208 ,25.44,3.7,,,,00000003,00000000,0109.727,03539,3416.72,464.69,
04/01/2019,02:03:33,021537,4336.1817S,17247.9452E,3.4,46.4,021539,4336.1746S,17247.9637E,3.3,54.2, 17.8763, 32.6508,,242,012,,,1.16,3.14,, 26.845 ,26.61,4.1,,,,00000003,00000000,0130.632,03662,3515.93,522.53,
04/01/2019,02:04:33,021637,4336.1764S,17248.0160E,3.1,56.7,021638,4336.1683S,17248.0326E,3.0,55.6, 17.8643, 32.6552,,233,008,,,2.81,-1.49,, 27.472 ,26.8,4.49,,,,00000003,00000000,00115.47,03789,3670.68,582.82,
04/01/2019,02:05:33,021737,4336.1618S,17248.0804E,2.9,49.8,021738,4336.1535S,17248.0969E,2.8,49.3, 17.8743, 32.6618,,219,021,,,1.49,0.99,, 27.394 ,27.87,4.88,,,,00000003,00000000,0124.253,03777,3752.58,644.1,
04/01/2019,02:06:33,021837,4336.1463S,17248.1494E,3.2,51.1,021839,4336.1397S,17248.1686E,3.5,52.9, 17.8908, 32.6651,,224,027,,,2.14,2.49,, 29.282 ,28.62,5.3,,,,00000003,00000000,0108.578,04123,3769.75,705.99,
04/01/2019,02:07:33,021937,4336.1268S,17248.2366E,3.8,49.3,021939,4336.1197S,17248.2544E,3.7,56.1, 17.8884, 32.6731,,238,022,,,3.72,0.88,, 29.824 ,30.4,5.79,,,,00000003,00000000,0134.307,03127,3677.53,767.75,
04/01/2019,02:08:33,022037,4336.1107S,17248.3325E,4.3,52.2,022039,4336.1047S,17248.3510E,4.4,56.3, 17.8878, 32.6873,,228,023,,,2.29,0.91,, 33.134 ,32.06,6.28,,,,00000003,00000000,094.7943,03390,3133.1,818.92,
04/01/2019,02:09:33,022137,4336.0933S,17248.4297E,4.3,49.1,022139,4336.0870S,17248.4482E,4.4,50.8, 17.8737, 32.7021,,181,009,,,4.70,-2.40,, 36.534 ,35.6,6.83,,,,00000003,00000000,00131.78,02636,2859.33,865.5,
04/01/2019,02:10:33,022237,4336.0851S,17248.5151E,3.7,57.1,022239,4336.0783S,17248.5336E,3.4,55.9, 17.8733, 32.7047,,220,011,,,2.08,-1.79,, 29.772 ,32.94,7.33,,,,00000003,00000000,00124.07,02659,2777.8,910.9,
04/01/2019,02:11:33,022337,4336.0645S,17248.5883E,3.5,44.2,022339,4336.0557S,17248.6032E,3.6,41.9, 17.8683, 32.7309,,217,011,,,5.34,-1.52,, 29.182 ,29.15,7.73,,,,00000003,00000000,0123.358,03040,3148.17,962.35,
04/01/2019,02:12:33,022437,4336.0380S,17248.6621E,3.7,42.0,022439,4336.0288S,17248.6785E,3.8,50.1, 17.8387, 32.7571,,216,024,,,0.65,1.80,, 34.756 ,32.18,8.26,,,,00000003,00000000,0122.991,03656,3325.15,1017.68,
04/01/2019,02:13:33,022537,4336.0146S,17248.7569E,4.2,47.5,022539,4336.0075S,17248.7750E,4.3,52.1, 17.8499, 32.7824,,219,024,,,3.05,1.33,, 38.817 ,35,8.79,,,,00000003,00000000,0129.943,02542,3246.15,1070.87,
04/01/2019,02:14:33,022637,4335.9984S,17248.8572E,4.3,53.8,022639,4335.9941S,17248.8763E,4.1,54.7, 17.8571, 32.8063,,202,022,,,0.99,5.56,, 48.630 ,43.42,9.47,,,,00000003,00000000,00121.05,00218,2293.73,1108.11,
04/01/2019,02:15:33,022737,4335.9777S,17248.9477E,4.2,46.3,022739,4335.9678S,17248.9632E,4.1,40.2, 17.8774, 32.8204,,226,022,,,1.38,7.44,, 60.739 ,64.83,10.5,,,,00000003,00000000,0121.279,01537,679.45,1118.74,
04/01/2019,02:16:33,022837,4335.9457S,17249.0290E,4.0,41.6,022839,4335.9402S,17249.0475E,3.9,50.4, 17.8714, 32.8717,,208,013,,,2.58,2.79,, 52.995 ,57.3,11.39,,,,00000003,00000000,00121.36,02751,2012.32,1151.43,
04/01/2019,02:17:33,022937,4335.9285S,17249.1108E,3.8,48.5,022939,4335.9216S,17249.1289E,3.8,51.2, 17.8687, 32.8973,,218,012,,,-0.60,-0.65,, 54.038 ,55.21,12.21,,,,00000003,00000000,0101.686,02903,2292.08,1188.62,
04/01/2019,02:18:33,023037,4335.9110S,17249.1907E,3.6,51.6,023039,4335.9079S,17249.2117E,3.5,58.9, 17.8777, 32.9044,,221,022,,,1.45,6.27,, 42.015 ,47.99,13.01,,,,00000003,00000000,0135.916,03989,3467.85,1246.18,
04/01/2019,02:19:33,023137,4335.8983S,17249.2787E,4.0,51.8,023139,4335.8923S,17249.3006E,4.1,48.2, 17.8876, 32.9302,,223,016,,,3.34,2.20,, 35.141 ,38.29,13.59,,,,00000003,00000000,0110.186,03838,3530.93,1303.86,
04/01/2019,02:20:33,023237,4335.8785S,17249.3675E,4.0,49.7,023239,4335.8741S,17249.3882E,3.8,57.3, 17.8755, 32.9652,,193,016,,,-0.79,2.97,, 32.954 ,33.75,14.11,,,,00000003,00000000,0121.831,04029,3650.8,1363.7,
04/01/2019,02:21:34,023337,4335.8667S,17249.4601E,4.1,57.6,023339,4335.8669S,17249.4814E,4.3,60.2, 17.8663, 32.9779,,210,014,,,10.38,-1.82,, 32.589 ,32.02,14.59,,,,00000003,00000000,0125.082,03720,3918.51,1427.98,
04/01/2019,02:22:34,023437,4335.8619S,17249.5562E,4.2,61.1,023439,4335.8627S,17249.5791E,4.0,61.3, 17.8750, 33.0085,,175,012,,,4.60,2.25,, 34.233 ,33.12,15.07,,,,00000003,00000000,0145.564,02828,3661.22,1488.2,
04/01/2019,02:23:34,023537,4335.8567S,17249.6411E,3.8,59.0,023539,4335.8553S,17249.6654E,3.9,54.0, 17.8804, 33.0276,,211,021,,,3.31,0.74,, 28.269 ,31.33,15.57,,,,00000003,00000000,0100.997,04224,3610.05,1547.65,
04/01/2019,02:24:34,023637,4335.8319S,17249.7229E,3.7,41.8,023638,4335.8267S,17249.7390E,,, 17.8562, 33.0479,,260,016,,,4.32,6.13,, 26.326 ,26.42,15.96,,,,00000003,00000000,0120.476,04072,3899,1611.12,
04/01/2019,02:25:34,023737,4335.8073S,17249.7787E,3.0,37.3,023739,4335.8023S,17249.7970E,3.0,46.0, 17.8156, 33.0265,,217,016,,,6.14,3.84,, 32.440 ,29.13,16.4,,,,00000003,00000000,0121.223,02632,3111.85,1661,
04/01/2019,02:26:34,023837,4335.7836S,17249.8476E,3.4,39.1,023839,4335.7776S,17249.8680E,3.7,41.3, 17.7899, 32.9946,,218,017,,,2.95,3.20,, 34.611 ,32.77,16.9,,,,00000003,00000000,0136.834,03430,3214.12,1709.17,
04/01/2019,02:27:34,023937,4335.7596S,17249.9189E,3.5,41.8,023939,4335.7558S,17249.9383E,3.6,44.0, 17.7797, 32.9726,,227,011,,,2.78,0.12,, 37.697 ,35.91,17.45,,,,00000003,00000000,0102.605,03531,3452.5,1765.09,
04/01/2019,02:28:34,024038,4335.7389S,17249.9890E,3.1,43.3,024039,4335.7353S,17250.0069E,2.9,47.7, 17.7819, 32.9675,,232,020,,,1.97,1.18,, 40.472 ,38.75,18.05,,,,00000003,00000000,0121.649,03371,3435.7,1801.49,
04/01/2019,02:29:34,024138,4335.7235S,17250.0527E,3.0,46.4,024139,4335.7201S,17250.0714E,3.1,52.9, 17.7848, 32.9564,,234,021,,,-4.39,2.43,, 44.063 ,41.75,18.7,,,,00000003,00000000,00140.51,02050,2891.86,1847.75,
04/01/2019,02:30:34,024238,4335.7129S,17250.1235E,3.2,54.4,024239,4335.7130S,17250.1439E,3.3,60.6, 17.7853, 32.9272,,215,014,,,3.15,-2.86,, 42.700 ,45.48,19.41,,,,00000003,00000000,096.1728,02650,1924.53,1877.31,
04/01/2019,02:31:34,024338,4335.7063S,17250.2005E,3.3,57.1,024339,4335.7049S,17250.2235E,3.5,55.3, 17.7971, 32.9104,,231,021,,,2.23,1.38,, 40.697 ,41.26,20.05,,,,00000003,00000000,0121.878,03284,3116.77,1927.49,
04/01/2019,02:32:34,024438,4335.6919S,17250.2801E,3.5,51.4,024439,4335.6881S,17250.2988E,3.3,50.3, 17.8009, 32.9047,,261,021,,,3.28,-1.10,, 42.581 ,42.05,20.7,,,,00000003,00000000,0123.165,03265,3442.7,1983.83,
04/01/2019,02:33:34,024538,4335.6753S,17250.3577E,3.5,51.7,024539,4335.6755S,17250.3792E,3.5,58.0, 17.7915, 32.9131,,224,014,,,-1.59,1.92,, 42.408 ,42.29,21.36,,,,00000003,00000000,0122.143,03405,3385.07,2032.78,
04/01/2019,02:34:34,024638,4335.6690S,17250.4406E,3.7,61.2,024639,4335.6706S,17250.4639E,3.8,62.6, 17.7881, 32.9108,,194,015,,,-1.47,-0.25,, 41.238 ,42.74,22.02,,,,00000003,00000000,0134.997,03655,3460.5,2080.98,
04/01/2019,02:35:34,024738,4335.6653S,17250.5298E,3.8,62.2,024739,4335.6678S,17250.5518E,3.7,65.2, 17.7943, 32.9238,,217,023,,,1.39,0.24,, 45.556 ,42.44,22.68,,,,00000003,00000000,0122.924,03743,3727.83,2128.49,
04/01/2019,02:36:34,024838,4335.6574S,17250.6214E,3.9,58.9,024839,4335.6575S,17250.6467E,3.5,56.3, 17.8038, 32.9527,,237,023,,,0.11,0.82,, 44.553 ,45.32,23.39,,,,00000003,00000000,00115.47,03580,3418.37,2179.12,
04/01/2019,02:37:34,024938,4335.6431S,17250.6988E,3.4,51.5,024939,4335.6404S,17250.7183E,3.2,50.6, 17.8100, 32.9831,,235,019,,,4.14,4.91,, 44.523 ,45.27,24.1,,,,00000003,00000000,0134.078,03304,3207.23,2227.43,
04/01/2019,02:38:34,025038,4335.6255S,17250.7720E,3.4,48.9,025039,4335.6221S,17250.7917E,3.5,51.3, 17.7961, 33.0116,,237,021,,,-0.67,-1.61,, 39.837 ,41.99,24.74,,,,00000003,00000000,0122.373,04051,3846.53,2278.89,
04/01/2019,02:39:34,025138,4335.6150S,17250.8501E,3.5,55.6,025139,4335.6155S,17250.8726E,3.5,64.8, 17.8085, 33.0253,,227,023,,,-0.06,2.97,, 37.372 ,38.74,25.37,,,,00000003,00000000,0120.995,04109,4139.2,2346.59,
04/01/2019,02:40:34,025238,4335.6075S,17250.9342E,3.6,58.0,025239,4335.6080S,17250.9564E,3.7,55.3, 17.7949, 33.0684,,212,017,,,6.50,-0.44,, 34.237 ,36.11,25.89,,,,00000003,00000000,0138.902,03862,3901.95,2406.34,
04/01/2019,02:41:34,025338,4335.6005S,17251.0166E,3.5,59.4,025339,4335.6025S,17251.0402E,3.4,61.8, 17.8080, 33.0803,,216,016,,,7.89,-6.79,, 33.591 ,34.17,26.42,,,,00000003,00000000,075.9567,04146,4176.05,2459.62,
04/01/2019,02:42:34,025438,4335.5938S,17251.0953E,3.6,59.0,025439,4335.5939S,17251.1162E,3.8,55.5, 17.8160, 33.1075,,237,022,,,6.33,0.48,, 35.229 ,34.4,26.94,,,,00000003,00000000,0110.186,03376,3776.14,2506.32,
04/01/2019,02:43:34,025538,4335.5745S,17251.1851E,4.0,49.8,025539,4335.5713S,17251.2029E,4.2,48.0, 17.8194, 33.1284,,234,022,,,2.82,4.71,, 32.630 ,33.66,27.45,,,,00000003,00000000,0127.416,03868,3778.32,2565.02,
04/01/2019,02:44:34,025638,4335.5507S,17251.2749E,4.2,47.3,025639,4335.5479S,17251.2932E,4.5,45.4, 17.8141, 33.1352,,214,028,,,5.08,1.80,, 28.353 ,30.12,27.94,,,,00000003,00000000,00132.47,04572,4372.23,2634.77,
04/01/2019,02:45:34,025738,4335.5339S,17251.3799E,4.9,52.7,025739,4335.5337S,17251.3985E,5.4,55.6, 17.8380, 33.1336,,210,022,,,1.72,1.95,, 31.213 ,29.17,28.38,,,,00000003,00000000,0121.524,02496,3582.33,2689.09,
04/01/2019,02:46:34,025838,4335.5187S,17251.5059E,5.5,57.8,025839,4335.5208S,17251.5295E,5.7,61.4, 17.8411, 33.1485,,219,018,,,3.76,0.08,, 29.802 ,29.1,28.78,,,,00000003,00000000,098.4701,01224,2450.44,2716.33,
04/01/2019,02:47:34,025938,4335.5042S,17251.6351E,5.6,56.0,025939,4335.5028S,17251.6561E,5.6,52.0, 17.8316, 33.1801,,237,017,,,3.75,3.30,, 30.220 ,31.1,29.25,,,,00000003,00000000,0120.881,01552,1096.4,2732.25,
04/01/2019,02:48:34,030038,4335.4694S,17251.7513E,5.5,45.8,030039,4335.4675S,17251.7708E,5.6,48.9, 17.8286, 33.1999,,226,021,,,1.81,6.71,, 28.694 ,29.56,29.7,,,,00000003,00000000,0152.456,01560,1687.37,2755.07,
04/01/2019,02:49:34,030138,4335.4493S,17251.8661E,5.2,52.8,030139,4335.4506S,17251.8909E,4.9,63.1, 17.8157, 33.2218,,199,019,,,-0.24,3.24,, 32.682 ,29.74,30.14,,,,00000003,00000000,0119.216,00299,1261.77,2756.79,
04/01/2019,02:50:34,030238,4335.4473S,17251.9765E,4.8,63.4,030239,4335.4475S,17251.9967E,5.0,58.0, 17.8200, 33.2221,,230,014,,,6.35,0.61,, 33.256 ,34.25,30.7,,,,00000003,00000000,0122.455,01035,579.12,2745.95,
04/01/2019,02:51:34,030338,4335.4145S,17252.0832E,5.3,44.2,030339,4335.4074S,17252.1106E,5.6,40.3, 17.8302, 33.2255,,273,019,,,3.26,5.81,, 28.965 ,30.42,31.16,,,,00000003,00000000,0154.064,02225,1799.77,2749.88,
04/01/2019,02:52:34,030438,4335.3727S,17252.1908E,5.2,36.6,030439,4335.3617S,17252.2121E,5.1,39.0, 17.8148, 33.2915,,225,013,,,2.91,0.62,, 28.262 ,28.61,31.59,,,,00000003,00000000,0105.592,01955,2116.02,2776.36,
04/01/2019,02:53:34,030538,4335.3436S,17252.3035E,5.0,48.7,030539,4335.3376S,17252.3248E,4.8,53.0, 17.6943, 33.4279,,225,012,,,4.49,-1.99,, 28.803 ,28.51,31.97,,,,00000003,00000000,0122.811,01662,1714.47,2796.69,
04/01/2019,02:54:34,030638,4335.3237S,17252.4071E,4.7,51.9,030639,4335.3203S,17252.4272E,4.8,53.3, 17.6750, 33.4468,,218,017,,,-2.24,2.38,, 31.362 ,30.3,32.43,,,,00000003,00000000,0121.961,01625,1494.33,2806.11,
04/01/2019,02:55:34,030738,4335.3017S,17252.5184E,5.1,50.9,030739,4335.2987S,17252.5375E,5.3,50.7, 17.6580, 33.4571,,230,018,,,1.97,2.04,, 30.722 ,31.13,32.9,,,,00000003,00000000,0128.794,02618,2076.68,2827.67,
04/01/2019,02:56:34,030838,4335.2794S,17252.6342E,5.1,52.1,030839,4335.2768S,17252.6539E,4.9,55.4, 17.7163, 33.4435,,235,021,,,1.93,5.18,, 37.214 ,33.98,33.46,,,,00000003,00000000,00132.24,02881,2763.1,2861.65,
04/01/2019,02:57:34,030938,4335.2656S,17252.7350E,4.7,54.8,030939,4335.2623S,17252.7553E,4.8,53.6, 17.7339, 33.4766,,217,020,,,0.09,0.63,, 45.252 ,40.81,34.09,,,,00000003,00000000,0118.527,03385,3085.95,2905.81,
04/01/2019,02:58:34,031038,4335.2426S,17252.8452E,5.0,50.1,031039,4335.2372S,17252.8665E,5.1,49.2, 17.7408, 33.5083,,234,019,,,3.18,0.68,, 53.025 ,48.27,34.8,,,,00000003,00000000,0122.398,04315,4002.82,2959.07,
04/01/2019,02:59:34,031138,4335.2047S,17252.9513E,5.0,38.9,031139,4335.1949S,17252.9682E,5.0,37.1, 17.7478, 33.5607,,252,022,,,3.23,4.95,, 69.575 ,63.32,35.82,,,,00000003,00000000,00132.47,04137,4170.75,3012.09,
04/01/2019,03:00:34,031238,4335.1684S,17253.0480E,4.9,40.8,031239,4335.1615S,17253.0704E,5.0,48.8, 17.7424, 33.6118,,230,022,,,3.08,4.19,, 58.720 ,62.03,36.78,,,,00000003,00000000,0112.713,03715,4014.28,3060.14,
04/01/2019,03:01:34,031338,4335.1738S,17253.1658E,5.0,71.4,031339,4335.1774S,17253.1845E,5.3,88.5, 17.7416, 33.6567,,175,020,,,7.45,1.67,, 52.038 ,54.61,37.28,,,,00000003,00000000,0116.618,05466,4725.22,3095.42,
04/01/2019,03:02:34,031438,4335.2023S,17253.2731E,4.8,78.3,031439,4335.1968S,17253.2934E,4.4,54.6, 17.7020, 33.7230,,226,017,,,8.94,-3.04,, 41.445 ,46.31,37.63,,,,00000003,00000000,0108.348,04516,4960.72,3120.93,
04/01/2019,03:03:34,031538,4335.1785S,17253.3709E,4.6,53.9,031539,4335.1756S,17253.3931E,4.9,54.9, 17.6355, 33.7867,,227,025,,,1.78,3.67,, 40.595 ,41.51,37.88,,,,00000003,00000000,0144.415,04679,3917.53,3127.42,
04/01/2019,03:04:34,031638,4335.1571S,17253.4772E,4.7,48.2,031640,4335.1522S,17253.4997E,4.5,47.5, 17.6096, 33.8318,,229,019,,,2.18,3.44,, 37.258 ,37.99,38.04,,,,00000003,00000000,0122.503,05318,5719.14,3161.29,
04/01/2019,03:05:34,031738,4335.1339S,17253.5861E,5.0,48.7,031739,4335.1285S,17253.6079E,5.1,47.3, 17.5301, 33.8884,,242,023,,,4.49,1.18,, 42.727 ,41.31,38.27,,,,00000003,00000000,0123.008,06024,5213.55,3185.73,
04/01/2019,03:06:34,031838,4335.1132S,17253.6939E,4.8,54.0,031840,4335.1116S,17253.7167E,4.5,62.6, 17.5053, 33.9205,,232,018,,,4.27,-3.66,, 38.765 ,41.38,38.48,,,,00000003,00000000,0126.627,05473,6036.95,3223.45,
04/01/2019,03:07:34,031938,4335.0925S,17253.7954E,4.6,47.4,031939,4335.0871S,17253.8140E,4.7,41.1, 17.4688, 33.9724,,253,018,,,2.89,4.40,, 35.581 ,37.08,38.6,,,,00000003,00000000,0123.353,05836,5406.45,3252.74,
04/01/2019,03:08:34,032038,4335.0682S,17253.8960E,4.7,48.8,032039,4335.0645S,17253.9171E,4.6,54.6, 17.4174, 34.0204,,233,014,,,7.59,-3.69,, 38.167 ,37.67,38.69,,,,00000003,00000000,0109.956,05618,5552.14,3292.8,
04/01/2019,03:09:34,032138,4335.0563S,17254.0128E,5.1,57.4,032139,4335.0525S,17254.0327E,5.1,57.2, 17.3641, 34.0660,,243,020,,,3.78,3.37,, 39.632 ,39.33,38.75,,,,00000003,00000000,0134.767,05879,5768.02,3341.46,
04/01/2019,03:10:34,032238,4335.0490S,17254.1209E,4.9,64.9,032240,4335.0502S,17254.1438E,5.0,75.7, 17.3179, 34.0977,,198,019,,,1.77,1.89,, 34.660 ,39.2,38.84,,,,00000003,00000000,0122.354,05640,5506.45,3386.7,
04/01/2019,03:11:34,032338,4335.0477S,17254.2359E,4.8,62.3,032340,4335.0435S,17254.2551E,4.8,58.9, 17.2940, 34.1114,,223,021,,,2.52,-0.55,, 32.653 ,32.17,38.89,,,,00000003,00000000,00115.01,05192,5896.58,3432.47,
04/01/2019,03:12:34,032438,4335.0435S,17254.3423E,4.8,63.9,032440,4335.0392S,17254.3631E,5.1,64.8, 17.2263, 34.1648,,223,020,,,2.67,1.13,, 34.984 ,34.69,38.95,,,,00000003,00000000,00132.01,05485,5377.25,3467.17,
04/01/2019,03:13:34,032538,4335.0357S,17254.4587E,5.1,61.2,032540,4335.0322S,17254.4793E,5.3,64.0, 17.1785, 34.1984,,229,023,,,2.38,-2.33,, 35.656 ,35.04,38.95,,,,00000003,00000000,0123.124,05482,5595.88,3506.45,
04/01/2019,03:14:34,032638,4335.0403S,17254.5765E,5.2,70.5,032640,4335.0382S,17254.5961E,5.3,71.9, 17.1622, 34.2319,,220,017,,,3.21,2.00,, 36.549 ,35.81,38.81,,,,00000003,00000000,0108.578,05271,5335.03,3557.81,
04/01/2019,03:15:34,032738,4335.0307S,17254.7004E,5.3,59.4,032740,4335.0261S,17254.7207E,5.3,57.8, 17.1624, 34.2652,,223,024,,,3.00,2.20,, 38.167 ,37.44,38.36,,,,00000003,00000000,0119.127,04907,5156.07,3631.14,
04/01/2019,03:16:34,032838,4335.0273S,17254.8218E,5.3,64.9,032840,4335.0261S,17254.8411E,5.2,73.6, 17.1735, 34.2981,,193,024,,,4.84,1.13,, 51.229 ,41.73,38.13,,,,00000003,00000000,0159.578,04031,4835.88,3678,
04/01/2019,03:17:34,032938,4335.0352S,17254.9388E,5.0,68.4,032940,4335.0296S,17254.9566E,5.0,61.3, 17.1898, 34.3121,,239,015,,,5.65,-3.27,, 51.343 ,56.18,38.15,,,,00000003,00000000,099.3889,03655,3546.61,3699.23,
04/01/2019,03:18:34,033038,4335.0267S,17255.0457E,4.8,61.7,033040,4335.0229S,17255.0647E,5.1,65.3, 17.1054, 34.4234,,210,014,,,5.98,-1.75,, 37.026 ,41.44,38.03,,,,00000003,00000000,0122.803,05253,4657.53,3719.52,
04/01/2019,03:19:34,033138,4335.0353S,17255.1589E,5.2,71.9,033140,4335.0325S,17255.1828E,5.3,74.0, 17.1140, 34.4295,,220,015,,,2.59,-1.86,, 30.306 ,33.91,37.96,,,,00000003,00000000,0105.132,05084,5054.93,3744.99,
04/01/2019,03:20:34,033238,4335.0355S,17255.2794E,5.2,65.0,033240,4335.0296S,17255.3037E,5.2,58.4, 17.1537, 34.4210,,236,025,,,5.15,0.75,, 26.259 ,27.43,37.85,,,,00000003,00000000,0131.321,03744,4854.28,3764.94,
04/01/2019,03:21:34,033338,4335.0255S,17255.4048E,5.5,63.0,033340,4335.0233S,17255.4302E,5.7,69.6, 17.1134, 34.4518,,217,017,,,3.72,-0.27,, 24.930 ,25.45,37.74,,,,00000003,00000000,0113.862,04467,4427.47,3773.73,
04/01/2019,03:22:34,033438,4335.0311S,17255.5382E,5.9,68.1,033440,4335.0287S,17255.5647E,6.1,71.8, 17.0164, 34.5208,,196,021,,,4.03,3.33,, 26.758 ,26.08,37.62,,,,00000003,00000000,0137.294,03801,3869.83,3777.31,
04/01/2019,03:23:34,033538,4335.0584S,17255.6656E,5.6,86.5,033540,4335.0661S,17255.6861E,5.6,91.9, 17.0278, 34.5286,,210,018,,,7.17,-2.52,, 30.582 ,27.52,37.56,,,,00000003,00000000,0136.145,01995,3041.32,3767.27,
04/01/2019,03:24:34,033638,4335.0585S,17255.7817E,5.2,59.2,033640,4335.0499S,17255.8064E,5.5,50.3, 17.0557, 34.5335,,232,018,,,2.70,2.19,, 27.871 ,28.51,37.6,,,,00000003,00000000,0111.105,02942,2736.83,3748.36,
04/01/2019,03:25:34,033738,4335.0508S,17255.9068E,5.3,70.2,033740,4335.0553S,17255.9280E,5.5,80.5, 17.0710, 34.5404,,215,020,,,3.00,2.53,, 26.288 ,27.14,37.56,,,,00000003,00000000,0119.185,03495,3558.68,3756.3,
04/01/2019,03:26:34,033838,4335.0494S,17256.0344E,5.5,62.6,033840,4335.0470S,17256.0563E,5.7,56.7, 17.0846, 34.5459,,219,019,,,6.55,0.28,, 28.127 ,26.94,37.46,,,,00000003,00000000,0134.307,02751,3334.24,3757.9,
04/01/2019,03:27:34,033938,4335.0591S,17256.1599E,5.6,74.4,033940,4335.0616S,17256.1814E,5.7,72.6, 17.0960, 34.5522,,197,017,,,5.18,2.16,, 26.620 ,27.96,37.33,,,,00000003,00000000,0145.564,03837,2914.58,3749.04,
04/01/2019,03:28:34,034038,4335.0432S,17256.2879E,5.6,55.6,034040,4335.0431S,17256.3085E,5.6,55.0, 17.1223, 34.5599,,239,018,,,2.78,-1.62,, 25.294 ,25.6,37.11,,,,00000003,00000000,0137.294,04553,4338.78,3764.28,
04/01/2019,03:29:34,034138,4335.0410S,17256.4102E,5.3,69.1,034140,4335.0477S,17256.4309E,5.2,83.5, 17.1808, 34.5670,,201,012,,,0.68,3.63,, 25.908 ,25.51,36.84,,,,00000003,00000000,0104.673,04752,4689.25,3794.69,
04/01/2019,03:30:34,034238,4335.0451S,17256.5170E,4.5,63.9,034240,4335.0416S,17256.5360E,3.8,55.8, 17.2176, 34.5736,,219,012,,,4.00,0.56,, 25.983 ,26.27,36.52,,,,00000003,00000000,087.6729,04793,4514.64,3837.59,
04/01/2019,03:31:35,034338,4335.0413S,17256.6120E,4.3,66.7,034340,4335.0434S,17256.6315E,4.6,75.8, 17.2257, 34.5775,,218,018,,,-1.50,3.24,, 27.441 ,26.79,36.28,,,,00000003,00000000,0136.605,04971,4641.42,3862.64,
04/01/2019,03:32:35,034438,4335.0456S,17256.7264E,4.9,66.6,034440,4335.0451S,17256.7455E,5.0,64.2, 17.2395, 34.5809,,211,014,,,-0.30,-0.02,, 26.857 ,26.78,36.02,,,,00000003,00000000,0123.735,05216,5216.43,3892.22,
04/01/2019,03:33:35,034539,4335.0436S,17256.8456E,5.1,66.3,034540,4335.0455S,17256.8641E,5.2,73.7, 17.2571, 34.5854,,210,010,,,2.51,-0.47,, 26.552 ,26.59,35.76,,,,00000003,00000000,0101.686,05375,5312.25,3924.13,
04/01/2019,03:34:35,034639,4335.0537S,17256.9582E,4.9,71.1,034640,4335.0522S,17256.9761E,4.9,64.4, 17.2654, 34.5876,,208,010,,,6.95,-0.45,, 26.816 ,26.68,35.49,,,,00000003,00000000,088.3622,05056,5232.18,3954.09,
04/01/2019,03:35:35,034739,4335.0409S,17257.0633E,4.6,58.4,034740,4335.0379S,17257.0799E,4.7,54.0, 17.2557, 34.5901,,216,017,,,1.15,6.13,, 26.551 ,26.78,35.23,,,,00000003,00000000,0154.983,05890,5405.59,3981.93,
04/01/2019,03:36:35,034839,4335.0439S,17257.1649E,4.5,69.8,034840,4335.0456S,17257.1824E,4.5,70.3, 17.2758, 34.5894,,199,011,,,5.61,3.68,, 26.919 ,26.71,34.92,,,,00000003,00000000,00124.08,05441,5741.68,4020.67,
04/01/2019,03:37:35,034939,4335.0359S,17257.2691E,4.6,60.4,034940,4335.0354S,17257.2872E,4.6,59.0, 17.2841, 34.5887,,206,010,,,-1.62,0.44,, 26.875 ,26.72,34.61,,,,00000003,00000000,0118.227,06293,5987.75,4067.01,
04/01/2019,03:38:35,035039,4335.0417S,17257.3737E,4.4,70.2,035040,4335.0464S,17257.3882E,4.4,81.7, 17.3034, 34.5879,,188,006,,,7.57,-3.74,, 28.115 ,27.34,34.37,,,,00000003,00000000,0104.673,05375,5896.05,4101.07,
04/01/2019,03:39:35,035139,4335.0591S,17257.4715E,4.6,77.8,035140,4335.0591S,17257.4888E,4.6,67.8, 17.2985, 34.5877,,212,011,,,2.22,5.41,, 27.965 ,28.7,34.2,,,,00000003,00000000,0124.747,05694,4991.32,4115.58,
04/01/2019,03:40:35,035239,4335.0500S,17257.5687E,4.2,59.3,035240,4335.0466S,17257.5860E,4.2,58.5, 17.3115, 34.5883,,181,011,,,2.66,4.27,, 28.136 ,27.6,34.06,,,,00000003,00000000,0156.132,05936,5868.6,4148.48,
04/01/2019,03:41:35,035339,4335.0547S,17257.6687E,4.4,70.8,035340,4335.0570S,17257.6855E,4.8,78.6, 17.3182, 34.5876,,175,007,,,4.75,3.07,, 27.825 ,28.07,33.96,,,,00000003,00000000,0123.116,06011,5572.9,4171.46,
04/01/2019,03:42:35,035439,4335.0505S,17257.7704E,4.4,60.1,035440,4335.0494S,17257.7865E,4.3,57.9, 17.3236, 34.5870,,264,006,,,3.10,-1.45,, 26.870 ,27.25,33.84,,,,00000003,00000000,0104.673,05933,6034.43,4208.97,
04/01/2019,03:43:35,035539,4335.0449S,17257.8737E,4.4,66.8,035540,4335.0504S,17257.8903E,4.5,82.8, 17.3257, 34.5867,,161,007,,,2.80,0.69,, 27.318 ,27.25,33.73,,,,00000003,00000000,0127.963,05536,5990.4,4245.62,
04/01/2019,03:44:35,035639,4335.0566S,17257.9700E,4.2,69.5,035640,4335.0560S,17257.9847E,4.0,61.7, 17.3285, 34.5865,,212,008,,,3.77,-0.19,, 27.486 ,28,33.7,,,,00000003,00000000,0135.226,05531,5119,4258.3,
04/01/2019,03:45:35,035739,4335.0477S,17258.0624E,4.1,61.0,035740,4335.0490S,17258.0775E,4.1,70.4, 17.3323, 34.5862,,218,008,,,-2.72,-0.93,, 27.378 ,27.69,33.67,,,,00000003,00000000,0103.754,05646,5958.27,4298.22,
04/01/2019,03:46:35,035839,4335.0574S,17258.1601E,4.4,74.2,035840,4335.0611S,17258.1792E,4.6,71.9, 17.3329, 34.5860,,206,011,,,0.89,-0.99,, 27.901 ,27.53,33.65,,,,00000003,00000000,0100.767,06043,5882.35,4355.39,
04/01/2019,03:47:35,035939,4335.0609S,17258.2694E,4.6,68.4,035940,4335.0655S,17258.2829E,4.6,72.1, 17.3291, 34.5858,,175,006,,,1.07,-0.28,, 26.905 ,27.2,33.58,,,,00000003,00000000,0127.344,06329,6267.32,4441.4,
04/01/2019,03:48:35,040039,4335.0781S,17258.3803E,5.0,77.0,040040,4335.0831S,17258.3962E,5.1,72.1, 17.3409, 34.5852,,225,005,,,5.57,1.51,, 26.069 ,26.89,33.54,,,,00000003,00000000,0113.173,06577,6436.25,4521.13,
04/01/2019,03:49:35,040139,4335.0697S,17258.4868E,4.6,59.2,040140,4335.0694S,17258.5020E,4.6,53.8, 17.3660, 34.5848,,226,002,,,4.86,-3.29,, 27.052 ,26.27,33.48,,,,00000003,00000000,0110.416,06097,6504.1,4607.61,
04/01/2019,03:50:35,040239,4335.0667S,17258.5909E,4.5,65.4,040240,4335.0723S,17258.6050E,4.7,74.3, 17.3744, 34.5837,,246,002,,,3.89,-2.17,, 27.869 ,27.38,33.36,,,,00000003,00000000,0112.943,05464,5729.82,4694.62,
04/01/2019,03:51:35,040339,4335.0882S,17258.6858E,4.4,77.6,040340,4335.0846S,17258.7023E,4.5,67.2, 17.3810, 34.5831,,001,002,,,-0.54,-1.13,, 26.031 ,26.58,33.3,,,,00000003,00000000,0125.598,06241,6248.12,4768.51,
04/01/2019,03:52:35,040439,4335.0703S,17258.7713E,3.9,54.8,040440,4335.0687S,17258.7889E,3.9,50.4, 17.4003, 34.5828,,320,001,,,-1.00,1.97,, 27.498 ,27.16,33.28,,,,00000003,00000000,0141.889,06242,6327.45,4838.56,
04/01/2019,03:53:35,040539,4335.0622S,17258.8621E,3.9,63.3,040540,4335.0637S,17258.8826E,4.0,72.2, 17.4001, 34.5824,,344,004,,,0.03,3.82,, 26.961 ,27.71,33.26,,,,00000003,00000000,0137.294,06066,6150.97,4912.32,
04/01/2019,03:54:35,040639,4335.0698S,17258.9536E,3.9,68.3,040640,4335.0681S,17258.9683E,3.9,56.1, 17.4072, 34.5816,,319,006,,,0.84,3.20,, 28.213 ,27.7,33.22,,,,00000003,00000000,0125.288,06479,6359.68,4993.18,
04/01/2019,03:55:35,040739,4335.0642S,17259.0436E,3.9,63.3,040740,4335.0627S,17259.0605E,3.9,65.5, 17.4082, 34.5813,,332,007,,,0.25,2.79,, 26.922 ,27.27,33.15,,,,00000003,00000000,0128.218,06634,6619.18,5069.9,
04/01/2019,03:56:35,040839,4335.0644S,17259.1334E,4.0,68.0,040840,4335.0671S,17259.1523E,4.0,73.1, 17.3934, 34.5815,,357,006,,,4.95,-0.27,, 27.474 ,27.56,33.05,,,,00000003,00000000,0119.835,06680,6569.07,5133.03,
04/01/2019,03:57:35,040939,4335.0693S,17259.2254E,4.0,70.1,040940,4335.0688S,17259.2451E,4.2,65.1, 17.3764, 34.5812,,021,010,,,2.24,1.68,, 28.287 ,27.78,32.83,,,,00000003,00000000,0125.771,06723,6277.03,5186.42,
04/01/2019,03:58:35,041039,4335.0735S,17259.3159E,4.0,70.2,041040,4335.0731S,17259.3347E,4.4,55.2, 17.3876, 34.5811,,021,007,,,-0.92,2.07,, 28.677 ,28.6,32.5,,,,00000003,00000000,0127.081,06906,6831,5232.72,
04/01/2019,03:59:35,041139,4335.0700S,17259.4096E,4.1,63.5,041140,4335.0692S,17259.4280E,4.3,59.2, 17.3961, 34.5810,,064,008,,,0.29,-3.98,, 27.853 ,28.25,31.9,,,,00000003,00000000,0125.932,06845,6828.63,5276.91,
04/01/2019,04:00:35,041239,4335.0729S,17259.5093E,4.3,68.5,041240,4335.0742S,17259.5278E,4.5,74.9, 17.3994, 34.5813,,329,009,,,3.85,-4.21,, 27.858 ,27.74,31.33,,,,00000003,00000000,098.4701,06847,6778.57,5322.78,
04/01/2019,04:01:35,041339,4335.0827S,17259.6121E,4.4,73.4,041340,4335.0847S,17259.6303E,4.4,71.5, 17.3918, 34.5803,,351,007,,,7.09,-2.39,, 28.741 ,28.12,30.89,,,,00000003,00000000,00115.24,06703,6651.17,5355.17,
04/01/2019,04:02:35,041439,4335.0831S,17259.7080E,4.2,67.7,041440,4335.0825S,17259.7267E,4.0,68.6, 17.3869, 34.5813,,330,011,,,2.30,-4.18,, 27.571 ,28.06,30.58,,,,00000003,00000000,0108.348,06925,6812.88,5386.12,
04/01/2019,04:03:35,041539,4335.0885S,17259.7964E,4.0,71.2,041540,4335.0920S,17259.8172E,4.0,70.8, 17.3979, 34.5808,,348,011,,,3.70,-1.54,, 28.698 ,28.01,30.36,,,,00000003,00000000,0120.524,06813,6917.61,5436.12,
04/01/2019,04:04:35,041639,4335.0960S,17259.8901E,4.0,74.3,041640,4335.0977S,17259.9074E,3.7,74.7, 17.3855, 34.5811,,325,010,,,-1.79,-0.07,, 28.327 ,28.13,30.2,,,,00000003,00000000,000107.2,07031,6933.98,5456.31,
04/01/2019,04:05:35,041739,4335.0962S,17259.9830E,4.1,67.1,041740,4335.0979S,17300.0018E,4.2,64.4, 17.3834, 34.5810,,348,008,,,3.29,-0.31,, 28.788 ,28.64,29.99,,,,00000003,00000000,0109.956,06872,6809.87,5482.83,
04/01/2019,04:06:35,041839,4335.0945S,17300.0840E,4.3,67.8,041840,4335.0988S,17300.1015E,4.4,73.4, 17.3707, 34.5808,,336,008,,,4.44,0.50,, 27.431 ,28.09,29.77,,,,00000003,00000000,00106.97,07066,6947.4,5498.24,
04/01/2019,04:07:35,041939,4335.1073S,17300.1851E,4.4,75.7,041940,4335.1136S,17300.2026E,4.3,80.1, 17.3727, 34.5808,,336,008,,,2.70,5.51,, 28.405 ,27.79,29.61,,,,00000003,00000000,0144.875,06991,7105.41,5526.47,
04/01/2019,04:08:35,042039,4335.1193S,17300.2738E,4.1,71.9,042040,4335.1183S,17300.2981E,3.8,63.0, 17.3654, 34.5811,,046,008,,,2.29,2.40,, 29.547 ,29.35,29.47,,,,00000003,00000000,0152.456,06909,6757.82,5546.46,
04/01/2019,04:09:35,042139,4335.1210S,17300.3606E,3.9,67.6,042141,4335.1187S,17300.3846E,3.9,67.6, 17.3604, 34.5807,,311,010,,,-1.27,-2.21,, 30.295 ,30.01,29.32,,,,00000003,00000000,0109.727,06761,6743.63,5562.63,
04/01/2019,04:10:35,042239,4335.1278S,17300.4558E,4.1,70.4,042240,4335.1263S,17300.4772E,4.2,74.5, 17.3612, 34.5810,,336,005,,,2.86,3.18,, 29.568 ,29.78,29.16,,,,00000003,00000000,0142.118,06948,6841.52,5584.96,
04/01/2019,04:11:35,042339,4335.1305S,17300.5471E,4.1,73.5,042340,4335.1341S,17300.5676E,4.3,72.1, 17.3502, 34.5811,,290,009,,,-1.62,-0.66,, 30.102 ,29.98,29.12,,,,00000003,00000000,0120.524,07074,6978.7,5602.72,
04/01/2019,04:12:35,042439,4335.1369S,17300.6445E,4.1,69.2,042440,4335.1367S,17300.6629E,3.8,72.8, 17.3432, 34.5813,,274,002,,,2.40,-0.90,, 29.460 ,29.3,29.03,,,,00000003,00000000,0130.367,06659,7045.85,5630.96,
04/01/2019,04:13:35,042539,4335.1369S,17300.7387E,4.1,67.2,042540,4335.1371S,17300.7561E,4.4,67.6, 17.3356, 34.5812,,340,000,,,4.47,4.22,, 29.918 ,30.09,28.95,,,,00000003,00000000,0126.921,06947,6666.03,5648.74,
04/01/2019,04:14:35,042639,4335.1424S,17300.8321E,4.1,69.6,042641,4335.1440S,17300.8512E,3.9,71.1, 17.3378, 34.5808,,250,006,,,1.93,0.49,, 30.582 ,30.08,28.86,,,,00000003,00000000,0111.335,06841,6932.75,5675.3,
04/01/2019,04:15:35,042739,4335.1514S,17300.9327E,4.2,72.0,042741,4335.1495S,17300.9455E,4.0,64.9, 17.3328, 34.5818,,290,008,,,2.51,-1.74,, 30.207 ,30.43,28.74,,,,00000003,00000000,0117.538,06821,6714.12,5701.17,
04/01/2019,04:16:35,042839,4335.1455S,17301.0270E,4.3,65.2,042841,4335.1463S,17301.0458E,4.2,68.8, 17.3185, 34.5825,,297,014,,,-3.36,1.88,, 29.900 ,30.32,28.54,,,,00000003,00000000,0127.037,07062,6758.9,5733.08,
04/01/2019,04:17:35,042939,4335.1511S,17301.1321E,4.6,69.3,042941,4335.1501S,17301.1507E,4.8,72.4, 17.3286, 34.5817,,282,017,,,2.78,0.31,, 30.902 ,30.16,28.11,,,,00000003,00000000,0124.969,06562,6743.68,5787.04,
04/01/2019,04:18:35,043039,4335.1595S,17301.2400E,4.8,74.3,043041,4335.1613S,17301.2605E,4.9,73.0, 17.3030, 34.5820,,274,013,,,4.78,1.05,, 30.218 ,30.09,27.92,,,,00000003,00000000,00124.28,06848,6733.42,5821.21,
04/01/2019,04:19:35,043139,4335.1616S,17301.3486E,4.7,67.3,043141,4335.1616S,17301.3684E,4.6,68.3, 17.2946, 34.5819,,293,014,,,1.43,1.49,, 30.827 ,30.41,27.86,,,,00000003,00000000,0126.658,06977,6857.35,5851.23,
04/01/2019,04:20:35,043239,4335.1693S,17301.4539E,4.6,70.8,043241,4335.1689S,17301.4738E,4.5,70.8, 17.3065, 34.5817,,297,012,,,2.64,5.01,, 30.969 ,30.72,27.92,,,,00000003,00000000,0124.464,06864,6821.72,5883.96,
04/01/2019,04:21:35,043339,4335.1762S,17301.5487E,4.4,74.4,043341,4335.1802S,17301.5725E,4.3,76.8, 17.2958, 34.5824,,219,008,,,3.21,10.41,, 30.804 ,30.85,28.01,,,,00000003,00000000,0155.672,06935,6668.19,5920.94,
04/01/2019,04:22:35,043439,4335.1810S,17301.6534E,4.4,71.4,043441,4335.1848S,17301.6723E,4.6,73.0, 17.2845, 34.5821,,278,011,,,1.75,6.73,, 30.910 ,30.98,28.09,,,,00000003,00000000,0149.929,06938,6934.92,5972.76,
04/01/2019,04:23:35,043539,4335.1848S,17301.7501E,4.3,67.8,043541,4335.1866S,17301.7697E,4.3,67.1, 17.2807, 34.5827,,287,010,,,5.13,1.64,, 31.189 ,31.02,28.15,,,,00000003,00000000,0116.159,06973,6955.52,6038.11,
04/01/2019,04:24:35,043639,4335.1931S,17301.8479E,4.3,73.0,043641,4335.1953S,17301.8678E,4.4,74.8, 17.2695, 34.5828,,255,011,,,0.48,6.37,, 31.302 ,31.27,28.2,,,,00000003,00000000,0142.807,06737,6908.5,6107.19,
04/01/2019,04:25:35,043739,4335.1987S,17301.9444E,4.3,70.4,043741,4335.2010S,17301.9643E,4.4,70.1, 17.2458, 34.5832,,290,009,,,4.78,-2.05,, 30.673 ,31.04,28.26,,,,00000003,00000000,0124.442,06971,6924.37,6162.96,
04/01/2019,04:26:35,043839,4335.2047S,17302.0474E,4.4,71.2,043841,4335.2058S,17302.0665E,4.2,69.9, 17.2347, 34.5833,,268,011,,,5.58,-2.79,, 30.607 ,31.19,28.33,,,,00000003,00000000,0106.051,06934,6868.77,6221.69,
04/01/2019,04:27:35,043939,4335.2083S,17302.1398E,4.2,69.5,043941,4335.2101S,17302.1595E,4.2,71.9, 17.2122, 34.5840,,270,012,,,-0.27,2.46,, 31.697 ,31.62,28.39,,,,00000003,00000000,0127.199,06770,6766.5,6285.6,
04/01/2019,04:28:35,044039,4335.2150S,17302.2480E,4.7,71.7,044041,4335.2169S,17302.2692E,4.9,73.1, 17.2063, 34.5846,,275,010,,,3.18,0.72,, 31.110 ,31.34,28.49,,,,00000003,00000000,0105.132,06785,6779.58,6326.78,
04/01/2019,04:29:35,044139,4335.2208S,17302.3545E,4.7,72.7,044141,4335.2231S,17302.3750E,4.8,77.1, 17.1841, 34.5851,,262,010,,,2.80,-0.16,, 31.082 ,31.06,28.58,,,,00000003,00000000,0146.713,06571,6711.5,6360.27,
04/01/2019,04:30:35,044239,4335.2221S,17302.4636E,4.7,64.2,044241,4335.2202S,17302.4840E,4.9,61.7, 17.1797, 34.5849,,262,007,,,1.66,2.48,, 30.873 ,30.67,28.65,,,,00000003,00000000,0125.591,06863,6749.73,6397.89,
04/01/2019,04:31:35,044339,4335.2190S,17302.5680E,4.5,64.6,044341,4335.2168S,17302.5873E,4.2,64.6, 17.1775, 34.5852,,280,006,,,3.68,1.30,, 30.616 ,30.59,28.72,,,,00000003,00000000,0128.336,06547,6829.05,6434.21,
04/01/2019,04:32:35,044439,4335.2201S,17302.6721E,4.4,70.9,044441,4335.2249S,17302.6878E,4.3,80.5, 17.1662, 34.5853,,259,005,,,3.90,-0.67,, 30.729 ,30.95,28.79,,,,00000003,00000000,0118.456,06770,6518.87,6455.62,
04/01/2019,04:33:35,044539,4335.2220S,17302.7687E,4.2,66.0,044541,4335.2229S,17302.7836E,4.0,61.9, 17.1666, 34.5854,,307,008,,,2.82,-7.04,, 31.159 ,31.22,28.86,,,,00000003,00000000,0114.551,06675,6652.72,6477.9,
04/01/2019,04:34:35,044639,4335.2270S,17302.8687E,4.6,69.6,044641,4335.2285S,17302.8869E,4.9,76.0, 17.1472, 34.5859,,262,006,,,0.67,-0.60,, 30.667 ,31.17,28.94,,,,00000003,00000000,0109.267,06735,6687.48,6502.13,
04/01/2019,04:35:35,044739,4335.2281S,17302.9846E,4.9,66.8,044741,4335.2298S,17303.0000E,5.0,65.8, 17.1354, 34.5861,,235,003,,,6.84,1.48,, 29.895 ,30.36,29,,,,00000003,00000000,0152.686,06831,6782.32,6525.11,
04/01/2019,04:36:35,044839,4335.2343S,17303.0958E,4.8,69.1,044841,4335.2358S,17303.1120E,4.7,67.1, 17.1263, 34.5867,,269,003,,,3.14,0.19,, 31.037 ,30.04,29.05,,,,00000003,00000000,0107.889,06288,6699.39,6541.18,
