Date,Time,GPS-nav-time,GPS-nav-Lat,GPS-nav-Lon,GPS-nav-SOG,GPS-nav-COG,GPS-lab-time,GPS-lab-Lat,GPS-lab-Lon,GPS-lab-SOG,GPS-lab-COG,Tsal-temp,Tsal-sal,ADU5-Heading,Wind-Dir,WIND-Spd,TRUE-WIND-Speed,TRUE-WIND-Direction,Seatex-MRU-Roll,Seatex-MRU-Pitch,Chirp-DBT-meters,FluorT-Chl-Invivo,Fluor-Chl-avg-1-min-Value,Fluor-Chl-avg-60-min-Value,Fluor-CDOM-Raw,Fluor-CDOM-avg-1-mins-Value,Fluor-CDOM-avg-60-mins-Value,LCI90-payout,LCI90-Spd,LCI90-tension,Xmiss-NewDigital-RAW,Xmiss-NewDigital-1-min-Value,Xmiss-NewDigital-avg-60-min-Value,
04/01/2019,04:47:35,045939,4335.2359S,17304.2439E,4.6,70.1,045940,4335.2310S,17304.2539E,4.3,70.2, 17.0618, 34.5863,092.545,222,005,7.93,284.47,5.52,3.10,, 69.297 ,88.3,49.61,,,,00000003,00000000,0148.091,00076,1641.81,5196.64,
04/01/2019,04:48:35,050039,4335.2398S,17304.3450E,4.5,67.7,050040,4335.2305S,17304.3575E,4.5,68.3, 17.0701, 34.5887,086.838,281,012,10.6,345.3,-2.34,1.58,, 34.734 ,43.59,48.17,,,,00000003,00000000,0139.361,03880,1743.53,4391.6,
04/01/2019,04:49:35,050139,4335.2420S,17304.4530E,4.7,69.5,050140,4335.2372S,17304.4668E,4.8,74.0, 17.0505, 34.5885,093.074,198,006,10.85,279.11,1.64,5.78,, 31.898 ,32.78,45.19,,,,00000003,00000000,0143.956,05142,5278.18,4565.12,
04/01/2019,04:50:35,050239,4335.2401S,17304.5611E,4.7,62.0,050240,4335.2285S,17304.5725E,4.4,54.0, 17.0398, 34.5887,073.684,225,005,4.52,259.22,2.77,0.78,, 31.034 ,31.96,43.04,,,,00000003,00000000,0128.683,06302,5735.77,4753.81,
04/01/2019,04:51:35,050339,4335.2234S,17304.6535E,4.2,49.9,050340,4335.2080S,17304.6641E,4.0,38.6, 17.0486, 34.5888,052.305,287,010,8.67,315.93,2.59,1.38,, 30.971 ,31.03,41.37,,,,00000003,00000000,0144.186,06310,6289.22,4968.55,
04/01/2019,04:52:35,050439,4335.1896S,17304.7406E,4.3,41.1,050440,4335.1776S,17304.7527E,4.4,45.2, 17.0475, 34.5883,067.172,279,007,6.05,307.63,2.19,-3.25,, 31.420 ,31.14,40.11,,,,00000003,00000000,0127.833,06244,6368.57,5137.95,
04/01/2019,04:53:35,050539,4335.1774S,17304.8478E,4.7,58.2,050540,4335.1691S,17304.8629E,4.9,61.8, 17.0378, 34.5886,075.220,315,009,4.43,359.69,1.02,-1.52,, 31.284 ,31.3,39.15,,,,00000003,00000000,0126.983,06293,6163.43,5248.41,
04/01/2019,04:54:35,050639,4335.1630S,17304.9446E,4.4,56.4,050640,4335.1564S,17304.9601E,4.3,64.1, 17.0399, 34.5887,087.027,254,004,5.01,268.92,3.86,3.13,, 31.266 ,31.24,38.37,,,,00000003,00000000,0114.551,05960,6153.35,5336.28,
04/01/2019,04:55:35,050739,4335.1661S,17305.0475E,4.5,68.1,050740,4335.1611S,17305.0620E,4.4,71.5, 17.0269, 34.5891,089.660,197,012,9.38,279.84,5.62,8.29,, 31.289 ,31.58,37.77,,,,00000003,00000000,0149.929,06060,5943.18,5390.08,
04/01/2019,04:56:35,050839,4335.1637S,17305.1434E,4.3,61.4,050840,4335.1556S,17305.1594E,4.4,54.5, 17.0327, 34.5885,072.129,247,014,12.47,321.51,2.36,-1.25,, 32.297 ,31.89,37.28,,,,00000003,00000000,0139.361,05713,5855.93,5428.05,
04/01/2019,04:57:35,050939,4335.1494S,17305.2469E,4.6,57.2,050940,4335.1441S,17305.2632E,4.6,56.8, 17.0294, 34.5887,078.532,275,007,7.77,312.65,3.60,1.20,, 33.008 ,32.53,36.92,,,,00000003,00000000,0126.146,06042,5877.63,5462.44,
04/01/2019,04:58:35,051039,4335.1325S,17305.3502E,4.6,52.7,051040,4335.1269S,17305.3675E,4.5,55.7, 17.0277, 34.5885,078.030,241,008,11.19,311.65,3.46,1.21,, 33.597 ,32.92,36.64,,,,00000003,00000000,0126.329,06023,6084.57,5506.03,
04/01/2019,04:59:35,051139,4335.1250S,17305.4609E,4.9,62.0,051140,4335.1225S,17305.4785E,4.9,67.5, 17.0311, 34.5888,086.696,216,010,9.79,276.56,2.27,6.29,, 32.914 ,33.04,36.4,,,,00000003,00000000,0137.524,06205,6176.92,5550.14,
04/01/2019,05:00:35,051239,4335.1168S,17305.5708E,4.7,58.7,051240,4335.1137S,17305.5880E,4.7,59.0, 17.0435, 34.5887,080.559,230,010,12.2,290.06,2.06,-0.85,, 33.054 ,32.81,36.18,,,,00000003,00000000,0127.168,06245,6291.03,5595.72,
04/01/2019,05:01:35,051339,4335.1144S,17305.6787E,4.7,64.4,051340,4335.1138S,17305.6967E,4.6,70.5, 17.0397, 34.5885,091.716,226,011,12.63,309.06,-0.79,-1.06,, 34.102 ,33.12,36,,,,00000003,00000000,0115.929,05550,6084.63,5624,
04/01/2019,05:02:35,051439,4335.1171S,17305.7928E,5.0,66.9,051440,4335.1160S,17305.8111E,5.1,66.8, 17.0270, 34.5889,090.791,252,009,9.87,311.87,1.70,1.34,, 32.970 ,33.21,35.85,,,,00000003,00000000,0127.835,06017,5796.45,5633.58,
04/01/2019,05:03:35,051539,4335.1159S,17305.9011E,4.7,64.2,051540,4335.1154S,17305.9202E,4.6,63.8, 17.0244, 34.5893,087.363,250,010,10.74,312.07,-0.06,2.43,, 32.930 ,32.72,35.68,,,,00000003,00000000,0121.213,06009,6070.82,5656.28,
04/01/2019,05:04:35,051639,4335.1114S,17306.0171E,5.1,62.9,051640,4335.1132S,17306.0355E,5.2,68.0, 17.0175, 34.5892,094.419,207,008,11.84,281.04,2.30,-1.69,, 31.968 ,32.56,35.53,,,,00000003,00000000,0143.497,06240,6125.75,5679.52,
04/01/2019,05:05:35,051739,4335.1171S,17306.1279E,4.8,68.0,051740,4335.1187S,17306.1454E,4.8,68.9, 17.0266, 34.5884,087.452,225,016,15.98,293.41,2.98,2.22,, 33.166 ,32.5,35.39,,,,00000003,00000000,0117.538,05626,5955.14,5692.46,
04/01/2019,05:06:35,051839,4335.1147S,17306.2379E,4.8,63.2,051840,4335.1115S,17306.2553E,4.6,58.5, 17.0235, 34.5887,076.692,232,012,18.86,312.02,2.39,-2.69,, 32.016 ,32.32,35.25,,,,00000003,00000000,0121.672,06015,5888.65,5701.45,
04/01/2019,05:07:35,051939,4335.1037S,17306.3483E,4.9,59.7,051940,4335.1036S,17306.3678E,5.1,63.0, 17.0256, 34.5887,082.384,233,020,22.09,302.67,2.64,2.70,, 31.830 ,32.04,35.11,,,,00000003,00000000,0150.848,06132,6101.47,5718.9,
04/01/2019,05:08:35,052039,4335.1018S,17306.4648E,5.0,65.7,052040,4335.1009S,17306.4835E,5.0,65.6, 17.0241, 34.5889,079.868,238,021,23.02,305.93,1.40,3.10,, 32.035 ,31.83,34.97,,,,00000003,00000000,0120.064,06134,6129.42,5735.77,
04/01/2019,05:09:35,052139,4335.0896S,17306.5789E,4.9,57.5,052140,4335.0866S,17306.5984E,4.9,54.4, 17.0320, 34.5884,074.364,219,021,19.06,279.77,4.91,1.27,, 32.105 ,32.06,34.86,,,,00000003,00000000,0123.907,06170,6061.62,5748.59,
04/01/2019,05:10:35,052239,4335.0778S,17306.6970E,5.3,60.2,052240,4335.0773S,17306.7161E,5.4,66.5, 17.0234, 34.5886,087.280,222,018,16.13,280,3.86,3.27,, 31.274 ,31.61,34.73,,,,00000003,00000000,0127.215,06229,6282.51,5768.88,
04/01/2019,05:11:35,052339,4335.0843S,17306.8111E,5.0,69.4,052340,4335.0870S,17306.8293E,4.9,74.8, 17.0299, 34.5888,093.739,222,014,17.43,294.17,2.92,1.87,, 32.313 ,31.9,34.63,,,,00000003,00000000,0124.619,05683,6035.82,5778.53,
04/01/2019,05:12:35,052439,4335.0831S,17306.9152E,4.5,62.3,052440,4335.0830S,17306.9346E,4.4,57.2, 17.0343, 34.5893,079.273,239,016,15.19,290.34,3.35,1.32,, 32.893 ,32.02,34.54,,,,00000003,00000000,0130.172,05421,5709.92,5776.12,
04/01/2019,05:13:35,052539,4335.0752S,17307.0177E,4.4,61.4,052540,4335.0749S,17307.0370E,4.3,64.1, 17.0253, 34.5895,082.032,247,011,10.31,304.49,3.27,0.22,, 31.604 ,32.01,34.45,,,,00000003,00000000,0110.646,06009,5835.13,5778.15,
04/01/2019,05:14:35,052639,4335.0708S,17307.1156E,4.3,62.4,052640,4335.0718S,17307.1349E,4.4,64.4, 17.0135, 34.5894,086.954,251,014,13.24,349.5,4.50,-5.18,, 31.302 ,31.5,34.35,,,,00000003,00000000,0119.375,06218,6106.05,5789.01,
04/01/2019,05:15:35,052739,4335.0701S,17307.2173E,4.5,64.8,052741,4335.0682S,17307.2375E,4.5,62.1, 17.0076, 34.5896,078.403,244,014,15.41,305.67,4.62,-2.11,, 31.405 ,31.39,34.26,,,,00000003,00000000,0116.618,06185,6134.08,5800.02,
04/01/2019,05:16:35,052839,4335.0637S,17307.3263E,4.8,63.0,052841,4335.0637S,17307.3474E,4.9,66.1, 17.0010, 34.5903,088.362,240,016,17.41,311.42,3.30,3.52,, 31.207 ,31.05,34.16,,,,00000003,00000000,0137.753,06300,6243.83,5813.78,
04/01/2019,05:17:35,052939,4335.0717S,17307.4365E,4.8,73.0,052941,4335.0772S,17307.4570E,4.8,79.0, 17.0006, 34.5902,101.106,240,012,15.46,334.31,7.53,-0.07,, 31.008 ,30.85,34.06,,,,00000003,00000000,0128.066,06216,6213.37,5825.72,
04/01/2019,05:18:35,053039,4335.0731S,17307.5474E,4.8,63.2,053041,4335.0705S,17307.5669E,4.8,53.9, 16.9964, 34.5907,069.673,270,014,13.51,319.68,4.86,2.56,, 30.934 ,31.12,33.97,,,,00000003,00000000,0137.983,06038,5997.93,5830.82,
04/01/2019,05:19:35,053139,4335.0599S,17307.6502E,4.5,58.3,053141,4335.0590S,17307.6696E,4.4,63.6, 17.0017, 34.5908,084.680,236,014,15.59,304.71,1.78,1.00,, 30.484 ,30.6,33.88,,,,00000003,00000000,0125.275,06105,6113.14,5838.8,
04/01/2019,05:20:35,053239,4335.0556S,17307.7510E,4.5,61.9,053241,4335.0556S,17307.7708E,4.4,62.9, 16.9932, 34.5906,083.050,271,012,11.19,332.54,6.67,-7.57,, 30.517 ,30.7,33.79,,,,00000003,00000000,094.7943,06092,6115.28,5846.41,
04/01/2019,05:21:35,053339,4335.0501S,17307.8506E,4.5,60.0,053341,4335.0475S,17307.8698E,4.6,62.5, 16.9813, 34.5906,083.660,234,014,13.39,330.49,3.03,-5.37,, 30.716 ,30.82,33.71,,,,00000003,00000000,0101.686,05727,5761.38,5843.99,
04/01/2019,05:22:35,053439,4335.0512S,17307.9541E,4.5,67.2,053441,4335.0530S,17307.9747E,4.6,71.8, 16.9943, 34.5909,093.404,252,010,15.06,320.78,4.63,5.17,, 30.061 ,30.39,33.62,,,,00000003,00000000,0152.226,06036,5943.38,5846.66,
04/01/2019,05:23:35,053539,4335.0472S,17308.0623E,4.7,61.5,053541,4335.0456S,17308.0826E,4.6,59.2, 16.9825, 34.5916,077.027,250,017,14.59,325.2,2.94,0.32,, 29.635 ,30.02,33.53,,,,00000003,00000000,00125.39,06276,6143.95,5854.34,
04/01/2019,05:24:35,053639,4335.0367S,17308.1652E,4.5,59.9,053641,4335.0363S,17308.1862E,4.4,65.1, 16.9874, 34.5916,083.740,249,018,18.71,319.15,5.84,7.31,, 29.693 ,29.54,33.43,,,,00000003,00000000,0135.226,06299,6349.75,5866.62,
04/01/2019,05:25:35,053739,4335.0367S,17308.2646E,4.4,64.3,053741,4335.0354S,17308.2856E,4.6,67.4, 16.9861, 34.5913,086.474,250,017,15.31,311.57,3.45,2.91,, 29.600 ,29.83,33.34,,,,00000003,00000000,0111.794,06266,6104.38,5872.28,
04/01/2019,05:26:35,053839,4335.0327S,17308.3784E,4.9,64.0,053841,4335.0319S,17308.4004E,5.1,67.1, 16.9767, 34.5917,089.989,247,014,12.81,339.65,1.88,-2.66,, 28.516 ,29.02,33.24,,,,00000003,00000000,0119.835,06508,6469.35,5886.46,
04/01/2019,05:27:35,053939,4335.0385S,17308.4915E,4.8,70.3,053941,4335.0375S,17308.5125E,4.5,66.2, 16.9711, 34.5923,080.906,253,013,15.71,320.27,3.76,2.57,, 29.168 ,28.94,33.14,,,,00000003,00000000,0127.435,06286,6310.55,5896.14,
04/01/2019,05:28:35,054039,4335.0211S,17308.5924E,4.5,53.6,054041,4335.0176S,17308.6156E,4.5,55.7, 16.9619, 34.5932,079.154,236,013,13.53,307.49,2.84,3.03,, 27.803 ,28.42,33.03,,,,00000003,00000000,0122.232,06590,6389.6,5907.31,
04/01/2019,05:29:35,054139,4335.0113S,17308.6987E,4.6,58.8,054141,4335.0082S,17308.7193E,4.4,60.4, 16.9610, 34.5932,083.033,257,017,16.75,326.07,2.87,1.44,, 27.365 ,27.7,32.92,,,,00000003,00000000,0118.686,06713,6653.98,5924.01,
04/01/2019,05:30:35,054239,4335.0062S,17308.8067E,4.7,62.5,054241,4335.0068S,17308.8279E,4.6,65.7, 16.9518, 34.5941,090.094,235,012,15.46,296.33,5.77,1.75,, 26.904 ,27.13,32.79,,,,00000003,00000000,0143.726,06794,6716.7,5941.1,
04/01/2019,05:31:35,054339,4335.0055S,17308.9134E,4.6,64.2,054341,4335.0042S,17308.9333E,4.6,63.9, 16.9507, 34.5936,084.165,246,016,16.96,314.11,3.46,-0.67,, 25.656 ,26.41,32.66,,,,00000003,00000000,0122.221,06641,6616.8,5955.3,
04/01/2019,05:32:35,054439,4334.9991S,17309.0232E,4.9,61.8,054441,4334.9977S,17309.0443E,4.9,63.5, 16.9547, 34.5890,089.082,252,014,14.28,321.15,3.65,-0.44,, 24.868 ,25.24,32.5,,,,00000003,00000000,0122.132,06557,6621.25,5969.06,
04/01/2019,05:33:35,054539,4335.0036S,17309.1396E,5.0,68.8,054541,4335.0039S,17309.1613E,5.0,65.1, 16.9593, 34.5872,082.902,243,013,14.63,306.17,6.82,0.68,, 24.616 ,24.77,32.34,,,,00000003,00000000,0132.699,06482,6479.68,5979.37,
04/01/2019,05:34:35,054639,4334.9950S,17309.2426E,4.6,62.5,054641,4334.9969S,17309.2642E,4.6,68.7, 16.9834, 34.5851,094.918,230,017,18.64,311.05,6.49,0.80,, 25.019 ,24.91,32.2,,,,00000003,00000000,0142.118,06255,6423.15,5988.32,
04/01/2019,05:35:35,054739,4334.9977S,17309.3529E,4.9,65.3,054741,4334.9978S,17309.3748E,5.0,60.1, 16.9857, 34.5843,081.505,246,016,16.99,310.05,4.72,-6.70,, 24.727 ,24.9,32.05,,,,00000003,00000000,0107.889,06712,6556.5,5999.47,
04/01/2019,05:36:35,054839,4334.9865S,17309.4667E,5.0,59.5,054841,4334.9869S,17309.4896E,5.0,60.3, 16.9984, 34.5832,082.793,240,018,19.24,307.84,3.43,3.36,, 24.758 ,24.67,31.91,,,,00000003,00000000,0126.219,06759,6770.97,6014.21,
04/01/2019,05:37:35,054939,4334.9853S,17309.5732E,4.6,66.1,054941,4334.9875S,17309.5955E,4.4,67.5, 17.0057, 34.5829,084.258,232,017,19.02,303.78,5.84,5.26,, 24.796 ,24.91,31.78,,,,00000003,00000000,0125.748,06856,6861.88,6030.11,
04/01/2019,05:38:35,055039,4334.9829S,17309.6773E,4.5,62.8,055041,4334.9817S,17309.6984E,4.4,61.2, 17.0094, 34.5821,077.516,246,021,23.44,307.25,4.26,3.25,, 25.219 ,25.17,31.66,,,,00000003,00000000,0136.375,06977,6813.27,6044.48,
04/01/2019,05:39:35,055139,4334.9726S,17309.7774E,4.5,58.8,055141,4334.9703S,17309.7993E,4.6,60.4, 17.0110, 34.5813,081.894,247,016,17.66,314.03,2.64,-0.70,, 25.333 ,25.11,31.54,,,,00000003,00000000,0127.127,07038,6971.27,6061.21,
04/01/2019,05:40:35,055239,4334.9647S,17309.8857E,4.7,61.4,055241,4334.9655S,17309.9066E,4.8,66.9, 17.0061, 34.5808,092.596,248,016,16.43,323.31,1.66,0.31,, 25.204 ,25.06,31.42,,,,00000003,00000000,0123.807,07156,7085.48,6079.67,
04/01/2019,05:41:35,055339,4334.9689S,17309.9995E,5.0,66.8,055341,4334.9667S,17310.0211E,5.1,61.1, 17.0019, 34.5801,081.636,254,016,16.42,317.43,4.66,-0.41,, 25.446 ,25.05,31.31,,,,00000003,00000000,0149.469,07156,7198.7,6099.17,
04/01/2019,05:42:35,055439,4334.9606S,17310.1121E,4.9,63.1,055441,4334.9603S,17310.1330E,4.9,67.3, 16.9971, 34.5799,088.981,230,023,22.36,314.5,0.55,5.30,, 25.325 ,25.09,31.21,,,,00000003,00000000,0109.497,07183,7200.25,6118.04,
04/01/2019,05:43:36,055540,4334.9641S,17310.2287E,5.0,68.5,055541,4334.9670S,17310.2484E,4.9,72.8, 16.9944, 34.5795,097.734,231,015,19.53,304.58,7.20,0.74,, 25.261 ,25.19,31.1,,,,00000003,00000000,0133.618,07284,7242.1,6136.96,
04/01/2019,05:44:36,055640,4334.9703S,17310.3402E,4.8,69.8,055641,4334.9721S,17310.3600E,4.6,70.2, 16.9981, 34.5796,089.357,225,019,21.38,317.46,4.01,4.36,, 25.045 ,25.21,31,,,,00000003,00000000,0121.005,07327,7271.15,6153.9,
04/01/2019,05:45:36,055740,4334.9671S,17310.4455E,4.7,63.7,055741,4334.9679S,17310.4651E,4.9,62.3, 16.9971, 34.5795,090.149,240,021,21.74,317.13,4.32,0.65,, 25.476 ,25.49,30.9,,,,00000003,00000000,0150.848,07157,7081.18,6158.14,
04/01/2019,05:46:36,055840,4334.9721S,17310.5584E,4.9,70.1,055841,4334.9756S,17310.5778E,5.1,74.3, 17.0034, 34.5800,094.080,228,014,17.26,297.67,7.69,0.39,, 24.781 ,24.84,30.78,,,,00000003,00000000,0124.313,07512,7439.47,6169.63,
04/01/2019,05:47:36,055940,4334.9726S,17310.6757E,5.1,64.8,055941,4334.9752S,17310.6963E,5.0,64.6, 16.9981, 34.5806,090.067,230,020,21.99,305.51,3.65,2.73,, 24.686 ,24.71,29.72,,,,00000003,00000000,0131.551,07647,7575.57,6268.23,
04/01/2019,05:48:36,060040,4334.9745S,17310.7952E,5.2,67.8,060041,4334.9772S,17310.8154E,5.2,69.4, 17.0087, 34.5805,090.026,235,017,18.88,310.02,6.19,-1.17,, 24.606 ,24.71,29.41,,,,00000003,00000000,0111.794,07569,7412.54,6362.65,
04/01/2019,05:49:36,060140,4334.9765S,17310.9138E,5.1,67.0,060141,4334.9792S,17310.9329E,5.0,70.9, 17.0118, 34.5806,097.158,237,018,19.28,317.76,2.84,0.79,, 24.157 ,24.26,29.27,,,,00000003,00000000,00124.98,07613,7730.87,6402.69,
04/01/2019,05:50:36,060240,4334.9900S,17311.0341E,5.3,74.0,060241,4334.9919S,17311.0544E,5.3,71.5, 17.0153, 34.5807,088.698,242,020,23.23,311.81,4.61,4.28,, 23.851 ,24.26,29.14,,,,00000003,00000000,00122.82,07833,7499.9,6431.46,
04/01/2019,05:51:36,060340,4334.9868S,17311.1479E,4.8,63.3,060341,4334.9864S,17311.1671E,4.5,60.8, 17.0369, 34.5808,082.426,232,022,23.67,303.91,2.05,4.91,, 24.352 ,23.94,29.02,,,,00000003,00000000,0118.766,07745,7883.42,6458.39,
04/01/2019,05:52:36,060440,4334.9908S,17311.2549E,4.7,71.8,060441,4334.9926S,17311.2732E,4.7,78.0, 17.0333, 34.5813,093.986,234,022,23.97,317.98,4.29,1.27,, 23.347 ,23.91,28.9,,,,00000003,00000000,00132.47,08280,8010.69,6485.73,
04/01/2019,05:53:36,060540,4334.9881S,17311.3614E,4.6,61.3,060541,4334.9869S,17311.3817E,4.5,61.2, 17.0390, 34.5806,088.296,236,020,21.15,310.46,3.93,2.32,, 23.744 ,23.59,28.77,,,,00000003,00000000,00122.35,08246,8183.17,6519.28,
04/01/2019,05:54:36,060640,4334.9928S,17311.4690E,4.7,70.1,060641,4334.9909S,17311.4879E,4.6,66.0, 17.0403, 34.5810,077.676,246,022,23.64,310.16,5.17,0.97,, 23.371 ,23.56,28.64,,,,00000003,00000000,0128.794,08473,8190.22,6553.25,
04/01/2019,05:55:36,060740,4334.9875S,17311.5836E,5.0,66.8,060741,4334.9919S,17311.6024E,5.2,82.2, 17.0420, 34.5812,108.524,212,021,24.26,307.91,4.85,-0.41,, 22.988 ,23.27,28.51,,,,00000003,00000000,0123.568,08558,8413.87,6594.12,
04/01/2019,05:56:36,060840,4334.9854S,17311.6878E,4.4,56.1,060841,4334.9818S,17311.7061E,3.9,46.1, 17.0548, 34.5809,067.409,256,019,18.9,311.6,7.18,0.62,, 22.743 ,23.02,28.36,,,,00000003,00000000,0105.132,08589,8457.98,6638.42,
04/01/2019,05:57:36,060940,4334.9833S,17311.7905E,4.4,67.8,060941,4334.9851S,17311.8057E,4.4,82.9, 17.0501, 34.5810,107.502,234,020,21.31,329.82,0.26,-2.51,, 23.268 ,23.28,28.2,,,,00000003,00000000,0109.497,08415,8316.95,6678.74,
04/01/2019,05:58:36,061040,4334.9988S,17311.8929E,4.7,72.4,061041,4334.9985S,17311.9110E,5.0,58.4, 17.0624, 34.5816,073.812,256,021,19.32,317.33,6.16,-1.22,, 23.431 ,23.56,28.05,,,,00000003,00000000,097.5513,07835,7804.77,6707.16,
04/01/2019,05:59:36,061140,4334.9886S,17312.0123E,5.1,62.1,061141,4334.9887S,17312.0294E,5.3,70.3, 17.0473, 34.5816,100.123,228,020,22.98,312.23,5.64,0.48,, 22.810 ,22.89,27.88,,,,00000003,00000000,0124.108,08696,8298.25,6742.28,
04/01/2019,06:00:36,061240,4334.9946S,17312.1272E,4.9,63.8,061241,4334.9913S,17312.1449E,4.9,56.0, 17.0512, 34.5817,077.096,256,018,19.93,320.32,4.51,-0.08,, 22.490 ,22.45,27.71,,,,00000003,00000000,0143.497,08583,8661.35,6781.63,
04/01/2019,06:01:36,061340,4335.0011S,17312.2409E,5.0,73.6,061341,4334.9981S,17312.2560E,5.2,72.7, 17.0429, 34.5825,079.133,240,015,17.73,303.54,6.33,1.07,, 21.908 ,22.17,27.52,,,,00000003,00000000,0119.457,08840,8664.25,6825.71,
04/01/2019,06:02:36,061440,4334.9914S,17312.3512E,4.9,65.0,061441,4334.9935S,17312.3690E,4.8,79.4, 17.0373, 34.5831,103.259,205,017,20.48,298.09,9.57,0.43,, 21.592 ,21.62,27.33,,,,00000003,00000000,0133.388,08951,8927.35,6877.56,
04/01/2019,06:03:36,061540,4334.9998S,17312.4701E,5.2,67.2,061541,4335.0023S,17312.4863E,5.4,68.9, 17.0269, 34.5837,098.661,226,020,21.96,310.87,4.98,-0.82,, 21.249 ,21.88,27.15,,,,00000003,00000000,0137.983,08917,8458.07,6917.09,
04/01/2019,06:04:36,061640,4335.0181S,17312.5846E,5.1,73.2,061641,4335.0156S,17312.6021E,5.0,67.6, 17.0209, 34.5842,086.403,237,026,27.76,312.11,1.30,4.41,, 21.206 ,21.2,26.96,,,,00000003,00000000,0117.963,08767,8965.15,6963.98,
04/01/2019,06:05:36,061740,4335.0332S,17312.7003E,5.0,79.9,061741,4335.0352S,17312.7165E,4.9,78.4, 16.9999, 34.5852,089.077,228,027,29.79,310.31,4.88,4.22,, 21.002 ,21.11,26.77,,,,00000003,00000000,0131.321,08996,8746.58,7010.35,
04/01/2019,06:06:36,061840,4335.0306S,17312.7929E,4.1,62.1,061841,4335.0270S,17312.8102E,3.9,55.4, 17.0044, 34.5862,072.273,251,021,22.77,323.53,8.13,-3.99,, 21.120 ,20.92,26.58,,,,00000003,00000000,0114.092,08944,8936.64,7061.22,
04/01/2019,06:07:36,061940,4335.0269S,17312.8742E,3.6,66.2,061941,4335.0266S,17312.8909E,3.5,74.1, 17.0013, 34.5864,088.024,236,023,24.42,316.29,2.62,2.71,, 21.700 ,21.02,26.4,,,,00000003,00000000,0112.254,08571,8814.5,7107.03,
04/01/2019,06:08:36,062040,4335.0368S,17312.9560E,3.7,75.9,062041,4335.0374S,17312.9723E,3.8,81.9, 17.0025, 34.5866,098.454,218,017,19.45,307.3,7.16,0.81,, 20.613 ,20.94,26.22,,,,00000003,00000000,0121.582,09175,9029.52,7155.37,
04/01/2019,06:09:36,062140,4335.0492S,17313.0471E,4.0,76.6,062141,4335.0502S,17313.0630E,4.0,75.2, 17.0033, 34.5866,091.301,227,022,24.09,309.62,4.59,1.15,, 21.107 ,21,26.03,,,,00000003,00000000,00131.78,08999,8708.22,7198.94,
04/01/2019,06:10:36,062240,4335.0564S,17313.1380E,4.0,72.6,062241,4335.0560S,17313.1543E,3.8,69.6, 17.0009, 34.5875,083.191,231,023,27.87,306.66,6.70,5.35,, 20.851 ,20.77,25.85,,,,00000003,00000000,0131.321,09266,9234.92,7248.07,
04/01/2019,06:11:36,062340,4335.0561S,17313.2249E,3.7,66.3,062341,4335.0556S,17313.2412E,3.5,68.5, 17.0106, 34.5871,084.946,236,021,22.01,317.25,6.67,0.78,, 21.150 ,21.04,25.67,,,,00000003,00000000,0120.997,08961,9202.15,7301.19,
04/01/2019,06:12:36,062440,4335.0617S,17313.3172E,4.1,71.4,062441,4335.0643S,17313.3326E,4.3,79.9, 16.9932, 34.5877,102.869,212,022,24.72,306.68,5.71,4.91,, 21.754 ,21.51,25.49,,,,00000003,00000000,0130.172,09386,9033.28,7357.52,
04/01/2019,06:13:36,062540,4335.0846S,17313.4095E,4.2,83.1,062541,4335.0855S,17313.4253E,4.3,77.7, 17.0036, 34.5873,087.861,260,018,18.49,334.42,6.67,-6.20,, 22.110 ,21.91,25.33,,,,00000003,00000000,0113.632,09254,9189.93,7412.54,
04/01/2019,06:14:36,062640,4335.0836S,17313.4981E,3.8,66.1,062641,4335.0823S,17313.5164E,3.7,61.9, 17.0143, 34.5861,078.562,257,016,18.21,322.85,6.55,-1.13,, 22.844 ,22.36,25.17,,,,00000003,00000000,0122.077,08977,9179.52,7463.55,
04/01/2019,06:15:36,062740,4335.0848S,17313.5860E,3.9,68.7,062741,4335.0880S,17313.6024E,4.1,80.9, 17.0106, 34.5860,102.919,207,015,17,298.84,4.92,1.73,, 22.636 ,22.92,25.03,,,,00000003,00000000,0142.807,09229,9072.77,7512.41,
04/01/2019,06:16:36,062840,4335.1006S,17313.6727E,3.9,75.8,062842,4335.0974S,17313.6917E,3.7,62.9, 17.0179, 34.5857,073.670,259,021,21.51,304.15,5.26,2.95,, 22.991 ,22.95,24.9,,,,00000003,00000000,0122.444,09375,9311.68,7563.72,
04/01/2019,06:17:36,062940,4335.0900S,17313.7538E,3.7,61.9,062941,4335.0917S,17313.7743E,3.8,64.1, 17.0314, 34.5852,086.277,236,021,22.51,306.53,4.13,1.82,, 23.048 ,22.94,24.77,,,,00000003,00000000,0120.894,09445,9456.33,7617.67,
04/01/2019,06:18:36,063040,4335.0979S,17313.8471E,4.0,72.2,063041,4335.0995S,17313.8671E,4.0,77.0, 17.0329, 34.5850,094.092,207,018,21.06,293.5,1.59,0.47,, 23.046 ,23,24.63,,,,00000003,00000000,0119.654,09377,9481.27,7676.13,
04/01/2019,06:19:36,063140,4335.1016S,17313.9475E,4.2,67.5,063142,4335.1024S,17313.9665E,4.3,65.8, 17.0401, 34.5839,084.222,232,020,21.82,305.52,5.06,4.82,, 23.242 ,23.22,24.51,,,,00000003,00000000,00120.63,09522,9414.75,7731,
04/01/2019,06:20:36,063240,4335.0980S,17314.0448E,4.4,62.4,063242,4335.0959S,17314.0673E,4.4,61.1, 17.0421, 34.5834,081.703,236,020,21.45,306.19,2.97,3.68,, 23.258 ,23.22,24.38,,,,00000003,00000000,0129.254,09544,9509.92,7787.89,
04/01/2019,06:21:36,063340,4335.1009S,17314.1463E,4.3,70.7,063342,4335.1040S,17314.1642E,4.2,78.1, 17.0510, 34.5819,100.706,198,014,17.38,290.23,0.23,0.16,, 23.170 ,23.16,24.25,,,,00000003,00000000,00124.49,09455,9545.4,7850.96,
04/01/2019,06:22:36,063440,4335.1133S,17314.2388E,4.3,74.2,063442,4335.1129S,17314.2570E,4.3,67.2, 17.0663, 34.5813,078.772,254,020,18.15,301.14,4.34,5.04,, 23.065 ,23.24,24.14,,,,00000003,00000000,0120.608,09544,9436.82,7908.88,
04/01/2019,06:23:36,063540,4335.1048S,17314.3353E,4.1,61.1,063542,4335.1033S,17314.3535E,4.1,65.0, 17.0689, 34.5807,084.499,225,020,22.08,299.85,4.61,3.27,, 23.370 ,23.02,24.02,,,,00000003,00000000,0121.423,09645,9568.87,7966.22,
04/01/2019,06:24:36,063640,4335.1141S,17314.4387E,4.6,73.0,063642,4335.1176S,17314.4557E,4.9,83.4, 17.0760, 34.5806,101.374,215,020,23.28,306.7,2.71,1.75,, 22.881 ,22.96,23.91,,,,00000003,00000000,0119.677,09567,9546.07,8019.3,
04/01/2019,06:25:36,063740,4335.1320S,17314.5467E,4.7,74.9,063742,4335.1296S,17314.5634E,4.6,66.7, 17.0907, 34.5792,075.761,225,020,23,291.44,6.47,3.14,, 22.942 ,22.76,23.79,,,,00000003,00000000,0119.976,09360,9485.08,8076.03,
04/01/2019,06:26:36,063840,4335.1255S,17314.6498E,4.6,65.0,063842,4335.1223S,17314.6700E,4.5,64.1, 17.0926, 34.5786,080.978,226,021,23.87,290.11,4.22,4.51,, 22.934 ,22.85,23.69,,,,00000003,00000000,0121.803,09516,9486.07,8126.08,
04/01/2019,06:27:36,063940,4335.1322S,17314.7517E,4.5,73.2,063942,4335.1313S,17314.7697E,4.3,77.0, 17.0965, 34.5775,091.380,214,017,20.1,296.41,6.90,-0.69,, 22.772 ,22.76,23.59,,,,00000003,00000000,0121.251,09561,9423.35,8177.92,
04/01/2019,06:28:36,064040,4335.1280S,17314.8507E,4.3,60.8,064042,4335.1211S,17314.8697E,4.3,52.1, 17.1042, 34.5777,069.162,250,019,19.7,306.57,4.94,2.26,, 22.293 ,22.58,23.49,,,,00000003,00000000,0123.147,09649,9470.97,8229.36,
04/01/2019,06:29:36,064140,4335.1194S,17314.9492E,4.3,63.8,064142,4335.1194S,17314.9668E,4.3,78.0, 17.1025, 34.5773,095.203,216,013,15.85,298.31,6.82,1.41,, 21.783 ,22.09,23.39,,,,00000003,00000000,0125.812,09703,9710.88,8280.17,
04/01/2019,06:30:36,064240,4335.1511S,17315.0371E,4.5,95.6,064242,4335.1614S,17315.0518E,5.0,110.4, 17.1088, 34.5766,127.526,180,018,26,292.1,4.57,1.56,, 22.095 ,22.07,23.31,,,,00000003,00000000,0111.105,09685,9763.71,8331.22,
04/01/2019,06:31:36,064340,4335.1869S,17315.1342E,4.6,84.3,064342,4335.1832S,17315.1516E,4.5,62.7, 17.1059, 34.5766,069.488,226,021,21.76,291.47,7.02,2.29,, 21.734 ,21.99,23.24,,,,00000003,00000000,0124.429,09787,9749.37,8383.4,
04/01/2019,06:32:36,064440,4335.1651S,17315.2347E,4.5,52.5,064442,4335.1578S,17315.2541E,4.8,47.0, 17.1176, 34.5756,062.610,251,020,21.45,292.92,6.56,1.81,, 22.022 ,21.77,23.18,,,,00000003,00000000,0146.023,09719,9761.63,8435.61,
04/01/2019,06:33:36,064540,4335.1535S,17315.3204E,3.8,58.3,064542,4335.1498S,17315.3378E,3.6,67.8, 17.1262, 34.5750,079.664,216,022,24.59,289.08,0.81,5.74,, 22.189 ,21.98,23.13,,,,00000003,00000000,0138.213,08763,9302.68,8481.9,
04/01/2019,06:34:36,064640,4335.1517S,17315.4114E,4.1,65.2,064642,4335.1509S,17315.4308E,4.2,71.0, 17.1287, 34.5749,090.033,216,015,17.74,294.85,4.84,-0.88,, 21.389 ,21.81,23.08,,,,00000003,00000000,0112.483,09684,9355.1,8531.91,
04/01/2019,06:35:36,064740,4335.1695S,17315.5077E,4.3,83.3,064742,4335.1739S,17315.5250E,4.4,92.7, 17.1388, 34.5745,109.793,174,020,24.33,281.8,1.82,3.07,, 21.406 ,21.28,23.02,,,,00000003,00000000,0130.172,09455,9638.83,8582.39,
04/01/2019,06:36:36,064840,4335.1886S,17315.5990E,4.2,78.7,064842,4335.1862S,17315.6178E,4.1,67.4, 17.1389, 34.5743,076.952,220,022,24.92,289.91,1.62,4.55,, 20.630 ,21.06,22.96,,,,00000003,00000000,0129.713,09746,9595.35,8629.34,
04/01/2019,06:37:36,064940,4335.1787S,17315.6950E,4.1,58.9,064942,4335.1720S,17315.7137E,3.9,52.9, 17.1494, 34.5737,068.122,228,017,19.15,285.41,6.09,0.60,, 20.864 ,20.85,22.89,,,,00000003,00000000,096.4026,09742,9740.78,8677.15,
04/01/2019,06:38:36,065040,4335.1650S,17315.7840E,4.0,55.9,065042,4335.1587S,17315.8040E,4.0,58.7, 17.1462, 34.5733,072.646,227,021,15.86,307.1,6.15,-4.57,, 20.644 ,20.83,22.82,,,,00000003,00000000,083.0784,09811,9694.85,8725.03,
04/01/2019,06:39:36,065140,4335.1442S,17315.8745E,4.0,46.4,065142,4335.1356S,17315.8899E,3.9,37.1, 17.1535, 34.5732,048.272,251,018,18.93,287.49,8.24,1.82,, 20.799 ,20.83,22.75,,,,00000003,00000000,0096.862,09644,9664.49,8770.56,
04/01/2019,06:40:36,065240,4335.1160S,17315.9555E,4.0,44.0,065242,4335.1096S,17315.9742E,3.9,49.5, 17.1604, 34.5727,065.324,234,018,19.68,288.59,5.54,2.49,, 20.709 ,20.65,22.68,,,,00000003,00000000,0129.713,09578,9646.07,8813.55,
04/01/2019,06:41:36,065340,4335.1079S,17316.0491E,4.1,61.7,065342,4335.1100S,17316.0685E,4.2,81.9, 17.1662, 34.5727,105.149,200,018,21.28,297.02,0.32,-1.73,, 20.582 ,20.73,22.6,,,,00000003,00000000,0124.193,09727,9513.83,8852,
04/01/2019,06:42:36,065440,4335.1377S,17316.1311E,4.1,92.0,065442,4335.1430S,17316.1490E,4.2,96.7, 17.1833, 34.5719,109.335,181,016,20.67,304.08,0.26,1.51,, 20.565 ,20.48,22.53,,,,00000003,00000000,0119.748,09625,9696.98,8892.98,
04/01/2019,06:43:36,065540,4335.1549S,17316.2242E,4.0,75.9,065542,4335.1499S,17316.2414E,3.9,58.2, 17.1837, 34.5719,066.874,226,023,23.41,286.2,4.93,6.66,, 20.350 ,20.37,22.45,,,,00000003,00000000,0139.132,09884,9813.62,8935.76,
04/01/2019,06:44:36,065640,4335.1336S,17316.3083E,3.9,49.4,065642,4335.1237S,17316.3277E,4.1,43.0, 17.1817, 34.5717,054.049,228,016,20.29,288.55,6.69,3.41,, 20.514 ,20.33,22.36,,,,00000003,00000000,093.6457,09795,9730.35,8977.76,
04/01/2019,06:45:36,065740,4335.1084S,17316.3928E,3.9,44.9,065742,4335.0982S,17316.4091E,3.8,42.8, 17.1886, 34.5718,057.200,253,019,19.52,299.37,4.28,-0.05,, 20.372 ,20.36,22.28,,,,00000003,00000000,00106.74,09702,9703.98,9021.45,
04/01/2019,06:46:36,065840,4335.0792S,17316.4783E,4.1,41.9,065842,4335.0724S,17316.4979E,4.1,47.5, 17.1951, 34.5716,064.255,230,021,23.17,294.21,2.95,0.14,, 20.644 ,20.4,22.2,,,,00000003,00000000,0108.808,09707,9677.38,9058.46,
04/01/2019,06:47:36,065940,4335.0550S,17316.5669E,4.1,41.4,065942,4335.0440S,17316.5814E,3.9,31.7, 17.2068, 34.5717,041.339,255,018,19.29,276.75,5.42,0.99,, 20.521 ,20.56,22.14,,,,00000003,00000000,0135.226,09736,9691.58,9093.17,
04/01/2019,06:48:36,070040,4335.0173S,17316.6352E,3.8,33.0,070042,4335.0078S,17316.6527E,3.8,38.2, 17.2111, 34.5713,053.604,237,020,22.47,281.13,4.28,2.13,, 20.554 ,20.55,22.07,,,,00000003,00000000,0114.092,09686,9806.67,9132.98,
04/01/2019,06:49:36,070140,4334.9949S,17316.7256E,4.2,47.3,070142,4334.9898S,17316.7454E,4.4,63.5, 17.2200, 34.5712,089.476,189,019,22.73,271.84,3.46,2.03,, 21.123 ,20.78,22.01,,,,00000003,00000000,0124.659,09509,9640.93,9165.1,
04/01/2019,06:50:36,070240,4335.0130S,17316.8205E,4.3,82.9,070242,4335.0146S,17316.8391E,4.5,87.6, 17.2260, 34.5717,096.994,181,019,23.44,276.01,-0.34,1.55,, 21.119 ,21.04,21.95,,,,00000003,00000000,0136.375,09535,9580.83,9200.15,
04/01/2019,06:51:36,070341,4335.0093S,17316.9203E,4.2,59.2,070342,4335.0013S,17316.9362E,4.4,46.4, 17.2324, 34.5714,057.810,257,021,21.56,303.22,6.32,-1.26,, 20.935 ,21.08,21.91,,,,00000003,00000000,0122.758,09789,9622.52,9228.67,
04/01/2019,06:52:36,070441,4334.9738S,17317.0144E,4.5,42.3,070442,4334.9656S,17317.0305E,4.5,41.9, 17.2353, 34.5715,058.555,233,021,22.93,281.27,2.38,3.44,, 21.202 ,21.12,21.86,,,,00000003,00000000,00132.01,09848,9829.87,9258.9,
04/01/2019,06:53:36,070541,4334.9500S,17317.1097E,4.5,45.1,070542,4334.9393S,17317.1263E,4.5,51.7, 17.2333, 34.5714,069.305,223,017,19.66,279.35,2.97,-2.83,, 21.442 ,21.34,21.82,,,,00000003,00000000,0108.119,09791,9797.31,9286.04,
04/01/2019,06:54:37,070641,4334.9339S,17317.2105E,4.5,55.9,070642,4334.9289S,17317.2278E,4.5,58.2, 17.2467, 34.5720,074.913,204,014,21.16,261.88,7.37,-3.44,, 21.703 ,21.63,21.79,,,,00000003,00000000,0137.983,09738,9729.47,9311.56,
04/01/2019,06:55:37,070741,4334.9177S,17317.3106E,4.5,53.2,070742,4334.9164S,17317.3282E,4.6,58.0, 17.2497, 34.5717,081.248,195,018,21.8,268.74,3.68,-0.86,, 21.802 ,21.97,21.77,,,,00000003,00000000,0118.176,09761,9557.3,9330.62,
04/01/2019,06:56:37,070841,4334.9279S,17317.4076E,4.2,75.0,070842,4334.9323S,17317.4229E,4.2,93.4, 17.2668, 34.5717,112.590,154,018,22.18,267.88,3.10,1.11,, 22.131 ,21.99,21.75,,,,00000003,00000000,0124.574,09428,9692.25,9351.1,
04/01/2019,06:57:37,070941,4334.9476S,17317.5004E,4.2,75.2,070942,4334.9446S,17317.5164E,4.0,64.0, 17.2624, 34.5718,071.998,211,024,27.26,278.94,5.51,3.06,, 22.319 ,22.36,21.74,,,,00000003,00000000,00117.12,09710,9538.77,9371.52,
04/01/2019,06:58:37,071041,4334.9348S,17317.5974E,4.3,57.5,071042,4334.9333S,17317.6143E,4.5,63.4, 17.2707, 34.5719,079.665,195,020,18.84,270.3,4.66,-0.47,, 22.303 ,22.32,21.72,,,,00000003,00000000,098.9295,09709,9700.8,9403.64,
04/01/2019,06:59:37,071141,4334.9416S,17317.7002E,4.5,70.7,071142,4334.9391S,17317.7175E,4.7,70.0, 17.2798, 34.5724,079.808,196,019,24.42,264.89,8.24,-0.68,, 22.542 ,22.28,21.71,,,,00000003,00000000,0122.369,09413,9672.95,9426.1,
04/01/2019,07:00:37,071241,4334.9295S,17317.8119E,4.8,59.6,071242,4334.9275S,17317.8275E,4.8,59.5, 17.2788, 34.5723,076.733,210,016,20.69,274.09,2.91,-1.53,, 22.481 ,22.52,21.71,,,,00000003,00000000,0110.646,09541,9507.38,9440.23,
04/01/2019,07:01:37,071341,4334.9305S,17317.9210E,4.8,69.1,071342,4334.9286S,17317.9383E,4.6,69.8, 17.2776, 34.5731,082.864,190,018,22.31,268.23,1.82,-1.06,, 22.845 ,22.96,21.72,,,,00000003,00000000,0119.601,09534,9164.53,9448.46,
04/01/2019,07:02:37,071441,4334.9314S,17318.0244E,4.6,67.1,071442,4334.9284S,17318.0425E,4.6,71.8, 17.2733, 34.5724,084.838,197,022,21.31,269.99,3.27,5.35,, 23.184 ,23,21.74,,,,00000003,00000000,0117.706,08447,9075.97,9451.06,
04/01/2019,07:03:37,071541,4334.9336S,17318.1288E,4.6,67.5,071542,4334.9310S,17318.1467E,4.4,69.9, 17.2779, 34.5729,090.874,170,017,21.37,256.25,3.39,-0.43,, 22.890 ,23.04,21.76,,,,00000003,00000000,0124.403,09673,9325.25,9465.85,
04/01/2019,07:04:37,071641,4334.9454S,17318.2319E,4.6,73.0,071642,4334.9413S,17318.2498E,4.5,73.8, 17.2688, 34.5725,084.020,194,014,17.14,275.74,1.53,1.08,, 22.540 ,22.74,21.79,,,,00000003,00000000,0072.511,09832,9739.6,9478.78,
04/01/2019,07:05:37,071741,4334.9498S,17318.3294E,4.4,70.0,071742,4334.9482S,17318.3495E,4.4,77.3, 17.2722, 34.5728,100.587,167,016,20.32,265.37,4.48,-1.75,, 22.709 ,22.81,21.82,,,,00000003,00000000,0120.486,09736,9698.3,9494.37,
04/01/2019,07:06:37,071841,4334.9553S,17318.4238E,4.0,69.6,071842,4334.9496S,17318.4388E,3.8,50.0, 17.2740, 34.5730,061.397,198,019,22.39,254.62,0.38,3.17,, 22.260 ,22.47,21.84,,,,00000003,00000000,0136.834,09894,9875.27,9510.22,
04/01/2019,07:07:37,071941,4334.9370S,17318.5040E,3.9,50.9,071942,4334.9308S,17318.5248E,4.0,60.5, 17.2670, 34.5724,080.765,193,018,21.46,267.9,2.71,5.75,, 21.684 ,21.98,21.86,,,,00000003,00000000,00140.51,10013,9934.14,9529.11,
04/01/2019,07:08:37,072041,4334.9474S,17318.5941E,3.9,76.4,072042,4334.9442S,17318.6129E,3.9,71.4, 17.2628, 34.5726,073.782,218,018,21.09,285.73,6.49,-1.58,, 21.476 ,21.68,21.87,,,,00000003,00000000,0109.956,10063,10044.62,9545.7,
04/01/2019,07:09:37,072141,4334.9296S,17318.6786E,3.7,49.5,072142,4334.9206S,17318.6945E,3.6,38.2, 17.2607, 34.5727,050.124,225,018,20.17,267,6.69,-1.18,, 21.513 ,21.39,21.88,,,,00000003,00000000,0131.321,10253,10176.47,9570.32,
04/01/2019,07:10:37,072241,4334.8976S,17318.7504E,3.6,36.4,072242,4334.8896S,17318.7650E,3.6,35.1, 17.2644, 34.5728,046.011,223,015,16.34,261.12,7.38,-3.64,, 21.590 ,21.55,21.89,,,,00000003,00000000,0121.578,09486,10073.45,9583.96,
04/01/2019,07:11:37,072341,4334.8723S,17318.8237E,3.7,42.2,072342,4334.8648S,17318.8405E,3.7,48.4, 17.2586, 34.5729,055.119,203,012,16.26,255.76,5.32,-0.24,, 22.225 ,21.95,21.91,,,,00000003,00000000,098.6999,09934,9982.1,9597.07,
04/01/2019,07:12:37,072441,4334.8375S,17318.8961E,3.7,29.0,072442,4334.8263S,17318.9058E,3.8,14.2, 17.2507, 34.5733,022.993,257,020,20.63,269.41,4.11,0.89,, 22.462 ,22.39,21.92,,,,00000003,00000000,0129.483,10149,10001.29,9613.48,
04/01/2019,07:13:37,072541,4334.7902S,17318.9445E,3.5,18.2,072542,4334.7784S,17318.9581E,3.4,29.2, 17.2575, 34.5745,042.519,252,020,20.56,285.03,0.47,1.54,, 23.374 ,22.79,21.93,,,,00000003,00000000,0133.848,10006,10111.18,9628.87,
04/01/2019,07:14:37,072641,4334.7716S,17319.0158E,3.5,44.5,072642,4334.7666S,17319.0331E,3.7,64.6, 17.2526, 34.5750,086.786,159,018,19.68,250.12,0.98,4.20,, 24.408 ,24.12,21.96,,,,00000003,00000000,0144.645,09730,9860.52,9640.05,
04/01/2019,07:15:37,072741,4334.7824S,17319.0946E,3.5,80.6,072742,4334.7883S,17319.1106E,3.6,96.7, 17.2469, 34.5758,113.350,137,019,17.5,264.39,-3.09,3.01,, 25.340 ,24.83,22,,,,00000003,00000000,00123.52,09965,9901.58,9653.85,
04/01/2019,07:16:37,072841,4334.8045S,17319.1729E,3.6,81.8,072843,4334.8032S,17319.1917E,3.6,72.8, 17.2448, 34.5769,078.791,174,019,19.51,266.2,0.79,3.87,, 25.510 ,25.46,22.04,,,,00000003,00000000,00131.78,09979,10001.97,9665.33,
04/01/2019,07:17:37,072941,4334.7952S,17319.2500E,3.4,57.4,072943,4334.7903S,17319.2682E,3.2,45.8, 17.2410, 34.5774,054.698,211,016,18.57,259.35,3.90,2.38,, 25.812 ,25.85,22.09,,,,00000003,00000000,0145.564,09965,9888.27,9672.68,
04/01/2019,07:18:37,073041,4334.7709S,17319.3195E,3.5,38.9,073042,4334.7597S,17319.3357E,3.3,31.7, 17.2323, 34.5777,041.549,226,014,18.5,270.04,1.86,1.68,, 26.360 ,26.29,22.14,,,,00000003,00000000,092.7269,10036,9967.4,9680.78,
04/01/2019,07:19:37,073141,4334.7422S,17319.3776E,3.1,34.9,073143,4334.7313S,17319.3947E,3.0,36.3, 17.2322, 34.5768,046.874,222,017,19.28,253.72,5.25,5.25,, 26.651 ,26.47,22.2,,,,00000003,00000000,0144.875,09955,9962.82,9689.76,
04/01/2019,07:20:37,073241,4334.7219S,17319.4387E,3.0,43.6,073243,4334.7122S,17319.4568E,2.9,49.7, 17.2198, 34.5767,057.305,224,014,15.93,273.87,2.41,-3.48,, 26.582 ,26.5,22.25,,,,00000003,00000000,0131.321,10021,9942.93,9696.96,
04/01/2019,07:21:37,073341,4334.7127S,17319.5025E,3.0,56.2,073343,4334.7098S,17319.5225E,3.1,70.4, 17.2179, 34.5765,082.337,183,011,14.01,262.33,-0.02,0.32,, 26.559 ,26.37,22.3,,,,00000003,00000000,094.1053,09997,10032.73,9705.06,
04/01/2019,07:22:37,073441,4334.7175S,17319.5769E,3.3,70.7,073443,4334.7154S,17319.5967E,3.2,75.1, 17.2000, 34.5777,081.932,199,018,20.93,277.11,1.49,5.22,, 27.244 ,26.64,22.36,,,,00000003,00000000,0121.384,09778,9918.85,9713.22,
04/01/2019,07:23:37,073541,4334.7196S,17319.6548E,3.4,68.6,073543,4334.7177S,17319.6736E,3.5,69.2, 17.1921, 34.5798,079.882,175,016,19.49,253.86,1.69,3.00,, 28.070 ,27.67,22.44,,,,00000003,00000000,0127.645,10049,9986.42,9720.18,
04/01/2019,07:24:37,073641,4334.7199S,17319.7338E,3.4,67.1,073643,4334.7176S,17319.7527E,3.2,61.4, 17.1830, 34.5814,073.512,170,010,13.2,243,5.58,1.68,, 28.580 ,28.51,22.53,,,,00000003,00000000,00132.24,10154,10071.17,9728.92,
04/01/2019,07:25:37,073741,4334.7181S,17319.8014E,3.1,64.2,073742,4334.7169S,17319.8185E,3.0,70.7, 17.1754, 34.5838,083.442,167,011,14,250.5,4.62,-0.95,, 28.722 ,28.47,22.63,,,,00000003,00000000,0120.098,10037,10132.78,9739.68,
04/01/2019,07:26:37,073841,4334.7222S,17319.8727E,3.2,67.6,073843,4334.7168S,17319.8932E,3.1,62.6, 17.1652, 34.5848,073.274,191,012,14.83,264.21,3.48,2.30,, 28.697 ,28.9,22.73,,,,00000003,00000000,00115.24,10215,10135,9750.46,
04/01/2019,07:27:37,073941,4334.7197S,17319.9493E,3.5,66.8,073943,4334.7207S,17319.9708E,3.6,77.7, 17.1508, 34.5866,092.617,167,011,20.6,256.4,2.19,-0.74,, 28.098 ,28.38,22.82,,,,00000003,00000000,0121.626,10449,10319.34,9765.43,
04/01/2019,07:28:37,074041,4334.7352S,17320.0313E,3.8,73.4,074043,4334.7252S,17320.0557E,3.7,61.7, 17.1381, 34.5870,066.220,197,014,17.49,258.77,2.98,1.11,, 28.365 ,28.31,22.92,,,,00000003,00000000,0129.024,10515,10467.82,9782.24,
04/01/2019,07:29:37,074141,4334.7184S,17320.1109E,3.4,53.2,074143,4334.7077S,17320.1283E,3.0,38.2, 17.1255, 34.5878,034.887,245,015,16.65,270.79,5.25,3.57,, 29.389 ,28.99,23.03,,,,00000003,00000000,0117.112,10292,10374.32,9793.18,
04/01/2019,07:30:37,074241,4334.6885S,17320.1587E,2.8,26.5,074243,4334.6752S,17320.1671E,2.6,16.8, 17.1325, 34.5870,022.248,228,017,17.18,256.24,3.96,-2.71,, 30.462 ,30.28,23.17,,,,00000003,00000000,0103.983,09945,10116.48,9798.99,
04/01/2019,07:31:37,074341,4334.6543S,17320.2053E,3.0,23.8,074343,4334.6422S,17320.2179E,3.0,32.2, 17.1345, 34.5862,043.480,237,013,15.54,266.46,3.11,-0.75,, 30.619 ,30.45,23.31,,,,00000003,00000000,0112.713,09714,9837.98,9800.4,
04/01/2019,07:32:37,074441,4334.6308S,17320.2742E,3.4,41.6,074443,4334.6216S,17320.2982E,3.6,61.3, 17.1339, 34.5861,073.455,201,012,16.98,271.07,2.31,-1.73,, 29.854 ,30,23.45,,,,00000003,00000000,0111.565,09913,9796.41,9801.01,
04/01/2019,07:33:37,074541,4334.6316S,17320.3599E,3.6,67.5,074543,4334.6270S,17320.3810E,3.6,69.8, 17.1363, 34.5866,075.173,198,015,18.36,268.71,1.17,1.76,, 30.246 ,30.11,23.58,,,,00000003,00000000,0122.534,09912,9911.12,9811.53,
04/01/2019,07:34:37,074641,4334.6266S,17320.4409E,3.5,60.3,074643,4334.6193S,17320.4612E,3.2,58.6, 17.1388, 34.5883,061.536,222,017,16.58,270.44,3.99,3.04,, 30.298 ,30.33,23.72,,,,00000003,00000000,0125.118,09900,9947.2,9821.38,
04/01/2019,07:35:37,074741,4334.6159S,17320.5247E,3.8,59.0,074743,4334.6077S,17320.5468E,3.7,60.2, 17.1231, 34.5885,063.300,223,017,20.94,274.68,3.14,0.07,, 30.299 ,30.34,23.87,,,,00000003,00000000,0119.765,10027,9957.9,9826.71,
04/01/2019,07:36:37,074841,4334.5988S,17320.6099E,3.8,51.3,074843,4334.5914S,17320.6323E,3.8,52.8, 17.1075, 34.5889,060.021,225,013,15.59,273.81,6.48,-2.15,, 30.314 ,30.25,24.03,,,,00000003,00000000,0110.186,10105,10065.81,9834.51,
04/01/2019,07:37:37,074941,4334.5888S,17320.6932E,3.8,58.9,074943,4334.5887S,17320.7151E,4.0,73.0, 17.1031, 34.5884,088.751,184,017,20.91,268.99,1.54,3.46,, 30.396 ,30.2,24.18,,,,00000003,00000000,0141.429,09804,10064.02,9839.87,
04/01/2019,07:38:37,075041,4334.6035S,17320.7870E,4.1,74.3,075043,4334.6000S,17320.8087E,4.1,70.9, 17.0890, 34.5883,075.026,225,018,16.77,292.25,3.51,-0.40,, 30.773 ,30.51,24.34,,,,00000003,00000000,0118.043,09640,9533.85,9837.11,
04/01/2019,07:39:37,075141,4334.5967S,17320.8780E,4.0,60.8,075143,4334.5919S,17320.8990E,3.9,54.4, 17.0928, 34.5882,058.870,237,016,18.19,285.01,3.46,3.11,, 30.725 ,30.55,24.51,,,,00000003,00000000,0109.038,09433,9763.57,9838.74,
04/01/2019,07:40:37,075241,4334.5829S,17320.9654E,3.9,55.9,075243,4334.5778S,17320.9883E,3.9,61.5, 17.0893, 34.5885,073.554,219,012,14.79,280.82,0.81,1.22,, 31.711 ,31.29,24.68,,,,00000003,00000000,0123.763,09682,9466.5,9835.77,
04/01/2019,07:41:37,075341,4334.5861S,17321.0610E,4.2,69.0,075343,4334.5836S,17321.0814E,4.2,73.3, 17.0918, 34.5882,074.460,229,016,18.95,293.62,1.79,1.23,, 32.283 ,31.98,24.87,,,,00000003,00000000,00106.74,09889,9877.78,9841.87,
04/01/2019,07:42:37,075441,4334.5829S,17321.1476E,3.8,59.8,075443,4334.5740S,17321.1702E,3.7,55.7, 17.0762, 34.5887,060.681,239,017,18.23,283.76,4.78,3.57,, 32.160 ,32.12,25.07,,,,00000003,00000000,0118.239,09735,9748.55,9842.73,
04/01/2019,07:43:37,075541,4334.5709S,17321.2356E,3.9,58.9,075543,4334.5646S,17321.2607E,3.9,63.8, 17.0782, 34.5887,072.890,229,011,15.75,283.8,4.28,3.36,, 32.101 ,32.07,25.26,,,,00000003,00000000,0140.051,09977,9825.9,9842.83,
04/01/2019,07:44:37,075641,4334.5739S,17321.3217E,3.8,67.0,075643,4334.5693S,17321.3470E,3.8,71.1, 17.0783, 34.5888,079.810,221,012,14.75,289.47,4.69,-0.77,, 32.129 ,32.16,25.46,,,,00000003,00000000,0109.956,09991,10006.27,9847.5,
04/01/2019,07:45:37,075741,4334.5808S,17321.4158E,4.1,72.2,075743,4334.5765S,17321.4381E,4.1,71.7, 17.0815, 34.5891,075.602,229,017,19.75,295.07,2.74,3.34,, 32.751 ,32.65,25.66,,,,00000003,00000000,00117.17,09999,10019.92,9852.78,
04/01/2019,07:46:37,075841,4334.5743S,17321.5153E,4.3,62.4,075843,4334.5708S,17321.5395E,4.5,61.1, 17.0756, 34.5888,068.038,236,018,19.47,290.54,2.95,2.18,, 33.501 ,33.16,25.87,,,,00000003,00000000,098.2403,09720,9991.02,9858.03,
04/01/2019,07:47:37,075941,4334.5799S,17321.6206E,4.7,70.8,075943,4334.5768S,17321.6474E,4.9,76.7, 17.0546, 34.5891,078.523,224,018,20.91,289.56,4.07,-2.04,, 33.114 ,33.34,26.09,,,,00000003,00000000,094.7943,09921,9901.8,9861.57,
04/01/2019,07:48:37,080041,4334.5797S,17321.7305E,4.6,67.3,080043,4334.5760S,17321.7529E,4.4,69.4, 17.0355, 34.5879,078.202,225,017,21.94,294.91,1.54,0.63,, 33.207 ,33.21,26.3,,,,00000003,00000000,0121.995,10012,10030.17,9865.24,
04/01/2019,07:49:37,080141,4334.5884S,17321.8358E,4.6,72.2,080143,4334.5872S,17321.8563E,4.7,77.6, 16.9963, 34.5837,090.922,216,018,20.6,291.86,0.37,3.20,, 29.328 ,31.12,26.48,,,,00000003,00000000,0126.727,10293,10255.15,9875.65,
04/01/2019,07:50:37,080241,4334.6196S,17321.9286E,4.6,91.0,080243,4334.6176S,17321.9564E,4.6,94.5, 16.9600, 34.5773,097.269,189,017,21.43,288.34,0.82,0.73,, 26.841 ,28.08,26.59,,,,00000003,00000000,0122.041,10528,10400.75,9889.35,
04/01/2019,07:51:37,080341,4334.6345S,17322.0272E,4.2,77.2,080343,4334.6277S,17322.0506E,3.9,64.9, 16.9448, 34.5720,065.857,236,014,19.2,297.1,4.83,-0.50,, 26.582 ,26.68,26.68,,,,00000003,00000000,0121.789,10662,10563.75,9904.91,
04/01/2019,07:52:37,080441,4334.6251S,17322.1202E,4.1,60.3,080443,4334.6176S,17322.1440E,4.2,62.2, 16.9202, 34.5583,068.761,220,016,19.13,279.68,4.97,-1.53,, 26.153 ,26.37,26.77,,,,00000003,00000000,0103.065,10948,10832.4,9921.57,
04/01/2019,07:53:37,080541,4334.6236S,17322.2242E,4.5,67.9,080543,4334.6214S,17322.2462E,4.6,71.0, 16.9133, 34.5492,075.071,224,014,17.32,289.52,3.92,-5.44,, 25.862 ,26.05,26.85,,,,00000003,00000000,0109.497,11169,11015.73,9941.83,
04/01/2019,07:54:37,080641,4334.6343S,17322.3301E,4.6,75.4,080643,4334.6339S,17322.3517E,4.6,80.5, 16.9095, 34.5465,088.344,225,014,20.53,295.11,0.85,2.63,, 26.169 ,26.08,26.92,,,,00000003,00000000,0118.607,10968,10940.85,9961.91,
04/01/2019,07:55:37,080741,4334.6534S,17322.4292E,4.5,81.2,080743,4334.6512S,17322.4525E,4.5,79.4, 16.9107, 34.5464,081.929,216,020,23.69,291.13,1.79,0.01,, 26.102 ,25.85,26.99,,,,00000003,00000000,0133.388,11023,10955.33,9985.53,
04/01/2019,07:56:37,080841,4334.6585S,17322.5277E,4.4,71.5,080843,4334.6566S,17322.5525E,4.4,73.6, 16.9172, 34.5472,084.252,228,014,16.7,299.49,3.76,-2.79,, 25.666 ,25.85,27.05,,,,00000003,00000000,00122.57,11330,11254.95,10011.68,
04/01/2019,07:57:37,080941,4334.6781S,17322.6316E,4.6,78.1,080943,4334.6751S,17322.6547E,4.6,80.3, 16.9239, 34.5480,084.168,212,011,14.93,285.54,4.76,3.03,, 25.806 ,26.03,27.11,,,,00000003,00000000,097.5513,11448,11286.07,10040.5,
04/01/2019,07:58:37,081041,4334.6956S,17322.7353E,4.6,79.6,081043,4334.6916S,17322.7581E,4.4,82.7, 16.9329, 34.5509,084.049,230,019,18.89,305.53,1.01,1.30,, 25.778 ,25.81,27.17,,,,00000003,00000000,098.4701,11527,11577.93,10071.72,
04/01/2019,07:59:37,081141,4334.7085S,17322.8424E,4.7,76.2,081143,4334.7036S,17322.8647E,4.7,74.9, 16.9460, 34.5520,077.509,226,017,19.26,295.66,2.46,2.48,, 25.884 ,25.97,27.23,,,,00000003,00000000,0112.024,11544,11558.15,10103.07,
04/01/2019,08:00:37,081241,4334.7190S,17322.9491E,4.7,76.5,081243,4334.7184S,17322.9731E,4.8,79.6, 16.9646, 34.5566,088.870,203,014,18.24,283.79,4.93,3.26,, 25.809 ,25.86,27.29,,,,00000003,00000000,0127.416,11610,11526.85,10137.16,
04/01/2019,08:01:37,081342,4334.7329S,17323.0562E,4.7,75.3,081343,4334.7272S,17323.0753E,4.3,62.8, 16.9821, 34.5600,059.814,233,018,21.02,283.8,4.92,-4.57,, 25.633 ,25.75,27.34,,,,00000003,00000000,0129.483,11784,11697.69,10179.36,
04/01/2019,08:02:37,081442,4334.7121S,17323.1514E,4.3,51.5,081443,4334.7052S,17323.1699E,4.4,48.8, 16.9991, 34.5652,057.700,229,018,21.2,283.53,3.73,-2.23,, 25.819 ,25.57,27.38,,,,00000003,00000000,096.4026,11814,11784.9,10224.36,
04/01/2019,08:03:37,081542,4334.7051S,17323.2598E,4.8,63.2,081543,4334.7047S,17323.2804E,5.1,78.7, 17.0135, 34.5723,096.929,181,018,20.83,273,4.50,0.30,, 25.698 ,25.71,27.42,,,,00000003,00000000,0118.539,11710,11720.4,10263.89,
04/01/2019,08:04:37,081642,4334.7284S,17323.3792E,5.3,77.1,081643,4334.7270S,17323.3983E,5.5,72.7, 17.0368, 34.5798,076.079,208,023,24.83,277.75,5.66,3.04,, 25.167 ,25.71,27.47,,,,00000003,00000000,0106.511,11729,11657.88,10295.72,
04/01/2019,08:05:37,081742,4334.7330S,17323.5049E,5.4,72.1,081743,4334.7325S,17323.5240E,5.4,79.1, 17.0545, 34.5845,089.900,195,014,20.94,280.32,3.00,4.87,, 25.627 ,25.4,27.52,,,,00000003,00000000,0107.889,11370,11693.92,10328.9,
04/01/2019,08:06:37,081842,4334.7568S,17323.6218E,5.3,80.0,081843,4334.7559S,17323.6420E,5.3,78.3, 17.0661, 34.5899,079.461,219,022,24.57,285.5,2.35,1.05,, 25.792 ,25.95,27.57,,,,00000003,00000000,0100.538,11514,11319.22,10353.31,
04/01/2019,08:07:37,081942,4334.7530S,17323.7440E,5.2,64.2,081943,4334.7484S,17323.7652E,5.2,63.0, 17.0728, 34.5922,074.757,211,025,29.04,278.62,5.11,3.47,, 25.755 ,25.83,27.64,,,,00000003,00000000,0117.609,11209,11370.37,10377.14,
04/01/2019,08:08:38,082042,4334.7677S,17323.8726E,5.7,76.7,082043,4334.7691S,17323.8928E,5.9,83.5, 17.0726, 34.5925,098.246,172,020,25.86,269.39,9.02,0.11,, 25.544 ,25.88,27.71,,,,00000003,00000000,0131.321,11303,11106.63,10394.75,
04/01/2019,08:09:38,082142,4334.7826S,17324.0033E,5.7,72.4,082143,4334.7799S,17324.0224E,5.8,69.6, 17.0822, 34.5924,080.662,199,025,30.16,273.34,2.58,1.51,, 26.142 ,25.91,27.78,,,,00000003,00000000,0116.208,10830,11100.87,10410.01,
04/01/2019,08:10:38,082243,4334.7900S,17324.1366E,5.9,71.2,082243,4334.7889S,17324.1569E,5.9,74.3, 17.0768, 34.5926,091.907,187,013,23.86,260.42,7.82,-0.66,, 26.484 ,25.94,27.86,,,,00000003,00000000,0136.375,10158,10820.83,10422.48,
04/01/2019,08:11:38,082343,4334.8078S,17324.2676E,5.8,75.2,082343,4334.8046S,17324.2867E,5.6,68.7, 17.0814, 34.5930,072.690,228,025,28.79,291.87,4.06,0.34,, 26.301 ,26.6,27.93,,,,00000003,00000000,0133.618,10563,10251,10426.86,
04/01/2019,08:12:38,082443,4334.7885S,17324.3935E,5.6,54.0,082443,4334.7807S,17324.4106E,5.5,45.7, 17.0741, 34.5922,048.406,234,025,28.39,273.09,5.90,3.57,, 27.573 ,26.96,28.01,,,,00000003,00000000,0116.208,09256,10230.33,10430.57,
04/01/2019,08:13:38,082543,4334.7388S,17324.4936E,5.3,32.7,082543,4334.7293S,17324.5080E,5.4,29.0, 17.0728, 34.5920,036.524,257,022,23.15,280.08,7.50,1.63,, 27.923 ,28.15,28.1,,,,00000003,00000000,0120.228,09505,8081.58,10396.53,
04/01/2019,08:14:38,082643,4334.6842S,17324.5935E,5.4,31.1,082643,4334.6774S,17324.6078E,5.4,34.4, 17.0711, 34.5923,043.782,254,024,25.77,279.43,4.57,1.70,, 28.073 ,27.94,28.16,,,,00000003,00000000,0143.267,09927,9785.73,10395.41,
04/01/2019,08:15:38,082743,4334.6431S,17324.6988E,5.3,37.9,082743,4334.6378S,17324.7193E,5.5,49.5, 17.0721, 34.5918,062.879,215,022,25.29,277,4.56,-2.37,, 29.458 ,28.26,28.22,,,,00000003,00000000,00115.99,09793,9971.15,10396.52,
04/01/2019,08:16:38,082843,4334.6442S,17324.8324E,5.8,68.0,082843,4334.6452S,17324.8514E,6.3,83.3, 17.0595, 34.5920,098.031,186,021,24.7,285.06,1.21,-0.23,, 29.432 ,29.17,28.28,,,,00000003,00000000,0133.618,09114,9369.71,10385.94,
04/01/2019,08:17:38,082943,4334.6657S,17324.9701E,6.1,75.0,082943,4334.6630S,17324.9881E,6.2,71.0, 17.0581, 34.5886,073.837,213,027,32.23,280.37,4.06,1.92,, 31.028 ,30.57,28.36,,,,00000003,00000000,000107.2,10183,9767.8,10384.16,
04/01/2019,08:18:38,083043,4334.6505S,17325.1000E,5.6,58.8,083043,4334.6451S,17325.1172E,5.6,54.4, 17.0666, 34.5865,060.940,229,022,27.7,278.58,5.13,3.93,, 32.311 ,31.85,28.46,,,,00000003,00000000,0111.335,09762,9840.8,10381.96,
04/01/2019,08:19:38,083143,4334.6229S,17325.2270E,5.8,51.2,083143,4334.6202S,17325.2455E,5.9,62.3, 17.0504, 34.5861,085.261,200,024,23.71,274.83,3.68,3.38,, 32.403 ,32.44,28.55,,,,00000003,00000000,0118.541,10286,10191.68,10385.9,
04/01/2019,08:20:38,083243,4334.6549S,17325.3584E,5.9,83.4,083243,4334.6591S,17325.3751E,6.1,91.3, 17.0571, 34.5850,102.546,175,022,31.1,272.02,4.94,2.64,, 32.080 ,32.17,28.64,,,,00000003,00000000,0121.309,10589,10404.05,10393.6,
04/01/2019,08:21:38,083343,4334.6785S,17325.4871E,5.8,75.9,083343,4334.6759S,17325.5060E,5.7,66.2, 17.0751, 34.5836,075.328,204,023,25.65,278.33,5.48,1.04,, 31.061 ,31.29,28.73,,,,00000003,00000000,0146.483,10021,10734.08,10405.3,
04/01/2019,08:22:38,083443,4334.6732S,17325.6201E,5.8,66.2,083443,4334.6725S,17325.6385E,5.8,72.8, 17.0770, 34.5806,093.084,171,020,25.49,269.35,5.00,4.08,, 30.543 ,30.83,28.8,,,,00000003,00000000,0132.929,10630,10670.52,10418,
04/01/2019,08:23:38,083543,4334.7180S,17325.7395E,5.8,94.2,083543,4334.7271S,17325.7560E,5.9,108.7, 17.0945, 34.5784,121.894,151,018,23.73,276.78,-7.74,2.88,, 30.041 ,29.98,28.84,,,,00000003,00000000,0123.641,11018,10841.07,10432.2,
04/01/2019,08:24:38,083643,4334.7492S,17325.8601E,5.5,78.7,083643,4334.7449S,17325.8761E,5.2,55.6, 17.1058, 34.5770,052.449,235,025,28.51,279.2,6.85,4.51,, 29.831 ,30.04,28.86,,,,00000003,00000000,0126.037,11085,11028.78,10448.11,
04/01/2019,08:25:38,083743,4334.7092S,17325.9528E,4.5,38.0,083744,4334.7002S,17325.9662E,4.5,29.4, 17.1123, 34.5764,039.061,257,017,17.95,280.06,7.86,-2.82,, 29.221 ,29.57,28.88,,,,00000003,00000000,0121.631,11071,11027.55,10462.97,
04/01/2019,08:26:38,083843,4334.6814S,17326.0474E,4.6,49.4,083843,4334.6790S,17326.0670E,4.9,68.0, 17.1142, 34.5771,084.209,202,022,27.27,274.04,4.82,2.69,, 29.742 ,29.93,28.9,,,,00000003,00000000,0119.426,10883,10855.22,10474.84,
04/01/2019,08:27:38,083943,4334.6924S,17326.1653E,5.1,70.1,083943,4334.6906S,17326.1839E,5.2,73.5, 17.1181, 34.5767,083.277,201,016,20.64,276.87,4.38,2.01,, 28.892 ,29.33,28.91,,,,00000003,00000000,0118.737,11228,11116.92,10488.28,
04/01/2019,08:28:38,084043,4334.7020S,17326.2747E,4.8,71.8,084044,4334.6993S,17326.2941E,4.7,71.6, 17.1317, 34.5763,080.561,202,016,20.18,275.68,3.00,-1.22,, 28.938 ,29.07,28.93,,,,00000003,00000000,0128.794,11187,11180.7,10500.11,
04/01/2019,08:29:38,084143,4334.7191S,17326.3843E,4.9,79.7,084144,4334.7188S,17326.4044E,5.0,82.3, 17.1295, 34.5762,090.238,173,020,25,263.05,3.20,2.86,, 28.776 ,28.86,28.92,,,,00000003,00000000,0131.321,11325,11240.32,10514.55,
04/01/2019,08:30:38,084243,4334.7207S,17326.4883E,4.6,65.5,084244,4334.7170S,17326.5085E,4.6,61.9, 17.1468, 34.5751,074.110,208,018,19.65,275.06,4.12,-3.88,, 28.334 ,28.23,28.89,,,,00000003,00000000,094.1053,11299,11298.72,10534.24,
04/01/2019,08:31:38,084343,4334.7369S,17326.6004E,5.0,81.9,084344,4334.7427S,17326.6174E,5.3,100.3, 17.1386, 34.5750,122.163,146,020,26.26,273.78,-2.20,0.41,, 27.695 ,27.99,28.85,,,,00000003,00000000,0121.115,11417,11363.95,10559.64,
04/01/2019,08:32:38,084443,4334.7859S,17326.7036E,5.3,95.4,084444,4334.7879S,17326.7220E,5.0,83.0, 17.1405, 34.5751,079.973,205,019,25.7,280.97,5.89,-2.80,, 27.687 ,27.8,28.81,,,,00000003,00000000,097.0916,11284,11388.75,10585.9,
04/01/2019,08:33:38,084543,4334.7693S,17326.8092E,4.5,53.6,084544,4334.7624S,17326.8239E,4.6,40.9, 17.1476, 34.5751,048.612,225,019,22.09,264.08,4.87,2.56,, 27.649 ,27.62,28.77,,,,00000003,00000000,0126.267,11259,11322.8,10610.14,
04/01/2019,08:34:38,084643,4334.7538S,17326.9182E,4.9,59.5,084644,4334.7538S,17326.9377E,5.2,78.8, 17.1445, 34.5748,096.882,159,018,24.2,260.43,2.55,3.74,, 27.751 ,27.6,28.72,,,,00000003,00000000,0135.686,11121,11245.15,10631.68,
04/01/2019,08:35:38,084743,4334.7845S,17327.0385E,5.4,81.2,084744,4334.7878S,17327.0569E,5.6,81.7, 17.1326, 34.5760,092.294,185,014,22.62,270.44,4.73,-1.18,, 26.929 ,27.43,28.68,,,,00000003,00000000,0102.146,11437,11286.28,10653.6,
04/01/2019,08:36:38,084843,4334.7951S,17327.1599E,5.2,73.2,084844,4334.7942S,17327.1776E,5.0,69.9, 17.1310, 34.5772,076.758,219,021,25.14,280.75,4.64,2.40,, 26.780 ,26.92,28.62,,,,00000003,00000000,0120.047,11515,11477.7,10677.07,
04/01/2019,08:37:38,084943,4334.7891S,17327.2742E,5.0,61.8,084944,4334.7828S,17327.2917E,5.0,58.4, 17.1245, 34.5774,066.058,223,015,17.53,275.54,4.90,0.11,, 26.908 ,26.96,28.57,,,,00000003,00000000,0109.497,11547,11442.4,10699.97,
04/01/2019,08:38:38,085043,4334.7891S,17327.3898E,5.0,70.2,085044,4334.7933S,17327.4069E,5.1,89.1, 17.1154, 34.5776,112.494,147,018,22.08,264.79,1.66,3.24,, 26.951 ,26.87,28.51,,,,00000003,00000000,0126.956,11523,11550.33,10734.4,
04/01/2019,08:39:38,085143,4334.8352S,17327.4839E,4.8,98.8,085144,4334.8450S,17327.4998E,4.8,111.7, 17.1108, 34.5793,135.035,137,021,25.47,275.65,-6.50,4.53,, 26.873 ,26.96,28.45,,,,00000003,00000000,0134.078,11552,11493.2,10763.16,
04/01/2019,08:40:38,085243,4334.8887S,17327.5589E,4.6,109.0,085244,4334.8992S,17327.5760E,4.3,111.1, 17.1063, 34.5799,133.234,134,018,22.02,271.62,-1.38,0.01,, 26.616 ,26.65,28.37,,,,00000003,00000000,0122.655,11584,11596.63,10798.17,
04/01/2019,08:41:38,085343,4334.9380S,17327.6315E,4.4,110.8,085344,4334.9475S,17327.6516E,4.4,109.3, 17.0960, 34.5802,124.814,158,015,19.38,284.28,-9.61,1.66,, 26.564 ,26.5,28.28,,,,00000003,00000000,0129.254,11582,11602.13,10826.83,
04/01/2019,08:42:38,085443,4334.9751S,17327.7257E,4.6,93.4,085444,4334.9768S,17327.7436E,4.7,79.2, 17.0925, 34.5813,081.778,193,018,24.23,281.06,2.18,3.29,, 26.200 ,26.49,28.19,,,,00000003,00000000,00120.53,11547,11487.27,10855.73,
04/01/2019,08:43:38,085543,4334.9783S,17327.8366E,4.8,72.1,085544,4334.9825S,17327.8531E,5.0,80.7, 17.0829, 34.5818,103.693,162,020,25.96,252.37,5.11,-0.73,, 26.093 ,26.19,28.09,,,,00000003,00000000,0109.038,11693,11646.17,10886.21,
04/01/2019,08:44:38,085643,4335.0164S,17327.9378E,4.9,91.3,085644,4335.0227S,17327.9543E,4.9,94.0, 17.0656, 34.5835,108.043,156,022,26.86,265.6,9.45,0.00,, 26.458 ,26.36,27.99,,,,00000003,00000000,0122.828,11276,11487.38,10910.98,
04/01/2019,08:45:38,085743,4335.0327S,17328.0388E,4.4,72.5,085744,4335.0251S,17328.0513E,3.9,43.8, 17.0459, 34.5859,039.634,240,022,24.51,271.94,4.53,-0.12,, 25.312 ,25.79,27.87,,,,00000003,00000000,0120.128,11704,11555.57,10936.56,
04/01/2019,08:46:38,085843,4334.9948S,17328.1137E,4.0,38.6,085844,4334.9895S,17328.1306E,4.3,52.8, 17.0416, 34.5867,072.366,207,020,25.47,264.22,2.75,4.15,, 25.527 ,25.3,27.74,,,,00000003,00000000,0113.862,11270,11778.35,10966.29,
04/01/2019,08:47:38,085943,4335.0114S,17328.2159E,4.4,79.2,085944,4335.0100S,17328.2338E,4.6,80.5, 17.0199, 34.5886,080.003,205,021,26.42,275.95,3.63,2.97,, 24.885 ,25.65,27.62,,,,00000003,00000000,0121.289,11741,11436.52,10991.78,
04/01/2019,08:48:38,090043,4335.0106S,17328.3127E,4.1,67.1,090044,4335.0076S,17328.3304E,3.9,64.4, 17.0172, 34.5898,073.773,194,016,22.73,259.59,3.94,3.03,, 24.955 ,24.72,27.47,,,,00000003,00000000,00132.01,11677,11840.49,11022.12,
04/01/2019,08:49:38,090143,4335.0131S,17328.4118E,4.4,71.7,090144,4335.0147S,17328.4294E,4.6,79.7, 16.9941, 34.5907,093.746,174,016,20.56,265.95,3.26,-0.01,, 23.729 ,24.35,27.36,,,,00000003,00000000,00121.45,11924,11853.33,11048.85,
04/01/2019,08:50:38,090243,4335.0296S,17328.5132E,4.4,76.2,090244,4335.0284S,17328.5320E,4.4,72.5, 16.9839, 34.5921,079.403,190,015,19.16,265.68,3.34,-1.27,, 23.189 ,23.47,27.28,,,,00000003,00000000,0108.578,11949,12004.7,11075.52,
04/01/2019,08:51:38,090343,4335.0298S,17328.6131E,4.3,66.8,090344,4335.0294S,17328.6313E,4.3,74.7, 16.9538, 34.5933,092.423,173,013,16.1,268.08,2.34,-0.83,, 22.240 ,23.05,27.22,,,,00000003,00000000,0109.038,12124,12010.65,11099.57,
04/01/2019,08:52:38,090443,4335.0491S,17328.7083E,4.3,80.4,090444,4335.0520S,17328.7287E,4.4,82.1, 16.9350, 34.5939,096.179,156,014,19.3,265.93,-3.29,4.94,, 22.178 ,22.2,27.15,,,,00000003,00000000,00132.01,12077,12155,11121.5,
04/01/2019,08:53:38,090543,4335.0573S,17328.8014E,4.0,71.3,090544,4335.0547S,17328.8198E,3.9,60.0, 16.8903, 34.5954,065.512,209,013,15.39,264.12,2.16,2.25,, 20.770 ,21.62,27.08,,,,00000003,00000000,0120.543,12392,12256.22,11142.09,
04/01/2019,08:54:38,090643,4335.0520S,17328.8874E,3.8,64.6,090644,4335.0536S,17328.9054E,3.8,78.2, 16.8628, 34.5964,100.745,166,019,22.76,265.32,4.51,2.83,, 20.422 ,20.54,26.98,,,,00000003,00000000,0121.588,12431,12420.2,11167.15,
04/01/2019,08:55:38,090743,4335.0766S,17328.9726E,4.0,85.0,090744,4335.0783S,17328.9915E,4.0,83.4, 16.8372, 34.5966,086.733,175,019,23,262.54,6.24,4.79,, 20.141 ,20.38,26.89,,,,00000003,00000000,0140.969,12345,12239.45,11188.44,
04/01/2019,08:56:38,090843,4335.0787S,17329.0516E,3.4,68.2,090844,4335.0731S,17329.0706E,3.2,57.6, 16.8273, 34.5970,056.989,211,017,19.76,263.73,2.96,3.78,, 19.875 ,20.13,26.8,,,,00000003,00000000,0134.537,12501,12409.38,11207.63,
04/01/2019,08:57:38,090943,4335.0647S,17329.1276E,3.5,54.9,090944,4335.0601S,17329.1461E,3.6,60.6, 16.8203, 34.5967,070.796,194,015,18.43,259.04,5.21,0.37,, 19.858 ,19.91,26.7,,,,00000003,00000000,0119.819,12551,12522.4,11228.19,
04/01/2019,08:58:38,091043,4335.0636S,17329.2171E,3.9,65.4,091044,4335.0602S,17329.2376E,3.9,67.2, 16.8165, 34.5970,075.883,198,011,13.71,268.14,5.06,-1.46,, 20.046 ,20.08,26.6,,,,00000003,00000000,0102.605,12469,12482.02,11243.16,
04/01/2019,08:59:38,091143,4335.0615S,17329.3071E,3.9,65.1,091144,4335.0602S,17329.3279E,3.9,67.9, 16.7955, 34.5968,079.312,188,011,14.71,262.53,1.70,-3.60,, 20.510 ,20.2,26.51,,,,00000003,00000000,0110.875,12015,12403.95,11257.11,
04/01/2019,09:00:38,091243,4335.0589S,17329.4028E,4.1,64.2,091244,4335.0571S,17329.4224E,4.2,63.9, 16.7798, 34.5969,078.328,170,015,19.19,247.08,0.51,5.77,, 20.240 ,20.32,26.41,,,,00000003,00000000,0127.645,12454,12322.73,11270.64,
04/01/2019,09:01:38,091343,4335.0513S,17329.4949E,4.1,60.6,091344,4335.0505S,17329.5150E,4.2,61.1, 16.7737, 34.5967,073.092,191,018,21.93,259.77,1.22,2.06,, 19.960 ,20.14,26.32,,,,00000003,00000000,0118.166,12459,12331.97,11281.15,
04/01/2019,09:02:38,091443,4335.0524S,17329.5913E,4.2,69.1,091444,4335.0547S,17329.6111E,4.2,77.1, 16.7759, 34.5965,091.461,151,011,15.11,246.16,1.48,-1.95,, 19.970 ,20.04,26.23,,,,00000003,00000000,0120.475,12489,12509.05,11293.19,
04/01/2019,09:03:38,091543,4335.0585S,17329.6656E,3.1,65.0,091544,4335.0501S,17329.6823E,2.6,48.9, 16.7858, 34.5968,049.104,225,012,15.07,263.9,4.81,0.46,, 20.459 ,20.08,26.13,,,,00000003,00000000,0108.578,11051,12220.55,11301.45,
