Date,Time,GPS-nav-time,GPS-nav-Lat,GPS-nav-Lon,GPS-nav-SOG,GPS-nav-COG,GPS-lab-time,GPS-lab-Lat,GPS-lab-Lon,GPS-lab-SOG,GPS-lab-COG,Tsal-temp,Tsal-sal,ADU5-Heading,Wind-Dir,WIND-Spd,TRUE-WIND-Speed,TRUE-WIND-Direction,Seatex-MRU-Roll,Seatex-MRU-Pitch,Chirp-DBT-meters,FluorT-Chl-Invivo,Fluor-Chl-avg-1-min-Value,Fluor-Chl-avg-60-min-Value,Fluor-CDOM-Raw,Fluor-CDOM-avg-1-mins-Value,Fluor-CDOM-avg-60-mins-Value,LCI90-payout,LCI90-Spd,LCI90-tension,Xmiss-NewDigital-RAW,Xmiss-NewDigital-1-min-Value,Xmiss-NewDigital-avg-60-min-Value,
05/01/2019,18:45:27,185918,1643.9154S,15126.3005W,1.0,138.8,185919,1643.9236S,15126.2939W,0.9,157.6, 29.1213, 35.4188,149.338,316,022,21.52,99.16,2.63,1.37,, 6.977  ,7.11,2.91,,,,00026.25,00000000,0175.211,00261,288.98,13205.84,
05/01/2019,18:46:27,190018,1643.9358S,15126.3044W,1.3,169.3,190019,1643.9408S,15126.2939W,1.3,140.6, 29.1162, 35.4196,131.990,328,019,17.01,100.58,1.89,1.71,, 6.920  ,7,2.99,,,,00026.25,00000000,0175.602,00369,212.28,12981.14,
05/01/2019,18:47:27,190118,1643.9652S,15126.2788W,2.2,130.2,190119,1643.9694S,15126.2688W,2.5,112.5, 29.1070, 35.4196,126.155,354,024,21.52,120.9,1.74,1.88,, 6.886  ,7.02,3.06,,,,00026.25,00000000,0175.947,00194,234.73,12756.87,
05/01/2019,18:48:27,190218,1643.9950S,15126.2437W,2.7,118.7,190219,1644.0029S,15126.2337W,2.9,102.2, 29.0976, 35.4200,115.919,346,020,17.1,102.03,0.66,1.70,, 7.028  ,7,3.13,,,,00026.25,00000000,0176.453,00240,240.67,12532.83,
05/01/2019,18:49:27,190318,1644.0230S,15126.1950W,3.1,109.0,190319,1644.0330S,15126.1871W,3.2,101.6, 29.0942, 35.4219,122.245,351,022,18.92,118.08,0.70,1.49,, 7.199  ,7.01,3.2,,,,00026.25,00000000,0176.465,00363,249.72,12308.97,
05/01/2019,18:50:27,190418,1644.0576S,15126.1489W,3.2,115.1,190419,1644.0655S,15126.1410W,3.2,108.7, 29.0854, 35.4304,129.551,343,022,18.81,113.21,0.67,1.83,, 7.044  ,7.08,3.28,,,,00026.25,00000000,0175.454,00255,268.68,12082.01,
05/01/2019,18:51:27,190518,1644.0970S,15126.1078W,3.3,122.9,190519,1644.1045S,15126.0990W,3.3,116.0, 29.0911, 35.4316,135.094,331,025,21.75,104.87,1.97,1.75,, 7.201  ,7.11,3.35,,,,00026.25,00000000,0176.097,00235,278.47,11858.23,
05/01/2019,18:52:27,190618,1644.1324S,15126.0762W,2.6,127.3,190619,1644.1399S,15126.0686W,2.2,122.1, 29.0837, 35.4323,139.622,327,024,21.88,105.28,1.76,1.86,, 7.030  ,7.14,3.42,,,,00026.25,00000000,0175.489,00497,346.63,11636.45,
05/01/2019,18:53:27,190718,1644.1686S,15126.0485W,2.8,129.4,190719,1644.1719S,15126.0411W,2.9,116.3, 29.0783, 35.4309,129.932,339,024,21.14,105.71,1.82,1.92,, 7.212  ,7.16,3.5,,,,00026.25,00000000,0176.017,00406,397.28,11415.04,
05/01/2019,18:54:27,190818,1644.2095S,15126.0126W,3.1,127.3,190819,1644.2136S,15126.0024W,3.2,117.6, 29.0802, 35.4318,130.865,335,022,18.88,104.01,1.06,1.38,, 7.100  ,7.17,3.57,,,,00026.25,00000000,0176.052,00435,430.4,11194.14,
05/01/2019,18:55:27,190918,1644.2556S,15125.9732W,3.5,127.7,190919,1644.2620S,15125.9641W,3.6,120.7, 29.0740, 35.4379,136.276,324,023,19.67,96.61,1.89,1.46,, 6.992  ,7.05,3.65,,,,00026.25,00000000,00175.34,00403,437.47,10969.59,
05/01/2019,18:56:27,191018,1644.2971S,15125.9440W,2.9,133.1,191019,1644.3050S,15125.9366W,2.5,127.4, 29.0778, 35.4400,144.659,309,024,21.97,90.03,2.63,1.36,, 6.926  ,6.97,3.72,,,,00026.25,00000000,0175.179,00484,427.97,10748.71,
05/01/2019,18:57:27,191118,1644.3319S,15125.9289W,2.3,144.3,191119,1644.3428S,15125.9209W,2.1,137.5, 29.0789, 35.4404,148.750,312,024,22.43,94.12,2.37,1.55,, 6.738  ,6.85,3.79,,,,00026.25,00000000,0176.006,00399,414.52,10527.5,
05/01/2019,18:58:27,191218,1644.3598S,15125.9171W,1.8,145.4,191219,1644.3715S,15125.9103W,1.5,137.2, 29.0793, 35.4401,155.767,313,020,18.66,109.82,1.76,0.57,, 6.845  ,6.85,3.86,,,,00026.25,00000000,0168.537,00679,433.38,10306.71,
05/01/2019,18:59:27,191318,1644.3825S,15125.9084W,1.5,148.2,191319,1644.3952S,15125.9071W,1.5,157.5, 29.0778, 35.4372,173.781,283,023,22.19,97.54,2.74,0.93,, 6.727  ,6.8,3.93,,,,00026.25,00000000,0167.618,00285,431.49,10085.66,
05/01/2019,19:00:27,191418,1644.4083S,15125.9099W,1.4,166.5,191419,1644.4189S,15125.9064W,1.2,144.9, 29.0559, 35.3286,153.485,318,018,17.01,109.26,0.78,2.68,, 7.314  ,6.99,4,,,,00026.25,00000000,0176.616,00510,434.45,9861.09,
05/01/2019,19:01:27,191518,1644.4195S,15125.9088W,0.8,156.5,191519,1644.4326S,15125.9054W,0.5,166.0, 29.0601, 35.2672,164.857,311,022,22.71,110.83,1.33,1.56,, 7.549  ,7.6,4.08,,,,00026.25,00000000,0175.904,00416,453.27,9640.6,
05/01/2019,19:02:27,191618,1644.4306S,15125.9096W,0.7,183.8,191619,1644.4422S,15125.9116W,0.7,187.0, 29.0710, 35.2650,172.252,289,023,21.9,104.44,3.54,0.45,, 7.470  ,7.49,4.16,,,,00026.25,00000000,0162.794,00449,429.52,9419.92,
05/01/2019,19:03:27,191718,1644.4408S,15125.9172W,0.7,194.7,191719,1644.4530S,15125.9178W,0.5,194.5, 29.0734, 35.2711,166.843,293,023,23.04,99.85,3.01,-0.70,, 7.374  ,7.42,4.24,,,,00026.25,00000000,0163.253,00356,436.82,9199.11,
05/01/2019,19:04:27,191818,1644.4390S,15125.9238W,0.4,261.2,191819,1644.4524S,15125.9275W,0.6,265.8, 29.0654, 35.2868,184.321,283,021,21.57,106.55,2.08,0.91,, 7.141  ,7.22,4.31,,,,00026.25,00000000,0176.881,00482,433.56,8978.52,
05/01/2019,19:05:27,191918,1644.4538S,15125.9353W,1.1,210.5,191919,1644.4642S,15125.9380W,1.2,185.7, 29.0689, 35.2918,178.771,282,023,23.84,102.12,0.61,2.04,, 7.054  ,7.11,4.39,,,,00026.25,00000000,0174.089,00588,459.23,8756.72,
05/01/2019,19:06:27,192018,1644.4744S,15125.9430W,1.3,187.2,192019,1644.4852S,15125.9420W,1.1,167.3, 29.0737, 35.3180,166.325,300,022,21.49,103.76,3.39,0.66,, 6.969  ,7.08,4.46,,,,00026.25,00000000,0176.938,00403,443.68,8533.63,
05/01/2019,19:07:27,192118,1644.4867S,15125.9494W,0.9,184.9,192119,1644.5033S,15125.9458W,0.7,183.9, 29.0774, 35.3335,163.089,303,023,22.86,104.37,1.82,1.55,, 7.005  ,6.92,4.53,,,,00026.25,00000000,0176.353,00524,453.38,8313.03,
05/01/2019,19:08:27,192218,1644.4931S,15125.9566W,0.6,207.8,192219,1644.5071S,15125.9525W,0.6,228.0, 29.0798, 35.3329,167.359,285,021,21.43,91.24,2.44,0.50,, 6.949  ,6.97,4.6,,,,00026.25,00000000,0169.226,00347,445.39,8092.41,
05/01/2019,19:09:27,192318,1644.5001S,15125.9636W,0.7,222.0,192319,1644.5116S,15125.9632W,0.7,198.9, 29.0741, 35.3333,167.099,297,017,18.02,106.16,1.25,1.84,, 6.810  ,6.84,4.67,,,,00026.25,00000000,00175.94,00674,471.43,7872.22,
05/01/2019,19:10:27,192418,1644.5150S,15125.9687W,0.9,189.8,192419,1644.5279S,15125.9675W,0.8,169.7, 29.0774, 35.3316,157.927,309,021,20.64,106.3,2.77,0.92,, 6.903  ,6.82,4.74,,,,00026.25,00000000,0167.848,00381,490.95,7650.83,
05/01/2019,19:11:27,192518,1644.5290S,15125.9731W,1.0,185.5,192519,1644.5430S,15125.9725W,0.9,176.5, 29.0785, 35.3339,151.892,307,021,20.83,96.47,1.32,2.33,, 6.911  ,6.92,4.81,,,,00026.25,00000000,0176.595,00643,468.18,7428.62,
05/01/2019,19:12:27,192618,1644.5390S,15125.9799W,0.6,190.7,192619,1644.5481S,15125.9696W,0.3,192.5, 29.0774, 35.3276,129.279,329,022,22.02,97.5,0.84,1.63,, 7.047  ,6.9,4.88,,,,00026.25,00000000,00176.71,00360,490.23,7208.64,
05/01/2019,19:13:27,192718,1644.5436S,15125.9873W,0.6,214.5,192719,1644.5506S,15125.9748W,0.4,194.2, 29.0781, 35.3284,122.939,338,023,22,103.9,0.77,0.58,, 6.898  ,6.97,4.95,,,,00026.25,00000000,0177.113,00651,503.98,6988.91,
05/01/2019,19:14:27,192818,1644.5451S,15125.9991W,0.6,253.3,192819,1644.5520S,15125.9852W,0.8,249.8, 29.0796, 35.3279,129.752,342,014,16.66,103.18,0.09,2.11,, 6.852  ,6.84,5.02,,,,00026.25,00000000,0176.619,00504,521.13,6769.54,
05/01/2019,19:15:27,192918,1644.5476S,15126.0053W,0.5,220.8,192919,1644.5546S,15125.9921W,0.3,171.9, 29.0804, 35.3280,123.364,335,015,14.9,102.82,0.61,0.94,, 6.842  ,6.83,5.09,,,,00026.25,00000000,0169.456,00521,508.52,6547.98,
05/01/2019,19:16:27,193018,1644.5532S,15126.0135W,0.5,226.4,193019,1644.5555S,15125.9976W,0.8,262.6, 29.0816, 35.3255,092.471,018,023,23.63,107.36,-0.05,1.62,, 6.842  ,6.87,5.16,,,,00026.25,00000000,0177.699,00507,560.77,6331.22,
05/01/2019,19:17:27,193118,1644.5479S,15126.0194W,0.5,300.9,193119,1644.5447S,15126.0037W,0.8,341.3, 29.0809, 35.3204,076.605,020,023,22.41,103.37,-0.58,2.21,, 6.699  ,6.81,5.23,,,,00026.25,00000000,0178.515,00684,558.72,6108.66,
05/01/2019,19:18:27,193218,1644.5364S,15126.0066W,0.8,37.5,193219,1644.5433S,15125.9927W,0.9,91.9, 29.0712, 35.3149,128.589,328,020,19.1,96.81,1.04,2.08,, 6.771  ,6.75,5.3,,,,00026.25,00000000,0176.459,00423,572.45,5890.15,
05/01/2019,19:19:27,193319,1644.5666S,15125.9665W,2.9,112.8,193320,1644.5713S,15125.9535W,4.4,105.0, 29.0743, 35.3168,125.838,352,022,17.74,121,1.48,1.38,, 6.935  ,6.83,5.37,,,,00026.25,00000000,0176.999,00636,546.97,5668.94,
05/01/2019,19:20:27,193419,1644.6089S,15125.8883W,4.9,103.2,193419,1644.6086S,15125.8741W,5.5,84.4, 29.0813, 35.3143,106.349,359,028,22.95,110.26,0.35,2.17,, 7.806  ,7.33,5.44,,,,00026.25,00000000,0176.506,00747,618.98,5451.23,
05/01/2019,19:21:27,193519,1644.6127S,15125.7915W,5.4,77.9,193520,1644.6103S,15125.7763W,5.7,53.3, 29.0793, 35.3343,078.891,016,030,24.48,94.96,-0.48,0.03,, 7.191  ,7.33,5.52,,,,00026.25,00000000,0159.348,00645,688.68,5234.9,
05/01/2019,19:22:27,193619,1644.6038S,15125.6837W,6.2,76.1,193620,1644.6035S,15125.6656W,6.6,68.5, 29.0770, 35.3711,086.969,010,028,22.42,105.04,-0.27,0.87,, 7.041  ,7.18,5.6,,,,00026.25,00000000,0178.298,00669,699.58,5017,
05/01/2019,19:23:27,193719,1644.5977S,15125.5656W,6.7,74.6,193720,1644.5986S,15125.5481W,6.7,61.8, 29.0778, 35.3919,087.255,010,030,24.85,106.25,-1.42,0.75,, 7.320  ,7.32,5.67,,,,00026.25,00000000,0168.537,00851,671.47,4800.21,
05/01/2019,19:24:27,193819,1644.5922S,15125.4476W,6.7,75.2,193820,1644.5968S,15125.4320W,6.9,67.5, 29.0749, 35.4040,091.979,011,028,22.74,113.12,-1.05,0.81,, 7.436  ,7.5,5.75,,,,00026.25,00000000,0186.915,00770,702.65,4581.2,
05/01/2019,19:25:27,193919,1644.5955S,15125.3340W,6.4,79.0,193920,1644.6004S,15125.3182W,6.2,73.1, 29.0709, 35.4123,094.921,010,026,19.93,113.09,-0.84,0.70,, 7.284  ,7.37,5.83,,,,00026.25,00000000,0185.537,00530,669.87,4364,
05/01/2019,19:26:27,194019,1644.6000S,15125.2246W,6.2,78.4,194020,1644.6035S,15125.2093W,5.8,70.5, 29.0613, 35.3774,096.152,011,031,22.21,108.89,-1.51,-0.28,, 7.565  ,7.4,5.91,,,,00026.25,00000000,0156.132,00718,547.78,4144.69,
05/01/2019,19:27:27,194119,1644.6000S,15125.1310W,5.5,75.2,194120,1644.6018S,15125.1146W,5.2,61.8, 29.0673, 35.3797,089.001,015,023,19.5,115.06,-1.20,3.52,, 8.101  ,7.65,5.99,,,,00026.25,00000000,0162.564,00620,585.63,3928.93,
05/01/2019,19:28:27,194219,1644.6003S,15125.0499W,4.6,77.1,194220,1644.6001S,15125.0337W,4.3,60.5, 29.0646, 35.4170,078.534,027,021,18.22,115.15,-3.42,4.31,, 7.144  ,7.41,6.07,,,,00026.25,00000000,0202.766,00707,599.69,3707.18,
05/01/2019,19:29:27,194319,1644.5798S,15124.9860W,3.9,59.7,194320,1644.5724S,15124.9731W,3.9,42.3, 29.0670, 35.4231,070.884,046,027,25.83,118.96,-0.57,4.77,, 7.014  ,7.06,6.15,,,,00026.25,00000000,0152.226,00684,672.65,3487.68,
05/01/2019,19:30:27,194419,1644.5524S,15124.9349W,3.3,49.3,194420,1644.5471S,15124.9213W,3.2,36.0, 29.0715, 35.4237,071.037,030,022,22.39,118.97,0.15,6.60,, 7.059  ,7.08,6.22,,,,00026.25,00000000,0177.886,00574,648.87,3270.76,
05/01/2019,19:31:27,194519,1644.5275S,15124.8896W,3.1,45.8,194520,1644.5191S,15124.8763W,3.5,33.8, 29.0649, 35.4357,068.663,056,024,25.86,125.4,-0.84,5.39,, 6.797  ,6.89,6.29,,,,00026.25,00000000,0165.091,00508,661.35,3053.69,
05/01/2019,19:32:27,194619,1644.4985S,15124.8249W,4.0,51.4,194620,1644.4892S,15124.8136W,4.2,37.3, 29.0633, 35.4424,064.359,044,027,23.13,120.4,-1.24,0.23,, 6.810  ,6.77,6.36,,,,00026.25,00000000,0181.574,00743,696.4,2840.17,
05/01/2019,19:33:27,194719,1644.4579S,15124.7583W,4.5,46.4,194720,1644.4478S,15124.7480W,4.8,37.0, 29.0746, 35.4403,062.097,064,026,23.97,107.09,-5.82,-3.76,, 6.682  ,6.71,6.43,,,,00026.25,00000000,0146.253,00841,656.15,2620.18,
05/01/2019,19:34:27,194819,1644.4103S,15124.6922W,4.8,39.6,194820,1644.4006S,15124.6799W,4.8,28.1, 29.0447, 35.3979,061.055,062,027,27.83,132.95,1.94,-0.27,, 6.817  ,6.77,6.49,,,,00026.25,00000000,0160.496,00516,604.22,2398.78,
05/01/2019,19:35:27,194919,1644.3608S,15124.6190W,5.2,42.0,194920,1644.3514S,15124.6064W,5.2,30.5, 29.0611, 35.4263,059.725,048,023,22.43,120.79,-4.62,1.41,, 6.597  ,6.91,6.56,,,,00026.25,00000000,00157.28,00704,579.35,2180.5,
05/01/2019,19:36:27,195019,1644.3105S,15124.5531W,4.8,39.7,195020,1644.3023S,15124.5410W,4.6,33.1, 29.1355, 35.4820,065.342,040,023,22.12,116.83,-2.49,3.83,, 7.011  ,6.69,6.63,,,,00026.25,00000000,0200.239,00455,650.75,1962.96,
05/01/2019,19:37:27,195119,1644.2676S,15124.4910W,4.6,39.7,195120,1644.2586S,15124.4774W,4.6,29.4, 29.2224, 35.5615,064.964,047,027,24.86,124.55,-4.76,1.74,, 6.174  ,6.19,6.69,,,,00026.25,00000000,0171.523,00482,640.47,1749.1,
05/01/2019,19:38:27,195219,1644.2286S,15124.4224W,4.5,48.1,195220,1644.2204S,15124.4117W,4.3,41.5, 29.2393, 35.5670,066.075,025,025,22.45,99.46,-6.88,-1.09,, 5.612  ,5.96,6.74,,,,00026.25,00000000,0182.942,01017,578.53,1523.66,
05/01/2019,19:39:27,195319,1644.1825S,15124.3555W,4.8,40.4,195320,1644.1733S,15124.3459W,5.1,25.9, 29.2347, 35.5602,056.569,040,025,23.78,107.96,-0.63,-1.41,, 5.628  ,5.71,6.79,,,,00026.25,00000000,0160.956,00609,723.65,1307.08,
05/01/2019,19:40:27,195419,1644.1295S,15124.2798W,5.3,42.3,195420,1644.1206S,15124.2685W,5.3,35.3, 29.2261, 35.5528,063.798,038,026,24.31,112.56,-2.17,2.23,, 5.707  ,5.68,6.84,,,,00026.25,00000000,0159.578,00655,756.8,1091.46,
05/01/2019,19:41:28,195519,1644.0890S,15124.2089W,4.7,45.1,195520,1644.0801S,15124.1978W,4.6,36.4, 29.2321, 35.5541,062.494,025,025,24.48,110.8,-3.12,2.20,, 6.095  ,5.76,6.9,,,,00026.25,00000000,0180.174,00386,704.72,874.86,
05/01/2019,19:42:28,195619,1644.0459S,15124.1426W,4.7,42.9,195620,1644.0361S,15124.1320W,4.9,35.2, 29.2196, 35.5451,063.715,035,018,18.59,113.55,-3.30,2.14,, 6.228  ,6.08,6.95,,,,00026.25,00000000,0182.299,00380,674.8,661.79,
05/01/2019,19:43:28,195719,1643.9998S,15124.0666W,5.0,44.3,195720,1643.9896S,15124.0565W,4.9,36.2, 29.2683, 35.6007,062.242,025,022,23,105.12,-0.43,4.97,, 5.328  ,5.81,6.95,,,,00026.25,00000000,00165.78,00384,649.75,577.12,
05/01/2019,19:44:28,195819,1643.9583S,15124.0043W,4.5,42.5,195820,1643.9478S,15123.9932W,4.5,32.3, 29.3593, 35.6750,061.506,026,025,22.67,95.78,-6.76,-0.61,, 5.174  ,5.38,6.89,,,,00026.25,00000000,0154.523,00589,622.95,516.61,
05/01/2019,19:45:28,195919,1643.9148S,15123.9332W,4.9,46.7,195920,1643.9063S,15123.9199W,5.0,44.7, 29.3956, 35.7031,076.680,032,029,22.07,103.43,-6.06,-0.68,, 4.411  ,4.65,6.85,,,,00026.25,00000000,00174.51,00602,726.25,524.31,
05/01/2019,19:46:28,200019,1643.8968S,15123.8717W,3.8,59.3,200020,1643.8915S,15123.8583W,3.5,51.3, 29.4005, 35.7114,082.465,026,032,26.85,107.21,-0.93,-1.83,, 4.289  ,4.34,6.81,,,,00026.25,00000000,0157.969,00386,677.95,532.08,
05/01/2019,19:47:28,200119,1643.8888S,15123.8196W,3.1,69.9,200120,1643.8838S,15123.8035W,2.9,60.8, 29.4046, 35.7218,082.383,031,027,22.77,105.09,-4.36,-2.71,, 3.913  ,4.01,6.76,,,,00026.25,00000000,0164.172,00568,685.44,540.08,
05/01/2019,19:48:28,200219,1643.8513S,15123.7647W,3.9,39.9,200220,1643.8421S,15123.7521W,4.4,23.1, 29.4288, 35.7566,063.132,048,028,23.02,120.4,-4.52,0.24,, 3.911  ,3.75,6.7,,,,00026.25,00000000,0151.537,00883,851.58,550.15,
05/01/2019,19:49:28,200319,1643.8095S,15123.6976W,4.6,44.8,200320,1643.7986S,15123.6869W,5.0,34.3, 29.4720, 35.7878,063.060,043,025,26.05,118.68,-4.51,1.90,, 3.628  ,3.85,6.65,,,,00026.25,00000000,0163.942,00530,750.62,558.57,
05/01/2019,19:50:28,200419,1643.7541S,15123.6206W,5.4,39.2,200420,1643.7423S,15123.6104W,5.8,27.8, 29.4845, 35.8127,056.031,051,026,25.74,120.25,-2.41,-3.25,, 3.725  ,3.66,6.59,,,,00026.25,00000000,0149.469,00378,802.95,567.27,
05/01/2019,19:51:28,200519,1643.6913S,15123.5478W,5.5,35.5,200520,1643.6810S,15123.5368W,5.2,29.0, 29.5082, 35.8341,062.902,036,023,21.8,112.49,-4.92,5.61,, 3.914  ,3.86,6.54,,,,00026.25,00000000,0183.047,00898,736.12,574.76,
05/01/2019,19:52:28,200619,1643.6461S,15123.4778W,5.1,43.4,200620,1643.6355S,15123.4649W,5.2,34.6, 29.5367, 35.8726,061.124,021,019,15.98,96.17,-9.27,4.10,, 3.877  ,3.96,6.48,,,,00026.25,00000000,0215.401,00259,614.64,579.26,
05/01/2019,19:53:28,200719,1643.5939S,15123.4083W,5.0,38.4,200720,1643.5843S,15123.3968W,5.0,30.0, 29.6022, 35.9190,063.242,034,023,19.09,118.23,-3.81,4.07,, 3.781  ,3.88,6.43,,,,00026.25,00000000,0185.701,00488,632.15,583.44,
05/01/2019,19:54:28,200819,1643.5499S,15123.3421W,4.7,41.0,200820,1643.5391S,15123.3311W,4.8,26.2, 29.6193, 35.9369,054.722,029,023,20.82,94.94,-3.40,4.49,, 3.557  ,3.63,6.37,,,,00026.25,00000000,0176.807,00433,660.97,587.61,
05/01/2019,19:55:28,200919,1643.4950S,15123.2799W,4.7,35.6,200920,1643.4855S,15123.2684W,4.5,29.0, 29.6288, 35.9475,061.987,039,025,23.99,111.26,-5.11,-1.14,, 3.327  ,3.71,6.32,,,,00026.25,00000000,00157.28,00979,676.48,591.92,
05/01/2019,19:56:28,201019,1643.4474S,15123.2116W,5.0,40.9,201020,1643.4369S,15123.1993W,5.2,32.6, 29.6383, 35.9571,063.887,039,025,23.64,114.38,-11.26,2.15,, 3.472  ,3.46,6.26,,,,00026.25,00000000,00199.78,00829,654.38,596.26,
05/01/2019,19:57:28,201119,1643.3866S,15123.1375W,5.5,34.5,201120,1643.3743S,15123.1267W,5.6,19.5, 29.6363, 35.9697,054.898,044,022,23.67,113.59,-5.17,0.55,, 3.118  ,3.29,6.2,,,,00026.25,00000000,0185.656,00763,806.05,603.03,
05/01/2019,19:58:28,201219,1643.3291S,15123.0657W,5.4,38.1,201220,1643.3204S,15123.0526W,5.4,30.8, 29.6522, 35.9867,067.180,043,027,26.83,136.11,1.19,6.43,, 3.917  ,3.69,6.14,,,,00026.25,00000000,0173.131,00439,625.62,605.93,
05/01/2019,19:59:28,201319,1643.2827S,15122.9883W,5.3,42.1,201320,1643.2711S,15122.9762W,5.3,30.5, 29.6677, 36.0040,057.220,041,025,26,115.47,-6.43,2.24,, 3.274  ,3.34,6.09,,,,00026.25,00000000,0195.415,00692,767.28,611.87,
05/01/2019,20:00:28,201419,1643.2208S,15122.9165W,5.5,36.8,201420,1643.2097S,15122.9043W,5.7,29.1, 29.6720, 36.0164,059.889,046,024,23.37,119.63,-6.27,1.83,, 3.709  ,3.5,6.03,,,,00026.25,00000000,0167.848,00668,678.53,616.33,
05/01/2019,20:01:28,201519,1643.1667S,15122.8547W,4.6,35.3,201520,1643.1574S,15122.8427W,4.0,23.6, 29.6693, 36.0140,058.310,027,019,20.28,93.12,-2.04,2.11,, 4.165  ,3.45,5.96,,,,00026.25,00000000,0183.842,00404,714.65,620.61,
05/01/2019,20:02:28,201619,1643.1207S,15122.7959W,4.4,39.4,201620,1643.1122S,15122.7827W,4.4,29.9, 29.6744, 36.0369,059.224,042,027,25.91,110.2,-2.90,1.55,, 3.213  ,3.58,5.89,,,,00026.25,00000000,0164.172,00525,623.69,623.59,
05/01/2019,20:03:28,201719,1643.0683S,15122.7372W,4.6,34.5,201720,1643.0576S,15122.7251W,4.6,24.2, 29.6952, 36.0595,057.073,041,021,20.87,105.62,-4.15,2.20,, 3.656  ,3.5,5.83,,,,00026.25,00000000,00181.97,00634,650.47,626.98,
05/01/2019,20:04:28,201819,1643.0124S,15122.6696W,5.1,36.5,201820,1643.0020S,15122.6578W,5.2,29.2, 29.6944, 36.0611,063.905,038,025,19.95,103.97,-10.22,0.61,, 3.820  ,3.3,5.76,,,,00026.25,00000000,0175.658,00600,748.47,632.05,
05/01/2019,20:05:28,201919,1642.9687S,15122.5909W,5.1,49.9,201920,1642.9619S,15122.5785W,5.0,47.5, 29.7083, 36.0890,069.921,012,020,16.13,92.02,-3.27,7.35,, 3.223  ,3.41,5.7,,,,00026.25,00000000,00208.05,00593,681.2,636.14,
05/01/2019,20:06:28,202019,1642.9289S,15122.5210W,4.8,44.4,202020,1642.9188S,15122.5086W,4.9,31.4, 29.6430, 35.9967,057.217,040,020,18.54,111.17,-1.30,2.02,, 4.527  ,3.82,5.65,,,,00026.25,00000000,0169.456,00223,680,639.85,
05/01/2019,20:07:28,202119,1642.8801S,15122.4571W,4.6,38.7,202120,1642.8711S,15122.4456W,4.5,26.1, 29.6237, 35.9749,058.585,040,026,25.02,108.46,-3.96,0.12,, 4.093  ,4,5.6,,,,00026.25,00000000,0155.442,00704,773.47,645.28,
05/01/2019,20:08:28,202219,1642.8381S,15122.3869W,4.8,45.6,202220,1642.8290S,15122.3729W,4.9,39.1, 29.6150, 35.9664,063.538,026,020,17.42,102.66,-5.24,6.36,, 3.523  ,3.91,5.55,,,,00026.25,00000000,0211.266,00808,625.62,648.3,
05/01/2019,20:09:28,202319,1642.8008S,15122.3142W,5.0,47.8,202320,1642.7896S,15122.2998W,5.3,35.8, 29.5784, 35.9308,056.531,034,023,16.84,96.12,-7.19,0.83,, 3.654  ,3.93,5.5,,,,00026.25,00000000,0171.294,00694,638.62,651.2,
05/01/2019,20:10:28,202419,1642.7461S,15122.2416W,5.1,41.6,202420,1642.7375S,15122.2289W,5.2,35.6, 29.5652, 35.9155,059.375,027,021,15.83,95.94,-4.93,2.19,, 3.840  ,3.66,5.45,,,,00026.25,00000000,00187.29,00695,724.97,654.67,
05/01/2019,20:11:28,202519,1642.7001S,15122.1638W,5.3,45.6,202520,1642.6909S,15122.1513W,5.6,38.8, 29.5477, 35.8956,061.726,027,019,15.98,104.28,-8.80,1.44,, 3.669  ,3.71,5.39,,,,00026.25,00000000,0188.753,00677,710.68,659.05,
05/01/2019,20:12:28,202619,1642.6536S,15122.0914W,5.0,43.4,202620,1642.6444S,15122.0797W,4.9,32.6, 29.5437, 35.8880,055.732,035,025,22.8,101.25,-0.89,3.77,, 3.899  ,3.52,5.34,,,,00026.25,00000000,0190.782,00439,965.83,666.39,
05/01/2019,20:13:28,202719,1642.6084S,15122.0268W,4.5,41.8,202720,1642.5976S,15122.0143W,4.3,32.8, 29.5366, 35.8760,059.109,034,018,23.2,130.78,-6.46,8.44,, 3.772  ,4.07,5.29,,,,00026.25,00000000,0206.212,00315,670.47,669.46,
05/01/2019,20:14:28,202819,1642.5732S,15121.9671W,4.2,45.5,202820,1642.5628S,15121.9533W,4.1,33.7, 29.5191, 35.8630,061.054,061,026,17.28,96.97,-7.86,-5.22,, 3.574  ,3.85,5.24,,,,00026.25,00000000,0136.375,00919,717.02,672.62,
05/01/2019,20:15:28,202919,1642.5351S,15121.9049W,4.3,45.7,202920,1642.5279S,15121.8944W,4.4,33.2, 29.5179, 35.8549,059.399,032,025,26.46,107.6,-4.07,2.55,, 3.797  ,3.83,5.19,,,,00026.25,00000000,0173.591,00531,701.7,675.64,
05/01/2019,20:16:28,203019,1642.4936S,15121.8357W,4.6,45.7,203020,1642.4853S,15121.8232W,4.7,37.9, 29.5148, 35.8512,060.198,044,021,19.59,116.89,-6.50,2.98,, 3.423  ,3.67,5.14,,,,00026.25,00000000,0160.496,00643,759.67,679.19,
05/01/2019,20:17:28,203119,1642.4529S,15121.7625W,4.9,47.7,203120,1642.4444S,15121.7490W,5.1,38.0, 29.5206, 35.8488,059.733,042,020,20.48,104.46,-4.30,1.43,, 3.732  ,3.85,5.09,,,,00026.25,00000000,0173.361,00561,633.12,681.21,
05/01/2019,20:18:28,203219,1642.4037S,15121.6883W,5.2,43.2,203220,1642.3946S,15121.6744W,5.4,38.2, 29.5197, 35.8474,065.756,019,022,24.53,106.46,-3.19,6.11,, 3.529  ,3.46,5.03,,,,00026.25,00000000,0194.955,00706,805.82,685.5,
05/01/2019,20:19:28,203319,1642.3671S,15121.6115W,4.8,48.4,203320,1642.3576S,15121.5995W,4.8,34.9, 29.5178, 35.8443,054.941,035,026,21.02,91.56,-10.90,-0.01,, 3.346  ,3.49,4.98,,,,00026.25,00000000,0176.118,01054,859.92,690.98,
05/01/2019,20:20:28,203419,1642.3132S,15121.5431W,5.0,40.4,203420,1642.3027S,15121.5309W,5.0,30.1, 29.5109, 35.8418,054.907,048,025,19,106.76,-13.01,-0.95,, 3.445  ,3.81,4.92,,,,00026.25,00000000,00185.35,00968,809.25,693.48,
05/01/2019,20:21:28,203519,1642.2652S,15121.4719W,5.0,43.9,203520,1642.2570S,15121.4590W,5.0,40.8, 29.5155, 35.8384,064.875,039,024,22.19,115.47,-6.09,-0.57,, 3.906  ,3.79,4.86,,,,00026.25,00000000,00148.78,01121,688.65,693.07,
05/01/2019,20:22:28,203619,1642.2357S,15121.3979W,4.5,54.5,203621,1642.2293S,15121.3838W,4.3,43.7, 29.5196, 35.8350,059.264,036,023,20.6,104.67,-6.39,0.18,, 3.547  ,3.57,4.8,,,,00026.25,00000000,0193.807,00662,729.95,693.56,
05/01/2019,20:23:28,203719,1642.1842S,15121.3329W,4.9,38.5,203721,1642.1741S,15121.3210W,5.2,26.6, 29.5170, 35.8326,053.536,054,023,22.77,120.57,-5.42,0.51,, 3.455  ,3.59,4.74,,,,00026.25,00000000,0167.158,00833,780.73,695.48,
05/01/2019,20:24:28,203819,1642.1396S,15121.2629W,4.6,44.2,203821,1642.1309S,15121.2491W,4.2,37.6, 29.5168, 35.8320,057.236,041,023,21.26,108.15,-3.87,-1.96,, 3.402  ,3.49,4.67,,,,00026.25,00000000,00149.24,00860,903.12,698.39,
05/01/2019,20:25:28,203920,1642.0990S,15121.1928W,4.7,46.5,203920,1642.0917S,15121.1807W,4.8,39.6, 29.5247, 35.8313,061.143,033,023,17.64,90.52,-10.03,0.19,, 3.569  ,4.05,4.61,,,,00026.25,00000000,0173.591,01065,658.9,698.15,
05/01/2019,20:26:28,204020,1642.0609S,15121.1197W,4.6,48.5,204021,1642.0535S,15121.1067W,4.3,37.3, 29.5268, 35.8309,057.401,037,025,22.22,107.59,-3.13,1.43,, 3.656  ,3.64,4.55,,,,00026.25,00000000,0162.564,00466,798.12,702.2,
05/01/2019,20:27:28,204120,1642.0230S,15121.0529W,4.6,46.2,204121,1642.0129S,15121.0404W,4.6,38.2, 29.5315, 35.8300,060.782,027,021,18.35,98.78,-7.54,3.72,, 4.021  ,3.77,4.49,,,,00026.25,00000000,00190.82,00471,758.08,705.02,
05/01/2019,20:28:28,204220,1641.9836S,15120.9774W,4.8,49.5,204221,1641.9742S,15120.9655W,4.8,43.9, 29.5384, 35.8277,063.856,029,017,14.31,107.51,-6.94,-1.87,, 3.776  ,3.79,4.43,,,,00026.25,00000000,0147.172,01064,782,707.56,
05/01/2019,20:29:28,204320,1641.9439S,15120.9010W,5.1,47.7,204321,1641.9346S,15120.8880W,5.0,35.7, 29.5421, 35.8286,055.305,032,022,18.84,94.59,-6.18,-1.62,, 4.197  ,3.99,4.38,,,,00026.25,00000000,0202.996,00697,654.42,707.06,
05/01/2019,20:30:28,204420,1641.8958S,15120.8261W,5.1,45.7,204421,1641.8888S,15120.8136W,5.1,38.1, 29.5462, 35.8365,057.902,024,020,17.87,109.98,-7.99,0.21,, 3.833  ,3.91,4.32,,,,00026.25,00000000,00216.55,00992,860.52,709.79,
05/01/2019,20:31:28,204520,1641.8566S,15120.7575W,4.7,45.6,204521,1641.8501S,15120.7446W,4.9,38.9, 29.5517, 35.8364,061.661,026,019,22.12,110.69,-7.48,1.63,, 4.439  ,4.39,4.28,,,,00026.25,00000000,0182.883,00514,651.32,709.84,
05/01/2019,20:32:28,204620,1641.8201S,15120.6763W,5.2,51.3,204621,1641.8134S,15120.6644W,5.5,40.0, 29.5578, 35.8420,060.296,032,024,21.18,104.31,-1.68,-0.33,, 4.613  ,4.23,4.24,,,,00026.25,00000000,0186.903,00282,723.78,710.08,
05/01/2019,20:33:28,204720,1641.7758S,15120.5923W,5.4,48.8,204721,1641.7696S,15120.5816W,5.5,39.5, 29.5648, 35.8507,059.659,027,021,17.27,107.42,-4.12,4.23,, 4.375  ,4.06,4.19,,,,00026.25,00000000,0203.915,00308,769.87,711.7,
05/01/2019,20:34:28,204820,1641.7283S,15120.5209W,5.1,42.1,204821,1641.7207S,15120.5097W,5.0,29.7, 29.5779, 35.8617,053.766,047,024,23.79,112.42,-9.37,0.13,, 4.320  ,4.16,4.15,,,,00026.25,00000000,0193.807,00569,767.87,714.6,
05/01/2019,20:35:28,204920,1641.6844S,15120.4516W,4.8,45.6,204921,1641.6773S,15120.4382W,4.6,40.8, 29.5841, 35.8698,063.214,035,026,19.72,105.53,-7.62,-1.52,, 4.092  ,4.06,4.1,,,,00026.25,00000000,0159.118,00654,907.78,719.88,
05/01/2019,20:36:28,205020,1641.6490S,15120.3773W,4.6,51.5,205021,1641.6413S,15120.3629W,4.5,43.1, 29.6024, 35.8835,060.227,024,022,18.95,93.52,-4.30,1.11,, 3.933  ,4.21,4.06,,,,00026.25,00000000,0184.365,00651,798.93,722.73,
05/01/2019,20:37:28,205120,1641.6121S,15120.3116W,4.5,45.4,205121,1641.6024S,15120.2988W,4.8,29.9, 29.6209, 35.8952,051.675,036,022,21.8,122.2,-4.68,6.80,, 4.554  ,4.4,4.03,,,,00026.25,00000000,0181.976,00561,710.57,723.76,
05/01/2019,20:38:28,205220,1641.5607S,15120.2368W,5.2,43.7,205221,1641.5535S,15120.2242W,5.2,34.9, 29.6344, 35.9052,059.165,027,017,14.23,102.43,-1.61,5.76,, 3.799  ,4.26,4,,,,00026.25,00000000,0192.888,00875,717.5,726.29,
05/01/2019,20:39:28,205320,1641.5237S,15120.1678W,4.6,46.5,205321,1641.5193S,15120.1546W,4.1,38.1, 29.6359, 35.9081,062.075,027,022,19.68,98.39,2.91,-3.70,, 3.918  ,4.01,3.98,,,,00026.25,00000000,0184.446,00535,714.08,726.93,
05/01/2019,20:40:28,205420,1641.4963S,15120.1008W,4.4,52.2,205421,1641.4875S,15120.0867W,4.6,36.5, 29.6364, 35.9127,054.195,035,022,19.49,98.97,-4.59,2.87,, 3.807  ,4.04,3.95,,,,00026.25,00000000,0177.037,00550,599.47,724.35,
05/01/2019,20:41:28,205520,1641.4494S,15120.0243W,5.0,47.2,205521,1641.4423S,15120.0101W,5.2,38.3, 29.6380, 35.9230,060.186,030,021,22.51,116.93,-4.28,3.27,, 4.061  ,3.81,3.92,,,,00026.25,00000000,0196.793,00456,719.03,724.79,
05/01/2019,20:42:28,205620,1641.4087S,15119.9422W,5.3,49.7,205621,1641.4013S,15119.9286W,5.2,37.8, 29.6446, 35.9363,056.067,037,024,16.93,113.17,-3.11,-2.56,, 3.652  ,3.77,3.88,,,,00026.25,00000000,0173.821,00553,796.58,726.86,
05/01/2019,20:43:28,205720,1641.3577S,15119.8793W,4.9,38.4,205721,1641.3491S,15119.8678W,5.0,27.5, 29.6521, 35.9499,057.560,054,020,20.32,128.2,-4.62,7.15,, 4.312  ,4.09,3.85,,,,00026.25,00000000,0212.185,00798,642.07,726.67,
05/01/2019,20:44:28,205820,1641.3170S,15119.8120W,4.6,44.7,205821,1641.3078S,15119.7989W,4.8,33.2, 29.6505, 35.9582,056.920,046,027,25.8,113.85,-2.50,0.49,, 4.165  ,3.91,3.82,,,,00026.25,00000000,0151.996,00393,819.67,729.22,
05/01/2019,20:45:28,205920,1641.2686S,15119.7424W,4.9,40.9,205921,1641.2562S,15119.7315W,4.9,28.5, 29.6722, 35.9841,052.408,043,022,21.05,99.62,-8.17,0.15,, 4.616  ,4.46,3.82,,,,00026.25,00000000,0154.064,00407,484.77,725.01,
05/01/2019,20:46:28,210020,1641.2199S,15119.6750W,4.8,44.3,210021,1641.2122S,15119.6623W,4.5,40.6, 29.6793, 35.9995,061.622,024,028,27.03,90.61,0.62,-0.03,, 4.447  ,4.22,3.82,,,,00026.25,00000000,0155.672,00371,678.9,725.12,
05/01/2019,20:47:28,210120,1641.1762S,15119.6034W,4.9,43.0,210121,1641.1681S,15119.5889W,5.0,30.8, 29.6836, 36.0201,056.871,047,023,21.51,113.47,-1.30,5.00,, 4.373  ,4.33,3.82,,,,00026.25,00000000,0185.861,00363,640.83,723.96,
05/01/2019,20:48:28,210220,1641.1310S,15119.5358W,4.7,41.9,210221,1641.1227S,15119.5224W,4.6,35.3, 29.7095, 36.0492,064.115,043,026,24.95,117.2,-3.76,-0.44,, 4.079  ,4.23,3.83,,,,00026.25,00000000,0159.578,00989,696.15,721.65,
05/01/2019,20:49:28,210320,1641.0976S,15119.4651W,4.5,48.7,210321,1641.0889S,15119.4511W,4.6,40.7, 29.7125, 36.0578,061.655,025,022,18.49,85.41,-10.68,-0.01,, 4.124  ,4.3,3.84,,,,00026.25,00000000,0186.895,00860,659.48,720.08,
05/01/2019,20:50:28,210420,1641.0634S,15119.3988W,4.3,50.7,210421,1641.0557S,15119.3854W,4.3,40.8, 29.7269, 36.0744,060.530,034,020,16.66,103.88,-4.38,-0.08,, 4.869  ,4.5,3.85,,,,00026.25,00000000,0183.047,00509,587.85,716.54,
05/01/2019,20:51:28,210520,1641.0213S,15119.3245W,4.9,47.6,210521,1641.0127S,15119.3107W,4.9,40.9, 29.7462, 36.1037,058.759,025,023,20.66,92.33,-7.14,1.25,, 3.641  ,4.27,3.86,,,,00026.25,00000000,0180.693,01270,626.22,714.88,
05/01/2019,20:52:28,210620,1640.9808S,15119.2590W,4.2,44.6,210621,1640.9719S,15119.2475W,3.5,29.4, 29.7659, 36.1161,048.421,027,019,16.81,84.95,-6.21,1.83,, 4.208  ,3.97,3.86,,,,00026.25,00000000,0182.761,00622,766.98,717.01,
05/01/2019,20:53:29,210720,1640.9446S,15119.2031W,4.0,46.0,210721,1640.9370S,15119.1912W,4.0,42.8, 29.7719, 36.1257,061.439,032,021,21.28,93.69,-5.05,2.77,, 3.717  ,4.33,3.87,,,,00026.25,00000000,0184.254,00724,547.98,715.63,
05/01/2019,20:54:29,210820,1640.9038S,15119.1488W,4.1,36.6,210821,1640.8917S,15119.1385W,4.5,19.5, 29.7812, 36.1364,041.169,048,026,24.8,98.97,-3.23,-0.11,, 3.795  ,4.03,3.88,,,,00026.25,00000000,0172.442,00348,618.53,714.48,
05/01/2019,20:55:29,210920,1640.8379S,15119.0974W,4.8,25.3,210921,1640.8276S,15119.0868W,5.0,16.3, 29.7914, 36.1544,042.416,050,023,22.38,105.47,-5.43,2.80,, 3.904  ,3.9,3.88,,,,00026.25,00000000,0163.712,00463,698.54,714.63,
05/01/2019,20:56:29,211020,1640.7675S,15119.0447W,5.1,22.3,211021,1640.7572S,15119.0356W,5.2,8.8, 29.8138, 36.1782,032.505,047,023,21.74,92.24,0.50,-2.17,, 3.628  ,3.8,3.88,,,,00026.25,00000000,0171.753,00613,671.9,714.06,
05/01/2019,20:57:29,211120,1640.6982S,15118.9932W,5.1,24.2,211121,1640.6902S,15118.9838W,5.0,17.5, 29.8178, 36.1879,041.706,069,017,18.09,127.88,-6.18,4.92,, 3.669  ,3.66,3.89,,,,00026.25,00000000,0196.563,01123,762,713.12,
05/01/2019,20:58:29,211220,1640.6351S,15118.9392W,5.0,26.8,211221,1640.6266S,15118.9302W,5.2,19.7, 29.8228, 36.1913,039.890,040,016,13.15,85.96,-9.36,-1.92,, 4.193  ,3.82,3.89,,,,00026.25,00000000,0188.321,00316,735.9,715.47,
05/01/2019,20:59:29,211320,1640.5735S,15118.8901W,4.8,25.3,211321,1640.5631S,15118.8798W,4.8,15.2, 29.8205, 36.1960,039.533,057,021,20.82,109.7,-9.53,5.14,, 4.236  ,3.83,3.9,,,,00026.25,00000000,0197.712,00851,690.03,714.54,
05/01/2019,21:00:29,211420,1640.5006S,15118.8380W,5.2,22.8,211421,1640.4910S,15118.8276W,5.3,17.2, 29.8218, 36.2050,039.687,055,021,20.51,109.3,-6.35,0.72,, 3.198  ,3.89,3.91,,,,00026.25,00000000,0191.974,00969,712.42,714.88,
05/01/2019,21:01:29,211520,1640.4305S,15118.7829W,5.1,24.5,211521,1640.4200S,15118.7728W,5.0,17.0, 29.8253, 36.2164,036.549,046,021,19.51,96.55,-5.22,0.53,, 3.058  ,3.44,3.91,,,,00026.25,00000000,0184.979,00750,774.25,716.01,
05/01/2019,21:02:29,211620,1640.3544S,15118.7311W,5.3,22.1,211621,1640.3494S,15118.7209W,5.3,21.1, 29.8360, 36.2219,047.175,036,022,22.87,102.52,-1.09,0.04,, 3.074  ,3.59,3.91,,,,00026.25,00000000,0187.564,00345,695.72,717.3,
05/01/2019,21:03:29,211720,1640.3076S,15118.6608W,5.0,40.8,211721,1640.3020S,15118.6484W,4.8,41.4, 29.8292, 36.2195,060.808,030,018,13.36,122.07,-8.08,2.82,, 3.883  ,3.46,3.91,,,,00026.25,00000000,0205.523,00674,756.37,719.13,
05/01/2019,21:04:29,211820,1640.2709S,15118.5887W,4.9,48.4,211821,1640.2629S,15118.5767W,5.3,41.2, 29.8597, 36.2535,060.811,024,024,15.68,97.45,-8.19,-3.74,, 3.393  ,3.83,3.91,,,,00026.25,00000000,0173.361,00623,614.23,717.01,
05/01/2019,21:05:29,211920,1640.2296S,15118.5184W,4.6,46.9,211921,1640.2227S,15118.5066W,4.3,36.8, 29.8731, 36.2648,056.766,025,024,21.18,90.02,-7.79,1.89,, 3.304  ,3.34,3.91,,,,00026.25,00000000,0210.806,00710,718.32,717.13,
05/01/2019,21:06:29,212020,1640.1906S,15118.4579W,4.3,45.8,212021,1640.1830S,15118.4455W,4.4,38.5, 29.8798, 36.2599,058.372,041,023,25.79,102.49,-9.50,3.34,, 4.226  ,3.77,3.91,,,,00026.25,00000000,0188.982,00511,561.8,715.89,
05/01/2019,21:07:29,212120,1640.1306S,15118.4051W,4.7,23.1,212121,1640.1179S,15118.3963W,5.2,3.9, 29.8807, 36.2579,032.232,040,018,17.12,92.63,-7.16,3.15,, 3.706  ,3.71,3.91,,,,00026.25,00000000,0186.336,00710,602.42,712.77,
05/01/2019,21:08:29,212220,1640.0817S,15118.3539W,4.2,36.5,212221,1640.0738S,15118.3396W,4.0,42.3, 29.8785, 36.2621,064.154,035,026,24.37,109.49,4.93,-0.01,, 4.009  ,3.54,3.9,,,,00026.25,00000000,0193.515,00175,685.37,713.64,
05/01/2019,21:09:29,212320,1640.0609S,15118.2950W,3.7,53.0,212321,1640.0492S,15118.2800W,3.6,43.8, 29.8819, 36.2632,061.242,041,018,20.22,110.82,-5.68,1.86,, 3.784  ,4.01,3.9,,,,00026.25,00000000,0143.037,00704,480.63,710.88,
05/01/2019,21:10:29,212420,1640.0172S,15118.2382W,4.1,38.8,212421,1640.0068S,15118.2257W,4.3,29.1, 29.8784, 36.2633,054.808,037,019,17.45,104.46,-8.12,5.27,, 3.731  ,3.56,3.9,,,,00026.25,00000000,0219.536,00515,601.61,709.24,
05/01/2019,21:11:29,212520,1639.9834S,15118.1742W,4.1,49.8,212521,1639.9774S,15118.1597W,4.1,44.9, 29.8675, 36.2658,072.985,036,028,26.47,116.99,2.71,-2.54,, 3.552  ,3.48,3.9,,,,00026.25,00000000,0146.713,00237,739.88,709.36,
05/01/2019,21:12:29,212620,1639.9512S,15118.1127W,4.0,42.2,212621,1639.9416S,15118.1015W,4.0,25.5, 29.8725, 36.2607,051.567,048,021,20.27,110.51,-4.51,-0.56,, 3.750  ,4.01,3.91,,,,00026.25,00000000,0164.861,00894,498.42,702.74,
05/01/2019,21:13:29,212720,1639.9104S,15118.0517W,4.2,44.9,212721,1639.9026S,15118.0391W,3.9,42.9, 29.8629, 36.2627,065.090,057,026,22.96,105.35,-5.48,-3.99,, 3.954  ,3.73,3.9,,,,00026.25,00000000,00157.74,00381,640.45,701.89,
05/01/2019,21:14:29,212820,1639.8791S,15117.9876W,4.3,50.9,212821,1639.8712S,15117.9738W,4.6,46.7, 29.8660, 36.2619,063.540,023,018,12.21,85.88,-11.32,0.89,, 3.933  ,3.94,3.9,,,,00026.25,00000000,0203.685,00547,526.5,698.96,
05/01/2019,21:15:29,212920,1639.8430S,15117.9169W,4.6,49.8,212921,1639.8352S,15117.9036W,4.8,40.0, 29.8692, 36.2661,058.598,030,025,22.12,97.97,-3.49,-1.16,, 3.146  ,3.69,3.9,,,,00026.25,00000000,0182.892,00791,609.97,697.6,
05/01/2019,21:16:29,213020,1639.7963S,15117.8405W,5.0,45.3,213021,1639.7866S,15117.8272W,4.9,37.4, 29.8647, 36.2693,058.378,035,017,14.83,109.28,-9.02,5.76,, 2.859  ,3.23,3.89,,,,00026.25,00000000,0183.501,01515,778.63,697.3,
05/01/2019,21:17:29,213120,1639.7468S,15117.7745W,4.9,37.8,213121,1639.7362S,15117.7610W,5.1,27.0, 29.8627, 36.2590,056.844,040,028,25.6,106.55,-7.05,2.56,, 3.875  ,3.63,3.89,,,,00026.25,00000000,0160.956,00524,718.63,697.57,
05/01/2019,21:18:29,213220,1639.7066S,15117.7034W,4.7,46.7,213221,1639.6970S,15117.6890W,4.4,40.2, 29.8643, 36.2659,062.765,032,030,23.39,98,-0.34,-3.57,, 3.501  ,3.4,3.89,,,,00026.25,00000000,0144.645,00422,732.9,696.48,
05/01/2019,21:19:29,213320,1639.6738S,15117.6334W,4.4,51.2,213321,1639.6644S,15117.6209W,4.4,36.9, 29.8661, 36.2638,058.160,025,027,20.99,87.96,-4.98,-3.06,, 3.650  ,3.83,3.89,,,,00026.25,00000000,00188.44,00357,545.05,691.01,
05/01/2019,21:20:29,213420,1639.6365S,15117.5836W,3.6,40.1,213421,1639.6280S,15117.5716W,3.5,30.5, 29.8620, 36.2676,059.134,037,024,19.85,104.45,-4.59,1.64,, 3.557  ,3.63,3.89,,,,00026.25,00000000,0163.023,00648,586.49,687.7,
05/01/2019,21:21:29,213520,1639.6004S,15117.5151W,4.5,51.1,213522,1639.5957S,15117.5013W,4.6,48.4, 29.8604, 36.2690,065.570,040,025,24.78,97.73,-8.42,-2.88,, 3.661  ,3.41,3.88,,,,00026.25,00000000,0161.415,01270,684.97,688,
05/01/2019,21:22:29,213620,1639.5600S,15117.4481W,4.5,42.7,213621,1639.5493S,15117.4364W,4.6,27.4, 29.8615, 36.2692,051.284,037,026,24.18,98.95,-2.32,-0.42,, 3.525  ,3.64,3.88,,,,00026.25,00000000,0182.091,00507,678.9,687.22,
05/01/2019,21:23:29,213720,1639.5074S,15117.3841W,4.7,39.0,213722,1639.4995S,15117.3711W,4.8,37.7, 29.8603, 36.2689,063.359,030,019,24.09,122.38,-5.27,7.65,, 3.362  ,3.75,3.89,,,,00026.25,00000000,0215.171,00505,603.93,684.15,
05/01/2019,21:24:29,213820,1639.4755S,15117.3174W,4.5,48.8,213822,1639.4682S,15117.3040W,4.8,41.7, 29.8649, 36.2699,063.822,042,019,17.5,120.84,-6.25,4.63,, 3.770  ,3.71,3.89,,,,00026.25,00000000,0163.942,00490,600.27,679.45,
05/01/2019,21:25:29,213920,1639.4350S,15117.2542W,4.5,40.7,213921,1639.4240S,15117.2412W,4.6,27.5, 29.8658, 36.2696,055.159,050,024,20.21,113.46,-0.98,0.52,, 3.844  ,3.77,3.89,,,,00026.25,00000000,0167.388,00281,609.95,678.95,
05/01/2019,21:26:29,214020,1639.3982S,15117.1857W,4.6,49.2,214022,1639.3890S,15117.1695W,4.8,42.2, 29.8680, 35.9996,063.848,027,022,19.17,101.68,-1.06,-1.31,, 3.747  ,3.73,3.89,,,,00026.25,00000000,0159.118,00327,636.08,676.46,
05/01/2019,21:27:29,214120,1639.3627S,15117.1148W,4.7,49.2,214122,1639.3520S,15117.1000W,5.0,36.7, 29.8755, 36.2696,058.252,038,020,17.99,110.11,-6.83,5.80,, 3.482  ,3.62,3.89,,,,00026.25,00000000,0186.375,00544,605.75,674.43,
05/01/2019,21:28:29,214220,1639.3155S,15117.0504W,4.5,40.6,214222,1639.3044S,15117.0364W,4.5,30.3, 29.8712, 36.2732,058.622,046,025,24.18,114.95,-3.80,2.92,, 3.472  ,3.46,3.88,,,,00026.25,00000000,00166.24,00484,689.95,673.41,
05/01/2019,21:29:29,214320,1639.2855S,15116.9871W,4.1,52.6,214322,1639.2797S,15116.9705W,3.8,52.5, 29.8760, 36.2714,067.782,033,031,28.7,106.59,1.23,1.04,, 3.898  ,3.74,3.88,,,,00026.25,00000000,00184.95,00330,621.69,672.74,
05/01/2019,21:30:29,214420,1639.2487S,15116.9232W,4.3,44.5,214422,1639.2406S,15116.9075W,4.3,37.1, 29.8762, 36.2747,063.742,031,026,26.75,114.3,0.45,-0.02,, 3.132  ,3.72,3.87,,,,00026.25,00000000,0185.536,00789,584.25,668.65,
05/01/2019,21:31:29,214520,1639.1997S,15116.8515W,4.7,40.3,214522,1639.1957S,15116.8413W,4.9,33.9, 29.8717, 36.2736,060.733,031,028,25.73,101.01,-0.51,0.18,, 3.170  ,3.46,3.86,,,,00026.25,00000000,0163.483,00278,794.13,670.84,
05/01/2019,21:32:29,214620,1639.1730S,15116.8009W,3.5,43.3,214622,1639.1635S,15116.7883W,3.3,29.8, 29.8799, 36.2732,058.258,056,021,20.94,123.28,-11.47,4.01,, 3.761  ,3.73,3.85,,,,00026.25,00000000,0183.125,00747,569.72,668.67,
05/01/2019,21:33:29,214720,1639.1358S,15116.7449W,4.1,44.4,214722,1639.1273S,15116.7306W,4.4,37.5, 29.8734, 36.2741,064.283,043,027,25.81,116.49,-10.85,-1.04,, 3.502  ,3.49,3.84,,,,00026.25,00000000,0159.807,00855,713.33,667.19,
05/01/2019,21:34:29,214820,1639.1022S,15116.6776W,4.2,48.4,214822,1639.0903S,15116.6640W,3.8,33.4, 29.8734, 36.2755,054.546,035,021,21.15,99.18,-3.16,1.75,, 3.436  ,3.46,3.83,,,,00026.25,00000000,00191.74,00671,742.98,666.72,
05/01/2019,21:35:29,214921,1639.0583S,15116.6146W,4.4,44.1,214922,1639.0498S,15116.6024W,4.6,36.6, 29.8828, 36.2741,061.139,029,024,22.3,96.18,-11.51,0.72,, 3.769  ,3.85,3.82,,,,00026.25,00000000,0208.969,00848,554.45,660.43,
05/01/2019,21:36:29,215021,1639.0234S,15116.5521W,4.0,45.0,215022,1639.0140S,15116.5409W,3.1,21.2, 29.8792, 36.2758,049.926,061,025,28.17,117.79,-4.30,1.08,, 3.416  ,3.41,3.81,,,,00026.25,00000000,0183.666,00441,694.67,658.97,
05/01/2019,21:37:29,215121,1638.9877S,15116.5014W,3.7,45.9,215122,1638.9812S,15116.4889W,3.8,38.1, 29.8784, 36.2738,062.311,030,026,23.98,99.7,-7.01,2.10,, 3.668  ,3.55,3.8,,,,00026.25,00000000,0185.561,00840,605.15,657.55,
05/01/2019,21:38:29,215221,1638.9486S,15116.4324W,4.6,46.6,215222,1638.9409S,15116.4206W,5.0,34.9, 29.8778, 36.2763,057.808,041,020,20.39,125.3,-12.66,6.69,, 3.501  ,3.52,3.78,,,,00026.25,00000000,0218.847,01013,635.53,656.12,
05/01/2019,21:39:29,215321,1638.9001S,15116.3721W,4.5,40.2,215322,1638.8936S,15116.3590W,4.6,36.7, 29.8778, 36.2722,064.732,040,021,19.65,116.86,-8.38,7.37,, 4.230  ,3.73,3.78,,,,00026.25,00000000,0201.388,00275,661.12,654.8,
05/01/2019,21:40:29,215421,1638.8632S,15116.3011W,4.6,47.1,215422,1638.8539S,15116.2890W,4.6,34.4, 29.8777, 36.2765,056.886,047,024,22.72,114.74,-9.71,1.06,, 3.526  ,3.7,3.77,,,,00026.25,00000000,0209.198,00460,582.13,654.83,
05/01/2019,21:41:29,215521,1638.8229S,15116.2446W,4.0,42.6,215522,1638.8160S,15116.2318W,3.7,36.0, 29.8782, 36.2766,062.942,032,025,23.36,102.81,-1.58,2.00,, 3.593  ,3.7,3.77,,,,00026.25,00000000,0171.523,00511,669.07,654.03,
05/01/2019,21:42:29,215621,1638.7888S,15116.1855W,4.2,44.1,215622,1638.7803S,15116.1749W,4.5,27.7, 29.8770, 36.2793,049.936,046,026,24.69,105.68,-7.51,-0.13,, 3.382  ,3.73,3.77,,,,00026.25,00000000,0151.077,00482,521.65,649.44,
05/01/2019,21:43:29,215721,1638.7462S,15116.1246W,4.2,43.5,215722,1638.7399S,15116.1120W,4.0,40.5, 29.8764, 36.2793,061.196,033,017,15.16,107.22,-9.35,4.75,, 3.577  ,3.31,3.76,,,,00026.25,00000000,0200.009,00559,760.05,651.12,
05/01/2019,21:44:29,215821,1638.7079S,15116.0674W,4.1,42.4,215822,1638.7002S,15116.0539W,3.5,33.4, 29.8775, 36.2728,055.707,047,019,17.92,112.64,-8.83,-2.11,, 3.727  ,3.79,3.76,,,,00026.25,00000000,0171.753,00812,631.47,647.85,
05/01/2019,21:45:29,215921,1638.6675S,15116.0054W,4.3,45.2,215922,1638.6597S,15115.9934W,4.4,31.9, 29.8840, 36.2796,053.171,048,022,20.7,112.5,-6.17,1.50,, 3.169  ,3.78,3.75,,,,00026.25,00000000,0184.609,00879,579.88,649.67,
05/01/2019,21:46:29,220021,1638.6237S,15115.9410W,4.5,44.7,220022,1638.6172S,15115.9302W,4.7,34.3, 29.8818, 36.2742,058.620,054,023,23.79,117.25,-4.93,1.26,, 3.970  ,3.34,3.73,,,,00026.25,00000000,0141.889,00420,828.75,651.94,
05/01/2019,21:47:29,220121,1638.5842S,15115.8747W,4.5,46.2,220122,1638.5778S,15115.8615W,4.5,37.4, 29.8883, 36.2586,058.820,047,026,25.52,113.3,-2.81,2.67,, 4.188  ,3.78,3.72,,,,00026.25,00000000,00187.01,00386,653.25,652.25,
05/01/2019,21:48:29,220221,1638.5412S,15115.8180W,4.1,38.6,220222,1638.5357S,15115.8058W,4.2,28.5, 29.8871, 36.2748,057.213,032,023,21.26,99.13,-5.88,2.43,, 4.016  ,3.82,3.71,,,,00026.25,00000000,0182.094,00428,592.63,650.19,
05/01/2019,21:49:29,220321,1638.5073S,15115.7629W,3.7,43.5,220322,1638.4993S,15115.7518W,3.3,30.5, 29.8859, 36.2764,053.873,048,022,21.03,111.25,-4.90,2.81,, 3.852  ,3.76,3.71,,,,00026.25,00000000,0171.294,00932,694.62,651.21,
05/01/2019,21:50:29,220421,1638.4733S,15115.7053W,3.8,47.6,220422,1638.4679S,15115.6931W,3.7,39.9, 29.8911, 36.2758,061.020,042,025,23.83,114.48,1.14,3.68,, 3.342  ,3.78,3.69,,,,00026.25,00000000,0151.996,00577,549.23,650.66,
05/01/2019,21:51:29,220521,1638.4381S,15115.6487W,3.7,39.9,220522,1638.4301S,15115.6400W,3.7,26.3, 29.8934, 36.2748,051.511,037,021,13.97,89.57,-8.01,-1.19,, 3.408  ,3.6,3.68,,,,00026.25,00000000,0171.294,01640,637.38,650.32,
05/01/2019,21:52:29,220621,1638.3970S,15115.5934W,4.1,40.8,220622,1638.3908S,15115.5840W,4.3,38.7, 29.8943, 36.2706,062.626,028,026,21.42,95.08,-5.47,-0.24,, 3.483  ,3.63,3.68,,,,00026.25,00000000,0159.118,00818,601.25,648.06,
05/01/2019,21:53:29,220721,1638.3570S,15115.5273W,4.4,42.5,220722,1638.3492S,15115.5175W,4.5,26.1, 29.8938, 36.2700,051.845,043,027,25.71,104.23,-0.72,-1.71,, 3.472  ,3.59,3.67,,,,00026.25,00000000,0156.591,00490,595.05,647.98,
05/01/2019,21:54:29,220821,1638.3169S,15115.4666W,4.2,46.1,220822,1638.3101S,15115.4574W,4.2,40.3, 29.8917, 36.2649,060.614,025,028,23.17,91.67,-6.48,-1.77,, 3.760  ,3.7,3.66,,,,00026.25,00000000,0183.175,00487,617.32,648.71,
05/01/2019,21:55:29,220921,1638.2816S,15115.4163W,3.7,38.1,220922,1638.2732S,15115.4059W,3.8,24.3, 29.8943, 36.2658,056.483,041,026,25.2,106.05,-4.35,0.72,, 3.059  ,3.73,3.66,,,,00026.25,00000000,0170.604,00817,590.22,646.86,
05/01/2019,21:56:29,221021,1638.2412S,15115.3506W,4.5,46.7,221022,1638.2363S,15115.3402W,4.8,36.3, 29.8879, 36.2571,054.499,035,025,22.24,97.39,-7.57,-4.35,, 3.343  ,3.34,3.65,,,,00026.25,00000000,0172.672,00364,713.37,647.64,
05/01/2019,21:57:29,221121,1638.2027S,15115.2870W,4.2,46.8,221122,1638.1958S,15115.2779W,4.0,42.9, 29.8859, 36.2581,060.506,031,023,20.62,99.15,-7.11,1.95,, 3.766  ,3.33,3.64,,,,00026.25,00000000,0170.604,00340,805.82,648.64,
05/01/2019,21:58:29,221221,1638.1655S,15115.2460W,3.3,34.0,221222,1638.1566S,15115.2359W,3.2,19.6, 29.8907, 36.2572,056.285,043,027,26.61,106.08,-3.40,-1.70,, 3.642  ,3.81,3.64,,,,00026.25,00000000,0159.578,00696,549.73,645.4,
05/01/2019,21:59:29,221321,1638.1304S,15115.1932W,3.8,41.9,221322,1638.1242S,15115.1831W,4.1,28.4, 29.8899, 36.2561,051.751,043,024,22.67,104.29,-5.48,0.00,, 3.600  ,3.6,3.64,,,,00026.25,00000000,0174.969,00592,586.55,643.45,
05/01/2019,22:00:29,221421,1638.0925S,15115.1267W,4.5,47.3,221422,1638.0843S,15115.1143W,4.7,37.9, 29.8797, 36.2532,058.111,036,027,24.73,103.68,-1.35,2.85,, 3.449  ,3.24,3.63,,,,00026.25,00000000,0175.199,00622,726.53,643.46,
05/01/2019,22:01:29,221521,1638.0522S,15115.0556W,4.6,46.5,221522,1638.0444S,15115.0478W,4.8,32.2, 29.8845, 36.2491,051.771,037,022,19.62,99.97,-5.94,-0.41,, 3.889  ,3.79,3.63,,,,00026.25,00000000,0152.226,00449,556.08,639.77,
05/01/2019,22:02:29,221621,1638.0019S,15114.9912W,4.8,40.9,221622,1637.9951S,15114.9808W,4.9,33.4, 29.8850, 36.2490,059.048,050,027,23.9,118.04,-3.97,1.82,, 4.225  ,3.48,3.63,,,,00026.25,00000000,0170.604,00243,661.4,639.33,
05/01/2019,22:03:30,221721,1637.9538S,15114.9202W,4.9,40.7,221722,1637.9463S,15114.9092W,4.9,30.2, 29.8833, 36.2495,052.636,046,026,24.11,101.34,-7.57,-0.14,, 3.371  ,3.51,3.63,,,,00026.25,00000000,00165.78,00686,652.08,637.18,
05/01/2019,22:04:30,221821,1637.9062S,15114.8480W,4.9,43.7,221822,1637.8977S,15114.8374W,4.7,34.3, 29.8816, 36.2462,056.079,049,027,25.84,114.97,-4.18,-0.76,, 3.164  ,3.37,3.63,,,,00026.25,00000000,0148.551,00672,721.5,639.01,
05/01/2019,22:05:30,221921,1637.8654S,15114.7801W,4.7,46.7,221922,1637.8599S,15114.7696W,4.8,40.8, 29.8882, 36.2308,060.965,019,023,19.52,88.9,-9.88,-1.46,, 3.564  ,3.66,3.63,,,,00026.25,00000000,0171.523,00573,554.37,636.55,
05/01/2019,22:06:30,222021,1637.8276S,15114.7166W,4.4,44.5,222022,1637.8208S,15114.7068W,4.6,34.5, 29.8870, 36.2426,058.543,036,023,24.25,107.12,-1.83,4.48,, 3.695  ,3.6,3.63,,,,00026.25,00000000,0160.496,00410,547.87,635.85,
05/01/2019,22:07:30,222121,1637.7916S,15114.6562W,4.0,45.4,222122,1637.7850S,15114.6452W,3.8,40.4, 29.8908, 36.2424,061.428,026,021,19.29,87.63,-9.97,2.48,, 3.594  ,3.47,3.62,,,,00026.25,00000000,0201.388,00811,579.25,635.92,
05/01/2019,22:08:30,222221,1637.7575S,15114.5933W,4.2,45.6,222222,1637.7477S,15114.5811W,4.2,27.0, 29.8907, 36.2425,052.943,041,022,17.98,112.48,-3.56,-0.70,, 3.095  ,3.42,3.62,,,,00026.25,00000000,0186.004,00810,591.93,634.61,
05/01/2019,22:09:30,222321,1637.7106S,15114.5346W,4.4,39.1,222322,1637.7042S,15114.5227W,4.6,31.9, 29.8899, 36.2417,057.103,031,019,16.88,101.19,-6.80,1.92,, 3.411  ,3.4,3.61,,,,00026.25,00000000,00199.55,00960,651.88,637.57,
05/01/2019,22:10:30,222421,1637.6735S,15114.4716W,4.3,45.7,222422,1637.6673S,15114.4595W,3.8,39.6, 29.8880, 36.2367,061.318,047,022,20.66,113.89,-6.53,2.02,, 4.025  ,3.64,3.61,,,,00026.25,00000000,0170.834,00607,681.75,638.37,
05/01/2019,22:11:30,222521,1637.6319S,15114.4146W,4.2,38.2,222522,1637.6227S,15114.4022W,4.6,26.8, 29.8903, 36.2397,055.428,040,019,17.85,109.32,-4.17,10.02,, 3.622  ,3.86,3.62,,,,00026.25,00000000,0208.739,00618,607.68,635.84,
05/01/2019,22:12:30,222621,1637.5981S,15114.3646W,3.8,42.5,222622,1637.5896S,15114.3508W,4.1,37.1, 29.8893, 36.2412,064.854,034,024,22.31,107.55,-2.31,-0.68,, 3.825  ,3.67,3.61,,,,00026.25,00000000,0168.537,00396,631.9,637.33,
05/01/2019,22:13:30,222721,1637.5544S,15114.2971W,4.6,41.4,222722,1637.5467S,15114.2839W,5.0,29.5, 29.8883, 36.2398,054.077,044,022,20.71,110.46,-7.03,2.91,, 3.539  ,3.5,3.61,,,,00026.25,00000000,0172.212,00877,586.03,636.89,
05/01/2019,22:14:30,222821,1637.5119S,15114.2197W,5.0,48.2,222822,1637.5047S,15114.2071W,5.2,39.9, 29.8926, 36.2454,059.549,028,024,19.61,108.77,-6.83,3.56,, 2.977  ,3.25,3.6,,,,00026.25,00000000,0208.509,01366,725.58,640.31,
05/01/2019,22:15:30,222921,1637.4651S,15114.1534W,4.8,41.3,222922,1637.4560S,15114.1388W,4.7,30.2, 29.8988, 36.2441,054.706,038,023,21.24,104.02,-7.18,4.50,, 3.496  ,3.47,3.6,,,,00026.25,00000000,0179.504,00802,701.52,642.08,
05/01/2019,22:16:30,223021,1637.4203S,15114.0848W,4.8,43.4,223022,1637.4129S,15114.0684W,5.0,35.2, 29.8976, 36.2448,061.251,030,022,19.65,103.44,-2.23,2.73,, 3.466  ,3.68,3.6,,,,00026.25,00000000,0183.076,00382,592.03,639.66,
05/01/2019,22:17:30,223121,1637.3795S,15114.0145W,4.6,41.4,223122,1637.3658S,15114.0067W,4.1,356.8, 29.8976, 36.2415,004.053,096,020,21.53,113.87,1.07,2.09,, 3.248  ,3.59,3.6,,,,00026.25,00000000,0161.645,00758,608.88,638.52,
05/01/2019,22:18:30,223221,1637.3323S,15114.0657W,3.6,283.9,223222,1637.3401S,15114.0774W,5.5,221.2, 29.9076, 36.2474,222.923,272,018,19.59,106.48,8.04,1.75,, 2.928  ,3.64,3.61,,,,00026.25,00000000,0172.877,00452,430.22,632.95,
05/01/2019,22:19:30,223321,1637.4115S,15114.1314W,5.5,210.0,223322,1637.4212S,15114.1363W,6.3,193.0, 29.9039, 36.2493,209.399,268,025,17.87,92.72,4.15,2.30,, 2.777  ,2.82,3.59,,,,00026.25,00000000,0152.226,00439,514.68,632.38,
05/01/2019,22:20:30,223421,1637.5071S,15114.1740W,5.9,186.7,223422,1637.5194S,15114.1743W,5.6,153.3, 29.9005, 36.2481,166.058,303,027,23.32,99.41,6.27,1.79,, 2.861  ,2.81,3.58,,,,00026.25,00000000,0135.916,00484,495.62,630.93,
05/01/2019,22:21:30,223521,1637.5986S,15114.1742W,5.6,171.8,223523,1637.6150S,15114.1748W,5.1,157.5, 29.9017, 36.2482,171.676,314,022,17.87,117.02,6.67,-0.84,, 2.853  ,2.83,3.57,,,,00026.25,00000000,0154.753,00888,564.1,628.28,
05/01/2019,22:22:30,223621,1637.6855S,15114.1695W,5.2,165.8,223623,1637.7018S,15114.1694W,5.1,157.1, 29.9010, 36.2475,168.116,297,023,20.59,89.27,6.82,4.34,, 2.841  ,2.84,3.55,,,,00026.25,00000000,0169.454,00291,503.14,625.56,
05/01/2019,22:23:30,223721,1637.7809S,15114.1638W,5.7,164.3,223723,1637.7990S,15114.1661W,5.6,154.1, 29.9005, 36.2477,175.578,299,021,16.72,108.02,8.90,1.99,, 2.826  ,2.95,3.54,,,,00026.25,00000000,0153.834,00336,473.22,623.47,
05/01/2019,22:24:30,223821,1637.8797S,15114.1668W,5.9,166.6,223823,1637.8965S,15114.1644W,5.7,152.0, 29.8996, 36.2368,165.907,312,023,20.93,102.36,6.30,0.20,, 2.811  ,2.81,3.52,,,,00026.25,00000000,0153.145,00552,458.42,621.34,
05/01/2019,22:25:30,223921,1637.9783S,15114.1576W,5.8,163.8,223923,1637.9957S,15114.1568W,5.3,158.5, 29.8974, 36.2484,173.434,304,026,22.28,108.44,6.61,-2.49,, 2.862  ,2.83,3.51,,,,00026.25,00000000,0159.578,00462,481.82,619.5,
05/01/2019,22:26:30,224021,1638.0712S,15114.1639W,5.6,168.0,224023,1638.0867S,15114.1605W,5.5,151.9, 29.8994, 36.2486,162.392,290,022,19.15,100.64,8.38,-1.54,, 2.831  ,2.87,3.49,,,,00026.25,00000000,0141.659,00194,477.32,617.2,
05/01/2019,22:27:30,224121,1638.1655S,15114.1601W,5.7,167.1,224123,1638.1828S,15114.1585W,6.2,154.7, 29.8976, 36.2477,167.037,311,021,16.45,105.03,11.29,0.24,, 2.913  ,2.86,3.48,,,,00026.25,00000000,0145.794,00125,499.37,615.16,
05/01/2019,22:28:30,224221,1638.2586S,15114.1522W,5.7,162.9,224223,1638.2746S,15114.1494W,5.4,150.2, 29.9003, 36.2494,168.218,315,019,14.4,113.42,10.21,4.29,, 2.799  ,2.82,3.47,,,,00026.25,00000000,0206.671,00310,397.77,610.99,
05/01/2019,22:29:30,224321,1638.3486S,15114.1514W,5.4,167.6,224323,1638.3656S,15114.1501W,5.1,158.2, 29.8994, 36.2489,168.128,308,021,17.5,105.76,7.41,4.19,, 2.795  ,3,3.46,,,,00026.25,00000000,00183.01,00344,428.95,607.86,
05/01/2019,22:30:30,224421,1638.4408S,15114.1434W,5.6,163.6,224423,1638.4571S,15114.1407W,5.9,153.3, 29.8973, 36.2509,167.202,312,021,19.44,82.14,7.77,7.29,, 2.788  ,3.08,3.45,,,,00026.25,00000000,0203.455,00751,401.78,604.81,
05/01/2019,22:31:30,224521,1638.5399S,15114.1353W,5.9,163.0,224523,1638.5557S,15114.1343W,5.8,155.1, 29.9000, 36.2526,170.491,296,017,13.87,88.2,6.64,4.80,, 2.795  ,2.84,3.44,,,,00026.25,00000000,0191.739,00357,519.45,599.73,
05/01/2019,22:32:30,224621,1638.6393S,15114.1425W,6.0,170.7,224623,1638.6564S,15114.1403W,6.1,158.8, 29.9026, 36.2534,170.332,303,020,16.41,97.69,3.98,0.56,, 2.755  ,2.8,3.42,,,,00026.25,00000000,0173.878,00512,506.67,598.16,
05/01/2019,22:33:30,224721,1638.7367S,15114.1264W,5.7,158.2,224723,1638.7522S,15114.1189W,5.5,138.3, 29.9021, 36.2564,147.763,315,027,22.83,94.48,3.95,0.74,, 2.769  ,2.8,3.41,,,,00026.25,00000000,0146.483,00516,554.25,595.39,
05/01/2019,22:34:30,224821,1638.8149S,15114.0920W,5.0,146.2,224823,1638.8295S,15114.0835W,4.8,133.0, 29.9039, 36.2567,144.224,315,029,21.43,112.69,3.59,-2.63,, 2.845  ,2.84,3.4,,,,00026.25,00000000,0137.983,00448,533.1,591.99,
05/01/2019,22:35:30,224921,1638.8886S,15114.0564W,5.0,141.9,224923,1638.9042S,15114.0475W,4.9,128.4, 29.9047, 36.2594,136.926,337,026,15.33,112.37,5.83,-1.57,, 2.912  ,2.87,3.38,,,,00026.25,00000000,00183.01,00823,544.72,592.17,
05/01/2019,22:36:30,225021,1638.9600S,15114.0157W,5.1,142.0,225023,1638.9762S,15114.0083W,5.2,135.2, 29.9086, 36.2635,151.748,328,023,18.04,115.34,1.15,3.07,, 2.860  ,2.86,3.37,,,,00026.25,00000000,0185.077,00483,570.62,589.42,
05/01/2019,22:37:30,225121,1639.0464S,15113.9855W,5.4,146.7,225123,1639.0630S,15113.9788W,5.2,133.1, 29.9078, 36.2661,137.602,344,024,18.94,118.33,6.09,0.48,, 2.805  ,3,3.37,,,,00026.25,00000000,0186.915,01048,538.9,587.38,
05/01/2019,22:38:30,225221,1639.1223S,15113.9443W,5.1,143.4,225223,1639.1392S,15113.9384W,5.1,134.4, 29.9091, 36.2685,142.919,324,021,16.62,99.91,3.40,4.57,, 2.848  ,2.8,3.35,,,,00026.25,00000000,0172.249,00317,590.02,586.13,
05/01/2019,22:39:30,225321,1639.2004S,15113.8982W,5.5,140.0,225323,1639.2190S,15113.8945W,5.8,136.6, 29.9087, 36.2697,148.035,328,025,17.48,116.96,1.65,-1.99,, 2.890  ,2.92,3.34,,,,00026.25,00000000,0154.523,00418,607.58,585.33,
05/01/2019,22:40:30,225421,1639.2819S,15113.8521W,5.4,136.7,225423,1639.2970S,15113.8432W,5.2,122.5, 29.9122, 36.2714,132.371,331,021,23.25,96.64,2.69,5.89,, 2.833  ,2.84,3.33,,,,00026.25,00000000,0181.172,00353,600.67,585.29,
05/01/2019,22:41:30,225521,1639.3526S,15113.8079W,5.0,139.3,225523,1639.3692S,15113.8024W,5.0,133.7, 29.9140, 36.2716,151.009,319,023,16.18,112.51,4.87,0.75,, 2.821  ,2.83,3.31,,,,00026.25,00000000,0160.496,00450,617.49,584,
05/01/2019,22:42:30,225621,1639.4244S,15113.7850W,4.4,147.8,225623,1639.4388S,15113.7785W,4.2,131.3, 29.9123, 36.2708,138.037,334,027,23.08,108.59,5.39,4.21,, 2.900  ,2.87,3.3,,,,00026.25,00000000,0193.577,00675,533.03,584.44,
05/01/2019,22:43:30,225721,1639.4916S,15113.7444W,4.8,139.4,225723,1639.5067S,15113.7377W,5.2,137.6, 29.9116, 36.2727,153.644,315,022,17.53,100.86,5.74,0.75,, 2.837  ,3.1,3.29,,,,00026.25,00000000,0170.055,00466,516.92,580.55,
05/01/2019,22:44:30,225821,1639.5759S,15113.7062W,5.6,141.0,225823,1639.5921S,15113.6985W,5.6,128.1, 29.9122, 36.2739,143.690,327,017,11.66,102.52,2.56,6.67,, 2.887  ,2.89,3.28,,,,00026.25,00000000,00199.78,00984,559.82,579.35,
05/01/2019,22:45:30,225922,1639.6624S,15113.6612W,5.6,140.0,225923,1639.6743S,15113.6553W,5.3,124.0, 29.9073, 36.2759,142.260,329,020,14.87,106.86,5.04,3.62,, 2.913  ,2.89,3.26,,,,00026.25,00000000,00182.78,00567,555.13,579.12,
05/01/2019,22:46:30,230022,1639.7492S,15113.6247W,5.5,142.4,230023,1639.7590S,15113.6167W,5.4,125.8, 29.9066, 36.2794,135.945,346,025,20.6,114.4,0.88,-1.15,, 2.874  ,2.93,3.26,,,,00026.25,00000000,0174.076,00893,569.34,575.18,
05/01/2019,22:47:30,230122,1639.8280S,15113.5846W,5.3,144.3,230123,1639.8408S,15113.5784W,5.2,132.8, 29.9115, 36.2807,143.277,331,026,21.13,109.79,5.17,-2.35,, 2.861  ,2.87,3.24,,,,00026.25,00000000,0144.875,00565,585.48,574.15,
05/01/2019,22:48:30,230222,1639.8892S,15113.5521W,4.3,141.7,230223,1639.9024S,15113.5454W,4.2,131.2, 29.9129, 36.2806,144.271,330,025,21.02,110.94,5.94,2.00,, 3.140  ,2.86,3.23,,,,00026.25,00000000,0171.906,00644,575.57,574.02,
05/01/2019,22:49:30,230322,1639.9529S,15113.5178W,4.3,139.0,230323,1639.9651S,15113.5107W,4.6,128.9, 29.9135, 36.2800,146.539,327,025,20.78,108.37,1.89,4.01,, 2.799  ,2.87,3.21,,,,00026.25,00000000,0171.022,00728,636.75,572.62,
05/01/2019,22:50:30,230422,1640.0311S,15113.4759W,5.3,139.9,230423,1640.0443S,15113.4702W,5.3,130.7, 29.9137, 36.2826,145.783,334,025,16.95,108.1,-0.66,5.74,, 2.806  ,2.83,3.19,,,,00026.25,00000000,0195.645,01395,623.32,573.21,
05/01/2019,22:51:30,230522,1640.1035S,15113.4361W,5.0,139.1,230523,1640.1165S,15113.4291W,4.9,128.6, 29.9170, 36.2849,144.585,331,020,18.38,107.4,4.06,3.64,, 2.793  ,2.83,3.18,,,,00026.25,00000000,000171.7,00419,626.02,573.12,
05/01/2019,22:52:30,230622,1640.1818S,15113.3970W,5.2,140.3,230623,1640.1949S,15113.3872W,5.0,124.0, 29.9160, 36.2838,135.663,342,020,12.9,120.95,7.39,-0.17,, 2.816  ,2.86,3.17,,,,00026.25,00000000,0147.172,00522,592.23,573.61,
05/01/2019,22:53:30,230722,1640.2497S,15113.3595W,4.6,141.7,230723,1640.2646S,15113.3547W,4.1,143.0, 29.9135, 36.2830,155.366,283,018,16.68,65.26,3.33,5.31,, 3.125  ,2.87,3.16,,,,00026.25,00000000,0170.161,00328,645.08,574.59,
05/01/2019,22:54:30,230822,1640.3163S,15113.3294W,4.4,139.6,230823,1640.3276S,15113.3199W,3.9,117.5, 29.9143, 36.2821,126.478,332,026,21.28,98.39,2.93,3.15,, 2.887  ,3.09,3.15,,,,00026.25,00000000,0163.483,00636,565.83,574.05,
05/01/2019,22:55:30,230922,1640.3683S,15113.2946W,3.9,140.3,230923,1640.3822S,15113.2908W,3.7,135.6, 29.9144, 36.2822,147.779,325,021,14.48,111.54,6.17,2.27,, 2.944  ,2.93,3.13,,,,00026.25,00000000,0172.332,00524,642.32,575.18,
05/01/2019,22:56:30,231022,1640.4372S,15113.2671W,4.3,144.2,231023,1640.4500S,15113.2613W,4.0,131.6, 29.9108, 36.2817,141.194,318,022,19.21,111.7,5.28,-0.50,, 2.857  ,3.04,3.13,,,,00026.25,00000000,0152.686,00428,616.78,573.01,
05/01/2019,22:57:30,231122,1640.5089S,15113.2301W,4.9,140.7,231123,1640.5226S,15113.2233W,5.1,129.5, 29.9095, 36.2807,146.021,326,024,20.17,109.06,5.79,-0.99,, 2.922  ,2.9,3.12,,,,00026.25,00000000,0162.794,00698,651.6,570.01,
05/01/2019,22:58:30,231222,1640.5934S,15113.1924W,5.4,143.1,231223,1640.6079S,15113.1875W,5.7,133.3, 29.9102, 36.2810,143.872,318,020,15.43,90.76,8.47,3.56,, 2.881  ,2.87,3.11,,,,00026.25,00000000,00165.78,00402,613.25,570.6,
05/01/2019,22:59:30,231322,1640.6770S,15113.1449W,5.8,139.2,231323,1640.6909S,15113.1378W,5.9,129.4, 29.9091, 36.2810,140.820,317,020,15.28,86.25,3.91,6.03,, 2.853  ,2.85,3.09,,,,00026.25,00000000,0168.841,00441,615.65,571.2,
05/01/2019,23:00:30,231422,1640.7625S,15113.1039W,5.6,143.1,231423,1640.7744S,15113.0956W,5.5,131.1, 29.9125, 36.2802,138.568,319,021,16.66,87.19,3.36,1.43,, 2.893  ,2.84,3.09,,,,00026.25,00000000,0166.699,00275,618.93,569.47,
05/01/2019,23:01:30,231522,1640.8361S,15113.0566W,5.2,137.6,231523,1640.8493S,15113.0503W,5.2,131.9, 29.9157, 36.2799,147.296,328,021,16.03,109.53,7.40,-2.46,, 2.950  ,2.89,3.07,,,,00026.25,00000000,0178.674,00906,606.73,570.29,
05/01/2019,23:02:30,231622,1640.9124S,15113.0186W,5.0,141.2,231623,1640.9250S,15113.0133W,5.0,129.4, 29.9183, 36.2796,138.288,320,020,15.8,91.53,6.87,2.94,, 2.866  ,2.88,3.06,,,,00026.25,00000000,0158.888,00173,618.9,569.37,
05/01/2019,23:03:30,231722,1640.9864S,15112.9748W,5.1,138.9,231723,1640.9995S,15112.9710W,5.3,131.3, 29.9185, 36.2765,149.008,346,014,8.72,137.26,6.30,0.00,, 2.846  ,3.07,3.05,,,,00026.25,00000000,0175.148,00738,594.47,569.09,
05/01/2019,23:04:30,231822,1641.0675S,15112.9345W,5.3,140.1,231823,1641.0801S,15112.9295W,5.2,132.2, 29.9225, 36.2805,148.572,325,014,9.22,103.2,-1.01,4.62,, 2.822  ,2.84,3.05,,,,00026.25,00000000,0174.654,00468,717.72,569.2,
05/01/2019,23:05:30,231922,1641.1390S,15112.8973W,4.8,139.1,231923,1641.1494S,15112.8888W,4.3,123.6, 29.9250, 36.2798,134.813,326,014,10.2,90.55,2.18,7.95,, 2.760  ,2.82,3.03,,,,00026.25,00000000,0190.361,00465,720.86,572.1,
